rosbagTimestamp,header,seq,stamp,secs,nsecs,frame_id,pose,position,x,y,z,orientation,x,y,z,w
1520440529149845361,,1148,,1520440529,149603205,"""world""",,,0.00832064915448,-0.0182437747717,0.0881039500237,,0.00239139096811,-0.00501404097304,-0.0117346430197,-0.999915719032
1520440529149855005,,1149,,1520440529,149637830,"""world""",,,0.00832461379468,-0.0182476062328,0.0881054550409,,0.00243767001666,-0.00499098096043,-0.0117279309779,-0.999915838242
1520440529149937960,,1150,,1520440529,149661044,"""world""",,,0.00832598283887,-0.0182569660246,0.0881126895547,,0.00250154361129,-0.00503500271589,-0.011748299934,-0.99991518259
1520440529149940963,,1151,,1520440529,149674167,"""world""",,,0.00833421386778,-0.0182615034282,0.088118314743,,0.00251279585063,-0.00503228465095,-0.0117770899087,-0.999914824963
1520440529189885176,,1152,,1520440529,189712588,"""world""",,,0.00833034701645,-0.0182517077774,0.0881203487515,,0.00236251135357,-0.00505674351007,-0.0117725552991,-0.99991518259
1520440529189900995,,1153,,1520440529,189737653,"""world""",,,0.00832660403103,-0.0182561185211,0.0881132185459,,0.00246840785258,-0.00500082876533,-0.0117734503001,-0.999915242195
1520440529189908119,,1154,,1520440529,189760038,"""world""",,,0.0083248578012,-0.0182551108301,0.0881122797728,,0.0024001239799,-0.00499597424641,-0.0117531791329,-0.999915599823
1520440529220104288,,1155,,1520440529,219869486,"""world""",,,0.00832443125546,-0.0182483792305,0.0881014615297,,0.00238943216391,-0.00505180563778,-0.0117647042498,-0.99991518259
1520440529241071165,,1156,,1520440529,240682407,"""world""",,,0.00833161268383,-0.0182381644845,0.0881100147963,,0.00242213369347,-0.00499261729419,-0.0117265535519,-0.999915838242
1520440529241078879,,1157,,1520440529,240708900,"""world""",,,0.00833788048476,-0.0182337872684,0.0881496816874,,0.00250223558396,-0.00494845490903,-0.0117647917941,-0.999915480614
1520440529241085019,,1158,,1520440529,240727752,"""world""",,,0.00833583250642,-0.0182613693178,0.0881253257394,,0.00238953507505,-0.00500735640526,-0.0117376679555,-0.999915719032
1520440529241088894,,1162,,1520440529,240768135,"""world""",,,0.00833148043603,-0.0182502586395,0.0881142914295,,0.00241387146525,-0.00500735221431,-0.0117452573031,-0.999915659428
1520440529301214519,,1163,,1520440529,300622574,"""world""",,,0.0083216521889,-0.0182374101132,0.088114194572,,0.00242806482129,-0.00498781120405,-0.0117222750559,-0.999915897846
1520440529301764919,,1165,,1520440529,300721921,"""world""",,,0.00833350792527,-0.0182597450912,0.0881083831191,,0.00245170341805,-0.00505675328895,-0.0117723951116,-0.999914944172
1520440529301797354,,1166,,1520440529,300902817,"""world""",,,0.00833328533918,-0.0182556174695,0.0881157517433,,0.00249865232036,-0.00502389948815,-0.0117535693571,-0.999915242195
1520440529301812647,,1167,,1520440529,301018693,"""world""",,,0.00833634287119,-0.0182647779584,0.0881160646677,,0.00246462156065,-0.00499683152884,-0.0117321684957,-0.999915659428
1520440529301830268,,1168,,1520440529,301266194,"""world""",,,0.00832593813539,-0.0182655453682,0.0881150811911,,0.00234050583094,-0.00496841408312,-0.0117584932595,-0.999915838242
1520440529301925678,,1169,,1520440529,301382826,"""world""",,,0.00832952558994,-0.0182641670108,0.0881080105901,,0.00244784145616,-0.00500530330464,-0.0117364814505,-0.999915659428
1520440529380048006,,1170,,1520440529,379660759,"""world""",,,0.00833458360285,-0.0182291641831,0.0881279110909,,0.00242600264028,-0.00497634150088,-0.0117794554681,-0.999915361404
1520440529380091397,,1172,,1520440529,379709382,"""world""",,,0.0083295237273,-0.0182560440153,0.0881196409464,,0.00244205119088,-0.00497430097312,-0.0117356125265,-0.999915778637
1520440529421064857,,1173,,1520440529,420405141,"""world""",,,0.00833957921714,-0.0182542856783,0.0881096348166,,0.00244808802381,-0.00505230110139,-0.0117362998426,-0.999915361404
1520440529421079301,,1175,,1520440529,420514583,"""world""",,,0.00832692626864,-0.0182553622872,0.0881229862571,,0.00243275961839,-0.00497552892193,-0.0117409862578,-0.999915838242
1520440529421110196,,1176,,1520440529,420664230,"""world""",,,0.00832092855126,-0.0182550475001,0.0881221815944,,0.00241209752858,-0.00498180883005,-0.0117536168545,-0.999915659428
1520440529421964227,,1177,,1520440529,420793959,"""world""",,,0.00832210574299,-0.0182437933981,0.0881074965,,0.00240142107941,-0.00503181433305,-0.0117577891797,-0.999915361404
1520440529422076602,,1180,,1520440529,421193444,"""world""",,,0.00832678005099,-0.0182604137808,0.0881219804287,,0.00243934732862,-0.00501506496221,-0.0117483669892,-0.999915540218
1520440529480865070,,1181,,1520440529,480338792,"""world""",,,0.00832367874682,-0.0182651095092,0.0881221964955,,0.00244090426713,-0.00498439837247,-0.0117594236508,-0.999915480614
1520440529480873383,,1182,,1520440529,480432160,"""world""",,,0.00832593534142,-0.0182557664812,0.0881511345506,,0.00221710256301,-0.00471575791016,-0.0117048583925,-0.999917984009
1520440529511164655,,1183,,1520440529,510598812,"""world""",,,0.0083338432014,-0.0182441584766,0.0881043076515,,0.00243906513788,-0.00506185134873,-0.0117555977777,-0.99991518259
1520440529511178296,,1187,,1520440529,510684933,"""world""",,,0.00832764804363,-0.0182654038072,0.0881087630987,,0.00247021741234,-0.00497060874477,-0.011747890152,-0.999915599823
1520440529511198235,,1188,,1520440529,510780743,"""world""",,,0.00833289977163,-0.0182628426701,0.088104583323,,0.00248374929652,-0.00498703168705,-0.0117503581569,-0.999915480614
1520440529511209161,,1189,,1520440529,510825221,"""world""",,,0.00834023673087,-0.018253237009,0.0880964919925,,0.00244538346305,-0.0050293202512,-0.0117556415498,-0.9999153018
1520440529511217213,,1190,,1520440529,510860182,"""world""",,,0.00833288393915,-0.0182568989694,0.0881138294935,,0.00245653744787,-0.00500704767182,-0.0117521258071,-0.999915480614
1520440529511225472,,1194,,1520440529,510921100,"""world""",,,0.00832878798246,-0.0182475224137,0.0881070643663,,0.00247388402931,-0.0050408616662,-0.0117394225672,-0.999915421009
1520440529511300274,,1195,,1520440529,511069307,"""world""",,,0.00833360943943,-0.0182521156967,0.08811211586,,0.0024833411444,-0.00506804510951,-0.0117797618732,-0.999914765358
1520440529520802924,,1196,,1520440529,520459660,"""world""",,,0.00832733977586,-0.0182504467666,0.0881076082587,,0.0024472028017,-0.00507485540584,-0.0117780715227,-0.999914824963
1520440529520811076,,1197,,1520440529,520507502,"""world""",,,0.00832736864686,-0.0182609036565,0.0881238356233,,0.00246151443571,-0.00497674103826,-0.0117488335818,-0.999915599823
1520440529530366162,,1198,,1520440529,529961446,"""world""",,,0.00832298584282,-0.0182687602937,0.088123947382,,0.00238748663105,-0.00501163117588,-0.0117496233433,-0.999915599823
1520440529540696634,,1199,,1520440529,540336405,"""world""",,,0.0083308974281,-0.0182755030692,0.0881205946207,,0.00253844843246,-0.00494636502117,-0.0117511507124,-0.999915480614
1520440529550340244,,1200,,1520440529,549614442,"""world""",,,0.00832592044026,-0.0182645656168,0.088110588491,,0.00244320835918,-0.00507142860442,-0.0117635745555,-0.999915063381
1520440529560714739,,1201,,1520440529,560106253,"""world""",,,0.00833193492144,-0.0182514563203,0.0881073698401,,0.00245563662611,-0.00505802687258,-0.0117526724935,-0.99991518259
1520440529571380610,,1202,,1520440529,570565070,"""world""",,,0.00832275114954,-0.0182436816394,0.0881168991327,,0.00240105716512,-0.00506149837747,-0.0117904637009,-0.999914884567
1520440529571396471,,1203,,1520440529,570948763,"""world""",,,0.00832347199321,-0.0182368569076,0.0881170704961,,0.00236862828024,-0.00503594940528,-0.011755714193,-0.999915421009
1520440529581205442,,1204,,1520440529,580585759,"""world""",,,0.00832219980657,-0.0182512868196,0.0881237387657,,0.00242759590037,-0.00495506590232,-0.0117377294227,-0.999915897846
1520440529590496118,,1205,,1520440529,590122362,"""world""",,,0.00833189021796,-0.0182624924928,0.0881168097258,,0.00243580807,-0.00499886274338,-0.0117693943903,-0.9999153018
1520440529601033352,,1206,,1520440529,600619553,"""world""",,,0.00832599774003,-0.0182655528188,0.0881048217416,,0.00236180331558,-0.00502589670941,-0.0117767984048,-0.9999153018
1520440529610512610,,1207,,1520440529,610078307,"""world""",,,0.00832576211542,-0.0182687491179,0.0881060659885,,0.00244756881148,-0.00507593574002,-0.0118159428239,-0.99991440773
1520440529610547552,,1208,,1520440529,610141657,"""world""",,,0.00832769833505,-0.0182417854667,0.0881275832653,,0.00249853450805,-0.00504259951413,-0.0117881912738,-0.999914705753
1520440529620948992,,1209,,1520440529,620527226,"""world""",,,0.00832930020988,-0.018243830651,0.0881189703941,,0.00244290102273,-0.00497659342363,-0.0117329945788,-0.999915778637
1520440529630297580,,1210,,1520440529,629985959,"""world""",,,0.00833127833903,-0.0182442255318,0.0881220325828,,0.00246557360515,-0.00494951987639,-0.0116943502799,-0.999916315079
1520440529641064105,,1211,,1520440529,640528415,"""world""",,,0.00832883361727,-0.0182480681688,0.0881289094687,,0.00243946583942,-0.00498797046021,-0.011722208932,-0.999915897846
1520440529650602280,,1212,,1520440529,650075658,"""world""",,,0.00832394510508,-0.0182569511235,0.0881065651774,,0.00250836857595,-0.00501153431833,-0.0117490747944,-0.9999153018
1520440529661272927,,1213,,1520440529,660623721,"""world""",,,0.00832923687994,-0.0182618591934,0.0881002619863,,0.00246330536902,-0.00506395520642,-0.0117990737781,-0.999914586544
1520440529661287190,,1214,,1520440529,660717648,"""world""",,,0.00833455659449,-0.0182624161243,0.0881064236164,,0.00246792426333,-0.00503576174378,-0.0117740724236,-0.999914944172
1520440529670729025,,1215,,1520440529,670106682,"""world""",,,0.00832446850836,-0.0182522144169,0.088112398982,,0.00237770355307,-0.00505877006799,-0.0117371762171,-0.999915540218
1520440529681076935,,1216,,1520440529,680573908,"""world""",,,0.00832886435091,-0.0182643830776,0.0881187468767,,0.00245071738027,-0.0049763196148,-0.0117435902357,-0.999915719032
1520440529690297456,,1217,,1520440529,689979137,"""world""",,,0.00832175929099,-0.0182674154639,0.0881267040968,,0.00248688645661,-0.00499227829278,-0.0117692360654,-0.99991518259
1520440529700730146,,1218,,1520440529,700412020,"""world""",,,0.00831978954375,-0.0182542651892,0.0881160795689,,0.00240800227039,-0.00504601048306,-0.0118025261909,-0.999914705753
1520440529820465872,,1219,,1520440529,820166605,"""world""",,,0.00833549909294,-0.0182330459356,0.0881061330438,,0.0024312720634,-0.00505466805771,-0.0117846801877,-0.999914824963
1520440529820477077,,1221,,1520440529,820203461,"""world""",,,0.00832065753639,-0.0182585306466,0.0881176963449,,0.00245595537126,-0.00496771838516,-0.0117376185954,-0.999915838242
1520440529820495079,,1222,,1520440529,820276179,"""world""",,,0.00831718184054,-0.0182674564421,0.0881145894527,,0.00240829680115,-0.00495838653296,-0.0117293242365,-0.99991607666
1520440529820499090,,1223,,1520440529,820303412,"""world""",,,0.00832570716739,-0.0182756949216,0.0881141722202,,0.00246214866638,-0.00501244701445,-0.011759115383,-0.9999153018
1520440529820568409,,1224,,1520440529,820330684,"""world""",,,0.00832616724074,-0.0182592254132,0.088105276227,,0.00245040701702,-0.00508040143177,-0.0117852343246,-0.999914646149
1520440529820573761,,1226,,1520440529,820355016,"""world""",,,0.00832943338901,-0.0182370319963,0.0881224349141,,0.00235553598031,-0.0049791475758,-0.0117677226663,-0.999915599823
1520440529899999775,,1227,,1520440529,899703491,"""world""",,,0.00832170713693,-0.0182612445205,0.0881116017699,,0.00240056356415,-0.00504718674347,-0.0117487311363,-0.999915361404
1520440529940829304,,1228,,1520440529,940135134,"""world""",,,0.00832065101713,-0.0182515233755,0.0881041958928,,0.00236855517142,-0.00512371305376,-0.0117750354111,-0.999914765358
1520440529940837601,,1229,,1520440529,940263639,"""world""",,,0.00832473672926,-0.0182539504021,0.0881003960967,,0.00244531780481,-0.00508405081928,-0.0117817744613,-0.999914705753
1520440529940847166,,1233,,1520440529,940362477,"""world""",,,0.00832867063582,-0.0182539485395,0.0881150811911,,0.00242824619636,-0.00503204669803,-0.011776201427,-0.999915063381
1520440529940873701,,1234,,1520440529,940425789,"""world""",,,0.00833242759109,-0.018242476508,0.088111281395,,0.0024021519348,-0.00508943200111,-0.0117497770116,-0.99991518259
1520440529940885985,,1236,,1520440529,940525936,"""world""",,,0.00832160003483,-0.0182530749589,0.0881219059229,,0.00247600628063,-0.00500182947144,-0.0117216696963,-0.999915719032
1520440529950374052,,1237,,1520440529,949994874,"""world""",,,0.0083234636113,-0.0182570293546,0.0881163552403,,0.00243519619107,-0.00497108418494,-0.0117386775091,-0.999915838242
1520440529950381231,,1240,,1520440529,950080634,"""world""",,,0.00833111535758,-0.0182642191648,0.0881039723754,,0.00243518431671,-0.00507480185479,-0.011788696982,-0.999914646149
1520440529950386943,,1241,,1520440529,950118920,"""world""",,,0.00832182355225,-0.0182473659515,0.0881219059229,,0.0024673496373,-0.00502511439845,-0.0117575554177,-0.999915242195
1520440529950402852,,1244,,1520440529,950178041,"""world""",,,0.00832849089056,-0.0182460770011,0.0881175100803,,0.00247413665056,-0.0049943216145,-0.0117415376008,-0.999915540218
1520440529950420013,,1245,,1520440529,950217689,"""world""",,,0.00832974631339,-0.01824744232,0.0881101414561,,0.00238095945679,-0.00502820452675,-0.0117427408695,-0.999915659428
1520440529960851244,,1246,,1520440529,960593439,"""world""",,,0.00832191575319,-0.0182514637709,0.0880999416113,,0.00233579915948,-0.0050787399523,-0.0117750037462,-0.999915063381
1520440529960856748,,1247,,1520440529,960628391,"""world""",,,0.0083203939721,-0.0182611513883,0.0881099551916,,0.00242409599014,-0.00504202768207,-0.0117786610499,-0.999915063381
1520440529980928407,,1248,,1520440529,980369923,"""world""",,,0.00832864362746,-0.0182660929859,0.088117800653,,0.00252379174344,-0.00496465153992,-0.0117404982448,-0.999915599823
1520440529980968752,,1249,,1520440529,980448897,"""world""",,,0.00832487177104,-0.0182496160269,0.0881119593978,,0.00241951923817,-0.00500616338104,-0.0117340972647,-0.999915719032
1520440529990547358,,1250,,1520440529,989977542,"""world""",,,0.00833346042782,-0.0182407051325,0.0881299972534,,0.00242228503339,-0.00499914726242,-0.0117823332548,-0.99991518259
1520440530000999907,,1251,,1520440530,511182,"""world""",,,0.00833168346435,-0.018250759691,0.088113501668,,0.00247505423613,-0.00503163971007,-0.0117521183565,-0.999915242195
1520440530010429559,,1252,,1520440530,10060922,"""world""",,,0.00831647124141,-0.0182566810399,0.0881197750568,,0.0024555188138,-0.00508829113096,-0.0117911035195,-0.999914526939
1520440530020723726,,1253,,1520440530,20399381,"""world""",,,0.0083247050643,-0.0182453282177,0.0881134271622,,0.00243510771543,-0.00501230638474,-0.0117455404252,-0.999915480614
1520440530020778093,,1254,,1520440530,20456570,"""world""",,,0.00831847451627,-0.0182449929416,0.0881234332919,,0.00238918582909,-0.00499137025326,-0.011766590178,-0.999915480614
1520440530030095066,,1255,,1520440530,29744408,"""world""",,,0.00832567643374,-0.0182554684579,0.0881120711565,,0.00250897067599,-0.00495649129152,-0.0117230275646,-0.999915838242
1520440530040424713,,1256,,1520440530,40061705,"""world""",,,0.00832894071937,-0.0182655174285,0.0880966037512,,0.00250526797026,-0.00498788617551,-0.0117512866855,-0.999915361404
1520440530050948479,,1257,,1520440530,50474184,"""world""",,,0.00832509063184,-0.018259447068,0.0881034806371,,0.0023879124783,-0.00509489374235,-0.0117601407692,-0.999915122986
1520440530060644164,,1258,,1520440530,60033852,"""world""",,,0.00832826830447,-0.0182649455965,0.0881050080061,,0.00243374635465,-0.00509281037375,-0.0117864767089,-0.999914586544
1520440530070985607,,1259,,1520440530,70501066,"""world""",,,0.00832960754633,-0.0182589367032,0.0881167054176,,0.00248443568125,-0.00500135682523,-0.0117680262774,-0.99991518259
1520440530071000479,,1260,,1520440530,70559132,"""world""",,,0.00833348277956,-0.0182395223528,0.0881442427635,,0.00256499135867,-0.00497679505497,-0.0117929363623,-0.999914884567
1520440530080156132,,1261,,1520440530,79845569,"""world""",,,0.00832430273294,-0.0182450376451,0.088116645813,,0.00239075091667,-0.00501065468416,-0.0117601556703,-0.999915421009
1520440530090525382,,1262,,1520440530,90229898,"""world""",,,0.00832044053823,-0.0182504896075,0.088108509779,,0.0024524400942,-0.00502775795758,-0.0117617258802,-0.99991518259
1520440530099653890,,1263,,1520440530,99467171,"""world""",,,0.00832584500313,-0.018255148083,0.0881094709039,,0.00239648902789,-0.00507344538346,-0.0117630055174,-0.999915122986
1520440530110488255,,1264,,1520440530,109932148,"""world""",,,0.00832012202591,-0.0182589106262,0.0881035327911,,0.00248384778388,-0.00504733994603,-0.0117881838232,-0.999914765358
1520440530121076182,,1265,,1520440530,120469176,"""world""",,,0.00832740403712,-0.0182585343719,0.0881076157093,,0.0024690402206,-0.0050258836709,-0.0117428824306,-0.999915361404
1520440530121097633,,1266,,1520440530,120574890,"""world""",,,0.00832304917276,-0.0182636380196,0.0881186053157,,0.00248184148222,-0.00498376367614,-0.0117358667776,-0.999915659428
1520440530130542207,,1267,,1520440530,130105325,"""world""",,,0.00832423940301,-0.0182629395276,0.0881225988269,,0.00244920607656,-0.00497756991535,-0.0117792105302,-0.9999153018
1520440530140948261,,1268,,1520440530,140525026,"""world""",,,0.00832873955369,-0.0182370375842,0.0881303101778,,0.00248961546458,-0.00500519247726,-0.0118129951879,-0.999914646149
1520440530150374346,,1269,,1520440530,149974211,"""world""",,,0.00832504406571,-0.0182546824217,0.0881196781993,,0.002447062172,-0.00509696872905,-0.011793977581,-0.999914467335
1520440530160837062,,1270,,1520440530,160418278,"""world""",,,0.00832881033421,-0.0182526707649,0.0881209969521,,0.00244869990274,-0.0050575225614,-0.0117699196562,-0.999915003777
1520440530160848859,,1271,,1520440530,160517795,"""world""",,,0.00832959916443,-0.0182471834123,0.0881149619818,,0.00247520860285,-0.00498635647818,-0.0117202792317,-0.999915838242
1520440530170331319,,1272,,1520440530,169949192,"""world""",,,0.00831907894462,-0.018252812326,0.0881119444966,,0.00245199212804,-0.00501798233017,-0.0117435790598,-0.999915480614
1520440530180766245,,1273,,1520440530,180412488,"""world""",,,0.00831559952348,-0.0182603113353,0.088113643229,,0.00242666574195,-0.00498898280784,-0.0117613971233,-0.999915421009
1520440530190316415,,1274,,1520440530,189859500,"""world""",,,0.00832384079695,-0.0182706527412,0.088105879724,,0.00242341635749,-0.00500980019569,-0.0117485728115,-0.999915599823
1520440530200578208,,1275,,1520440530,200246273,"""world""",,,0.00832306779921,-0.0182624459267,0.0881061330438,,0.00249107531272,-0.00503647187725,-0.0117768356577,-0.999914944172
1520440530210883730,,1276,,1520440530,210646445,"""world""",,,0.00832904502749,-0.0182580053806,0.0881144106388,,0.00247864588164,-0.00506052281708,-0.0117435026914,-0.99991518259
1520440530330178966,,1277,,1520440530,329545166,"""world""",,,0.00832542125136,-0.0182463377714,0.0881314277649,,0.00245031435043,-0.0049460013397,-0.0117284096777,-0.999916017056
1520440530330191259,,1280,,1520440530,329645544,"""world""",,,0.00832962244749,-0.0182443186641,0.0881214514375,,0.00251151551493,-0.00504939910024,-0.0118101323023,-0.99991440773
1520440530370677637,,1281,,1520440530,370195068,"""world""",,,0.00831997022033,-0.0182637535036,0.0881216824055,,0.00245163426735,-0.00500981882215,-0.0117339044809,-0.999915659428
1520440530390339729,,1282,,1520440530,389977386,"""world""",,,0.00832643825561,-0.0182580891997,0.0881271585822,,0.00247859442607,-0.00500470725819,-0.0117853321135,-0.999914944172
1520440530420579642,,1283,,1520440530,420002082,"""world""",,,0.00833231490105,-0.0182462148368,0.088138833642,,0.00255889631808,-0.00498572550714,-0.0118031408638,-0.999914646149
1520440530420587430,,1287,,1520440530,420072719,"""world""",,,0.00831521395594,-0.0182570442557,0.0881025642157,,0.00235428614542,-0.00511185452342,-0.0117746535689,-0.999914824963
1520440530420593144,,1288,,1520440530,420146293,"""world""",,,0.00832768715918,-0.0182571299374,0.0881050750613,,0.00243404437788,-0.00511585874483,-0.0117911938578,-0.999914526939
1520440530420599432,,1289,,1520440530,420194850,"""world""",,,0.00833511725068,-0.0182509161532,0.0881250649691,,0.00245881057344,-0.00503858597949,-0.0117462268099,-0.9999153018
1520440530420604453,,1290,,1520440530,420227402,"""world""",,,0.00832643266767,-0.0182519778609,0.0881300866604,,0.00251787574962,-0.00497218500823,-0.0117485625669,-0.999915540218
1520440530420610435,,1291,,1520440530,420257710,"""world""",,,0.00832217466086,-0.0182416643947,0.0881528556347,,0.00214040675201,-0.00473427446559,-0.011703944765,-0.999918103218
1520440530420821011,,1292,,1520440530,420279468,"""world""",,,0.00832215882838,-0.0182566605508,0.088117621839,,0.00244265655056,-0.00504119275138,-0.0117621337995,-0.99991518259
1520440530420879259,,1293,,1520440530,420361185,"""world""",,,0.00832209642977,-0.0182593539357,0.0881099551916,,0.00240454403684,-0.00506752030924,-0.011768463999,-0.999915003777
1520440530420908455,,1294,,1520440530,420401213,"""world""",,,0.00832522474229,-0.0182523392141,0.0881027579308,,0.00235339114442,-0.00509471679106,-0.0117638697848,-0.999915122986
1520440530420920187,,1295,,1520440530,420447738,"""world""",,,0.00832338631153,-0.0182510111481,0.0881080776453,,0.00242897635326,-0.00506186438724,-0.0117743089795,-0.999914944172
1520440530420936675,,1297,,1520440530,420485844,"""world""",,,0.0083289835602,-0.0182536095381,0.0881243497133,,0.00241079414263,-0.00498270755634,-0.0117516377941,-0.999915659428
1520440530430014062,,1298,,1520440530,429786351,"""world""",,,0.00832236371934,-0.0182533562183,0.0881080627441,,0.00251693138853,-0.00500885490328,-0.0117861675099,-0.999914884567
1520440530440360877,,1299,,1520440530,440140792,"""world""",,,0.00832028407604,-0.0182547830045,0.0881188064814,,0.00248612789437,-0.00505820196122,-0.0117803830653,-0.999914824963
1520440530450755423,,1300,,1520440530,450463552,"""world""",,,0.00832940451801,-0.0182546619326,0.0881185010076,,0.00249554566108,-0.00503985024989,-0.0117616737261,-0.999915063381
1520440530460106425,,1301,,1520440530,459800432,"""world""",,,0.00833129137754,-0.0182544756681,0.0881246775389,,0.0025160072837,-0.00504134176299,-0.0117798857391,-0.999914824963
1520440530580402236,,1302,,1520440530,579899851,"""world""",,,0.00832352321595,-0.018264843151,0.0881186425686,,0.0024547779467,-0.00497789867222,-0.0117279654369,-0.999915897846
1520440530580417321,,1303,,1520440530,579955429,"""world""",,,0.00831733923405,-0.0182650722563,0.0881044268608,,0.00241653923877,-0.00504172733054,-0.0117602972314,-0.999915242195
1520440530580425404,,1304,,1520440530,580001736,"""world""",,,0.00832858495414,-0.018253929913,0.0880997106433,,0.00240066135302,-0.00505672441795,-0.0117750968784,-0.999915003777
1520440530580434789,,1309,,1520440530,580111982,"""world""",,,0.00833082012832,-0.0182589329779,0.0881147682667,,0.00245355837978,-0.00505365245044,-0.0117955114692,-0.999914646149
1520440530580445197,,1310,,1520440530,580154548,"""world""",,,0.00833829212934,-0.0182550810277,0.0881243571639,,0.00261919386685,-0.00504357926548,-0.0118241682649,-0.999913990498
1520440530580453658,,1312,,1520440530,580204177,"""world""",,,0.00832610111684,-0.0182547532022,0.0881126075983,,0.00243610749021,-0.00503644393757,-0.0117845330387,-0.999914944172
1520440530761558011,,1313,,1520440530,760492597,"""world""",,,0.00831894855946,-0.0182474143803,0.0881121829152,,0.00240197894163,-0.00498220231384,-0.0117388153449,-0.999915778637
1520440530761766607,,1315,,1520440530,760596259,"""world""",,,0.00833080429584,-0.0182538982481,0.0881109833717,,0.00247740792111,-0.00500005017966,-0.0117352418602,-0.999915599823
1520440530761856607,,1316,,1520440530,760667399,"""world""",,,0.00832789670676,-0.0182542577386,0.0881101042032,,0.00244043907151,-0.00508853234351,-0.0118234409019,-0.999914228916
1520440530761867242,,1319,,1520440530,760762821,"""world""",,,0.00833321269602,-0.0182629600167,0.0881261005998,,0.00247036712244,-0.00499017862603,-0.0117793325335,-0.999915122986
1520440530761955891,,1320,,1520440530,760827154,"""world""",,,0.00832419656217,-0.018256297335,0.0881118699908,,0.00244734995067,-0.00500740529969,-0.0117233535275,-0.999915778637
1520440530761972152,,1322,,1520440530,760893331,"""world""",,,0.00832710694522,-0.0182552672923,0.0880943834782,,0.00240513170138,-0.00506698759273,-0.0117417629808,-0.999915421009
1520440530761992900,,1323,,1520440530,760958966,"""world""",,,0.00832164660096,-0.018251074478,0.0881057009101,,0.00247939210385,-0.00506183085963,-0.0117956586182,-0.999914586544
1520440530762002865,,1326,,1520440530,761048915,"""world""",,,0.00833027623594,-0.0182587243617,0.0881302878261,,0.00247673830017,-0.00499952677637,-0.0117655284703,-0.9999153018
1520440530762032907,,1327,,1520440530,761227916,"""world""",,,0.00832688063383,-0.0182614549994,0.0881054475904,,0.00252485251985,-0.00505612045527,-0.0117931514978,-0.999914526939
1520440530762046130,,1336,,1520440530,761532830,"""world""",,,0.008336388506,-0.0182526707649,0.0881249755621,,0.00247048633173,-0.00502790231258,-0.0117435455322,-0.999915421009
1520440530770284070,,1337,,1520440530,769880296,"""world""",,,0.00832479540259,-0.0182665847242,0.0881275311112,,0.00250104488805,-0.00499736191705,-0.0117885926738,-0.999914944172
1520440530890833118,,1338,,1520440530,890187004,"""world""",,,0.00831571593881,-0.0182609111071,0.0881069451571,,0.00239560334012,-0.00507933227345,-0.0118038197979,-0.999914646149
1520440530890843817,,1341,,1520440530,890279725,"""world""",,,0.00832528714091,-0.0182338990271,0.0881245285273,,0.00251279538497,-0.00499698147178,-0.011791869998,-0.999914824963
1520440530890857463,,1342,,1520440530,890298580,"""world""",,,0.00832663010806,-0.0182455405593,0.0881217345595,,0.00247057480738,-0.00498138088733,-0.0117377750576,-0.999915719032
1520440530890867409,,1343,,1520440530,890453032,"""world""",,,0.00831521023065,-0.0182477477938,0.0881145074964,,0.00241955765523,-0.00502962013707,-0.0117633938789,-0.9999153018
1520440530891013167,,1344,,1520440530,890507863,"""world""",,,0.00832469575107,-0.0182573217899,0.0881093069911,,0.00240070023574,-0.00508798006922,-0.0117976497859,-0.999914586544
1520440530891032384,,1346,,1520440530,890565565,"""world""",,,0.0083312606439,-0.0182635262609,0.0881135091186,,0.00248698587529,-0.00507477391511,-0.0118089457974,-0.999914288521
1520440530891279585,,1347,,1520440530,890617460,"""world""",,,0.00833010487258,-0.018248423934,0.0881132483482,,0.00241568987258,-0.0050127627328,-0.0117533672601,-0.999915480614
1520440530891303380,,1348,,1520440530,890657367,"""world""",,,0.00831773690879,-0.0182455834001,0.0881092250347,,0.00244524842128,-0.00498661398888,-0.0117451027036,-0.999915659428
1520440530960472792,,1349,,1520440530,959833774,"""world""",,,0.00831978488714,-0.0182427689433,0.0881080552936,,0.0023637698032,-0.00505542661995,-0.0117449872196,-0.999915480614
1520440530960483408,,1352,,1520440530,959916714,"""world""",,,0.00833209045231,-0.0182465463877,0.088112950325,,0.00242877728306,-0.00511546758935,-0.0118126478046,-0.999914228916
1520440530960496962,,1353,,1520440530,959952736,"""world""",,,0.00832816306502,-0.0182483009994,0.0881233140826,,0.00239359820262,-0.00505193416029,-0.0117862392217,-0.999915003777
1520440530960505740,,1357,,1520440530,960025652,"""world""",,,0.00832806713879,-0.0182550661266,0.0881040170789,,0.00242987065576,-0.00505813350901,-0.0117827933282,-0.999914824963
1520440530960518072,,1358,,1520440530,960057153,"""world""",,,0.00833050720394,-0.0182440988719,0.0881019234657,,0.00245247036219,-0.00504893762991,-0.0117794526741,-0.999914944172
1520440530960549726,,1359,,1520440530,960077278,"""world""",,,0.00832744129002,-0.0182315260172,0.0881146416068,,0.00235064839944,-0.00503192795441,-0.0117664663121,-0.999915421009
1520440530970886359,,1360,,1520440530,970508092,"""world""",,,0.00832948088646,-0.0182473435998,0.0881217196584,,0.00252478453331,-0.00504401978105,-0.0117657678202,-0.999914944172
1520440530970892412,,1361,,1520440530,970546227,"""world""",,,0.00832067243755,-0.0182586088777,0.088130928576,,0.00245796865784,-0.0050087403506,-0.011769855395,-0.999915242195
1520440530980438050,,1362,,1520440530,979992376,"""world""",,,0.00832852162421,-0.018265619874,0.0881133824587,,0.00239482102916,-0.00506095774472,-0.0117994705215,-0.999914705753
1520440530990709223,,1363,,1520440530,990349680,"""world""",,,0.00833116844296,-0.0182709805667,0.0881064534187,,0.00245278421789,-0.00508220912889,-0.0117952600121,-0.999914526939
1520440531000234134,,1364,,1520440530,999754510,"""world""",,,0.00833163037896,-0.0182572584599,0.0881042927504,,0.00243964674883,-0.00504293292761,-0.0117820585147,-0.999915003777
1520440531010714165,,1365,,1520440531,10251334,"""world""",,,0.00832226593047,-0.0182515084743,0.0881139785051,,0.00241768825799,-0.00503401271999,-0.0117789311334,-0.999915122986
1520440531010781336,,1366,,1520440531,10304221,"""world""",,,0.0083267185837,-0.0182576961815,0.0881215557456,,0.00242867786437,-0.00502906506881,-0.0117626497522,-0.999915242195
1520440531020050027,,1367,,1520440531,19681795,"""world""",,,0.00832521170378,-0.0182488691062,0.0881129130721,,0.00240434869193,-0.00501017645001,-0.0117470994592,-0.999915599823
1520440531030597892,,1368,,1520440531,30148536,"""world""",,,0.00832566525787,-0.0182407163084,0.0881092101336,,0.00244793365709,-0.00507167121395,-0.011801790446,-0.999914526939
1520440531041074876,,1369,,1520440531,40606866,"""world""",,,0.00833006110042,-0.0182412266731,0.0881114900112,,0.00243676337413,-0.00507033569738,-0.0117726000026,-0.999914944172
1520440531050645545,,1370,,1520440531,50085295,"""world""",,,0.00833304505795,-0.0182494595647,0.0881115347147,,0.00245013856329,-0.00505064241588,-0.0117870960385,-0.999914824963
1520440531060864280,,1371,,1520440531,60470006,"""world""",,,0.00832568481565,-0.0182598009706,0.0881193727255,,0.00250342814252,-0.00500626023859,-0.0117630092427,-0.99991518259
1520440531060881351,,1372,,1520440531,60522229,"""world""",,,0.00832279305905,-0.0182615630329,0.0881126523018,,0.00235340581276,-0.00504662003368,-0.0117724966258,-0.9999153018
1520440531070160533,,1373,,1520440531,69839467,"""world""",,,0.00832268688828,-0.0182701628655,0.088107638061,,0.00246562832035,-0.00503363274038,-0.0117538869381,-0.999915242195
1520440531080483605,,1374,,1520440531,80215329,"""world""",,,0.00833346508443,-0.0182474181056,0.0881188958883,,0.00243764393963,-0.00506385415792,-0.0118236932904,-0.999914348125
1520440531089866520,,1375,,1520440531,89555698,"""world""",,,0.00832886714488,-0.0182354189456,0.0881188809872,,0.00249324552715,-0.00507379323244,-0.0118153896183,-0.999914288521
1520440531100630114,,1376,,1520440531,100035590,"""world""",,,0.00832851417363,-0.0182390324771,0.0881086587906,,0.00233741593547,-0.00507817929611,-0.0117784366012,-0.999915003777
1520440531111186736,,1377,,1520440531,110597483,"""world""",,,0.00832059327513,-0.0182338356972,0.0881222188473,,0.00238019996323,-0.0050232601352,-0.0117635000497,-0.999915361404
1520440531111212085,,1378,,1520440531,110671411,"""world""",,,0.00832564290613,-0.0182509701699,0.0881279557943,,0.00245792325586,-0.00496831256896,-0.0117654912174,-0.999915480614
1520440531120993713,,1379,,1520440531,120174549,"""world""",,,0.00832906272262,-0.0182542335242,0.088113412261,,0.00243232841603,-0.00500162504613,-0.0117505276576,-0.999915480614
1520440531130459114,,1380,,1520440531,129843369,"""world""",,,0.00832591205835,-0.0182660929859,0.0881068632007,,0.00251194671728,-0.00507007772103,-0.0117780873552,-0.999914646149
1520440531141037546,,1381,,1520440531,140574618,"""world""",,,0.00833026133478,-0.0182646661997,0.0881070569158,,0.00248446688056,-0.00506969448179,-0.0117869600654,-0.999914586544
1520440531150336493,,1382,,1520440531,149996219,"""world""",,,0.0083304932341,-0.0182599574327,0.0881106778979,,0.00247815484181,-0.00502567132935,-0.011784366332,-0.999914944172
1520440531160562737,,1383,,1520440531,160363216,"""world""",,,0.00833356194198,-0.0182597078383,0.0881196856499,,0.00250570871867,-0.00501568708569,-0.0117583442479,-0.99991518259
1520440531160674409,,1384,,1520440531,160398180,"""world""",,,0.00832750927657,-0.0182570666075,0.0881155952811,,0.00250371126458,-0.00498495344073,-0.0117608290166,-0.999915361404
1520440531170600440,,1385,,1520440531,169881838,"""world""",,,0.0083304643631,-0.0182497631758,0.0881148725748,,0.00244752084836,-0.00497402995825,-0.0117416353896,-0.999915778637
1520440531181005019,,1386,,1520440531,180497019,"""world""",,,0.00833673030138,-0.0182464048266,0.0881071612239,,0.0024447357282,-0.00507347006351,-0.0117667727172,-0.999915003777
1520440531190574903,,1387,,1520440531,190026910,"""world""",,,0.0083322506398,-0.0182439535856,0.0881118327379,,0.0024326578714,-0.00508840149269,-0.0117801260203,-0.999914765358
1520440531201103400,,1388,,1520440531,200519463,"""world""",,,0.00833576917648,-0.0182502157986,0.0881148427725,,0.00247152941301,-0.00498873135075,-0.0117613207549,-0.999915361404
1520440531210453038,,1389,,1520440531,210089432,"""world""",,,0.00832096673548,-0.0182470157743,0.0881382524967,,0.00252216961235,-0.00500933686271,-0.0118052819744,-0.999914586544
1520440531210472072,,1390,,1520440531,210133763,"""world""",,,0.0083285132423,-0.0182682815939,0.0881113484502,,0.00244413176551,-0.00500879436731,-0.011767196469,-0.999915242195
1520440531220984287,,1391,,1520440531,220593165,"""world""",,,0.00832898262888,-0.018270354718,0.0881063491106,,0.00241700327024,-0.00507252942771,-0.0117993578315,-0.999914646149
1520440531230495662,,1392,,1520440531,230076245,"""world""",,,0.00833455566317,-0.0182582139969,0.0881092995405,,0.00241392618045,-0.00511134136468,-0.0117879835889,-0.999914586544
1520440531240810940,,1393,,1520440531,240481875,"""world""",,,0.00833671260625,-0.0182444285601,0.0881142318249,,0.00241777696647,-0.00505326362327,-0.0117708323523,-0.999915122986
1520440531250347260,,1394,,1520440531,249954392,"""world""",,,0.00833170022815,-0.0182398408651,0.0881215408444,,0.00245384918526,-0.00506179127842,-0.0117684490979,-0.999915003777
1520440531260650883,,1395,,1520440531,260321491,"""world""",,,0.00832531228662,-0.0182348061353,0.0881355628371,,0.00251459144056,-0.00498413667083,-0.0117984265089,-0.999914824963
1520440531270040863,,1396,,1520440531,269635983,"""world""",,,0.00832547154278,-0.0182485692203,0.0881078764796,,0.00245372788049,-0.00500047858804,-0.0117335924879,-0.999915659428
1520440531270064211,,1397,,1520440531,269676803,"""world""",,,0.00832397397608,-0.0182427950203,0.0881031826138,,0.00235473224893,-0.00507290894166,-0.0117700528353,-0.999915122986
1520440531280448639,,1398,,1520440531,280105939,"""world""",,,0.00833536684513,-0.0182517617941,0.0881061702967,,0.00246705929749,-0.00506302108988,-0.0117513202131,-0.999915122986
1520440531290825488,,1399,,1520440531,290448762,"""world""",,,0.00833778642118,-0.0182578004897,0.0881168022752,,0.00245970534161,-0.00502689788118,-0.0117708006874,-0.999915063381
1520440531300299937,,1400,,1520440531,299863598,"""world""",,,0.00832647830248,-0.018260166049,0.0881177335978,,0.00240690517239,-0.00503486348316,-0.0117597682402,-0.999915361404
1520440531310562823,,1401,,1520440531,310202431,"""world""",,,0.00831919535995,-0.0182700417936,0.088120803237,,0.00249864486977,-0.00498765148222,-0.0117653897032,-0.999915242195
1520440531320907076,,1402,,1520440531,320531600,"""world""",,,0.00832714606076,-0.0182594228536,0.0881026908755,,0.00247489917092,-0.00503698876128,-0.0118013005704,-0.999914646149
1520440531330289359,,1403,,1520440531,329904859,"""world""",,,0.00833567697555,-0.0182401351631,0.088103748858,,0.00244070473127,-0.00505529111251,-0.0117639545351,-0.999915063381
1520440531330300249,,1404,,1520440531,329950722,"""world""",,,0.00832772068679,-0.0182379409671,0.0881118178368,,0.00244617438875,-0.0050736553967,-0.0117611819878,-0.999915063381
1520440531340695809,,1405,,1520440531,340327818,"""world""",,,0.00832438468933,-0.0182353444397,0.088119328022,,0.00233348086476,-0.00506704533473,-0.0117474701256,-0.999915421009
1520440531349946516,,1406,,1520440531,349562903,"""world""",,,0.0083230342716,-0.0182490088046,0.0881202071905,,0.00240641273558,-0.004996673204,-0.0117636267096,-0.999915421009
1520440531470177682,,1407,,1520440531,469865357,"""world""",,,0.00833973288536,-0.0182644799352,0.0881017744541,,0.00248469575308,-0.00499261310324,-0.011756349355,-0.999915361404
1520440531470185899,,1408,,1520440531,469937102,"""world""",,,0.00833649374545,-0.0182529427111,0.0880981981754,,0.00241452106275,-0.00506214238703,-0.0117711964995,-0.999915003777
1520440531470292966,,1409,,1520440531,469957332,"""world""",,,0.00833446718752,-0.0182621143758,0.0881027430296,,0.00245627760887,-0.00507632503286,-0.0117595857009,-0.999914944172
1520440531511077500,,1410,,1520440531,510495066,"""world""",,,0.00832383520901,-0.0182430185378,0.088124781847,,0.00243016821332,-0.00501922611147,-0.0117658628151,-0.9999153018
1520440531511098171,,1411,,1520440531,510582025,"""world""",,,0.00832363124937,-0.0182426776737,0.0881218016148,,0.00244537601247,-0.00504359882325,-0.0117689017206,-0.999915063381
1520440531511469332,,1412,,1520440531,510650674,"""world""",,,0.00832584407181,-0.0182399135083,0.0881092846394,,0.00244795554318,-0.00505590159446,-0.0117751453072,-0.999914944172
1520440531511500005,,1416,,1520440531,510827128,"""world""",,,0.00833410397172,-0.0182613842189,0.0881189107895,,0.00250946381129,-0.00502419564873,-0.011746821925,-0.9999153018
1520440531590672307,,1417,,1520440531,589990311,"""world""",,,0.00833159778267,-0.018252145499,0.0881125107408,,0.00246197730303,-0.00502967974171,-0.0117533300072,-0.9999153018
1520440531590692507,,1418,,1520440531,590064886,"""world""",,,0.00833018776029,-0.0182471387088,0.0881047919393,,0.00239782873541,-0.0050122118555,-0.0117367375642,-0.999915719032
1520440531590709132,,1419,,1520440531,590217079,"""world""",,,0.00832906551659,-0.0182445608079,0.0881054252386,,0.00235559116118,-0.00512814894319,-0.011815354228,-0.999914348125
1520440531590758144,,1422,,1520440531,590355063,"""world""",,,0.00832960568368,-0.0182473491877,0.088117800653,,0.00245438353159,-0.00500871008262,-0.0117457024753,-0.999915480614
1520440531591125615,,1423,,1520440531,590535237,"""world""",,,0.00832714885473,-0.01826152578,0.0881156474352,,0.00243195611984,-0.00502175325528,-0.0117621384561,-0.999915361404
1520440531592594179,,1424,,1520440531,590754841,"""world""",,,0.0083248000592,-0.0182695370167,0.0881047472358,,0.0024254526943,-0.00508098397404,-0.0117814512923,-0.999914765358
1520440531592640593,,1433,,1520440531,591240030,"""world""",,,0.0083328243345,-0.0182605162263,0.0881125628948,,0.00251335534267,-0.00504069076851,-0.0118020772934,-0.999914586544
1520440531600576766,,1434,,1520440531,599954252,"""world""",,,0.00832928251475,-0.0182629041374,0.0881304219365,,0.00242084590718,-0.00499660614878,-0.0117657966912,-0.999915361404
1520440531730702053,,1435,,1520440531,730321067,"""world""",,,0.00833298545331,-0.0182419382036,0.0881028473377,,0.00243677850813,-0.00505762826651,-0.0117852687836,-0.999914765358
1520440531730714981,,1436,,1520440531,730364167,"""world""",,,0.00832861755043,-0.0182387493551,0.0881042480469,,0.00237433682196,-0.00506977643818,-0.0117935193703,-0.999914824963
1520440531750599750,,1437,,1520440531,750173232,"""world""",,,0.00832647737116,-0.0182586088777,0.0881150513887,,0.00246632983908,-0.0050114300102,-0.0117946183309,-0.999914944172
1520440531780481926,,1438,,1520440531,780096628,"""world""",,,0.00833616033196,-0.018264900893,0.0881131067872,,0.00253388332203,-0.00504034617916,-0.0118009252474,-0.999914526939
1520440531780489996,,1439,,1520440531,780213400,"""world""",,,0.00833403132856,-0.0182583332062,0.0881119221449,,0.00253762444481,-0.0050446242094,-0.0118100177497,-0.999914348125
1520440531780496253,,1442,,1520440531,780269990,"""world""",,,0.00833385437727,-0.0182512253523,0.088105969131,,0.00240618060343,-0.00497014634311,-0.0117367608473,-0.999915897846
1520440531800552084,,1443,,1520440531,800120964,"""world""",,,0.00833209976554,-0.018251830712,0.0881012231112,,0.00242715096101,-0.00504576647654,-0.0117777353153,-0.999915063381
1520440531800566563,,1444,,1520440531,800166607,"""world""",,,0.00833344180137,-0.0182558260858,0.0881080925465,,0.00247320067137,-0.00508555071428,-0.011789990589,-0.999914526939
1520440531810812506,,1445,,1520440531,810450947,"""world""",,,0.00832764990628,-0.0182537026703,0.0881135165691,,0.00242593814619,-0.00507751014084,-0.0118083814159,-0.999914526939
1520440531810820628,,1449,,1520440531,810534727,"""world""",,,0.00832903943956,-0.0182686969638,0.0881093665957,,0.00241488660686,-0.00502652069554,-0.0117988875136,-0.999914884567
1520440531810828470,,1450,,1520440531,810638925,"""world""",,,0.00832538865507,-0.0182481743395,0.088097974658,,0.0023845534306,-0.0051255938597,-0.011791084893,-0.999914526939
1520440531810866518,,1451,,1520440531,810695325,"""world""",,,0.00833492446691,-0.0182428993285,0.0881062671542,,0.00240652589127,-0.00510143442079,-0.0117557970807,-0.999915003777
1520440531811118202,,1452,,1520440531,810825195,"""world""",,,0.00833557453007,-0.0182441286743,0.0881159901619,,0.00245041283779,-0.00503564020619,-0.0117419976741,-0.999915361404
1520440531811132918,,1453,,1520440531,810926403,"""world""",,,0.0083351964131,-0.0182496458292,0.0881209671497,,0.00248253485188,-0.00502053648233,-0.0117440149188,-0.999915421009
1520440531811260784,,1454,,1520440531,810961209,"""world""",,,0.00833364669234,-0.0182688497007,0.08811673522,,0.00245792442001,-0.00502093881369,-0.0117860715836,-0.999915003777
1520440531811268761,,1455,,1520440531,810993293,"""world""",,,0.00833490677178,-0.0182789191604,0.0881096199155,,0.00251767761074,-0.00506949843839,-0.0118074528873,-0.999914288521
1520440531820749967,,1456,,1520440531,820390619,"""world""",,,0.00833578500897,-0.0182699412107,0.0881121754646,,0.00246066064574,-0.00509402342141,-0.0117992600426,-0.999914467335
1520440531830109266,,1457,,1520440531,829763097,"""world""",,,0.00833487603813,-0.0182533506304,0.088110178709,,0.00247382535599,-0.0050594098866,-0.0117829395458,-0.999914765358
1520440531840563688,,1458,,1520440531,840238276,"""world""",,,0.00833816826344,-0.0182439163327,0.0881070420146,,0.00243115844205,-0.00502781942487,-0.0117456950247,-0.999915480614
1520440531851004287,,1459,,1520440531,850639615,"""world""",,,0.00833015423268,-0.0182463005185,0.0881148129702,,0.00246508326381,-0.00497575104237,-0.0117339584976,-0.999915778637
1520440531860362910,,1460,,1520440531,860046258,"""world""",,,0.00833548419178,-0.0182490572333,0.0881150141358,,0.00238629360683,-0.00499163055792,-0.0117188319564,-0.999916017056
1520440531860455885,,1461,,1520440531,860088661,"""world""",,,0.00833487417549,-0.0182609669864,0.0881028100848,,0.00247530080378,-0.00505250971764,-0.0117650767788,-0.999915063381
1520440531870893445,,1462,,1520440531,870554887,"""world""",,,0.00833609700203,-0.0182591564953,0.0881017670035,,0.00243360362947,-0.00505337771028,-0.0117676276714,-0.999915063381
1520440531880110438,,1463,,1520440531,879838646,"""world""",,,0.00833859294653,-0.0182533152401,0.0881034135818,,0.00246066763066,-0.00509224599227,-0.011784888804,-0.999914586544
1520440531890510000,,1464,,1520440531,890143509,"""world""",,,0.00834414362907,-0.0182676501572,0.0881115347147,,0.00252281688154,-0.00501634459943,-0.0117522198707,-0.99991518259
1520440531900775534,,1465,,1520440531,900430120,"""world""",,,0.0083296103403,-0.0182652268559,0.0881211012602,,0.0024947701022,-0.00499334046617,-0.0117783397436,-0.999915063381
1520440531910160171,,1466,,1520440531,909802652,"""world""",,,0.00833519548178,-0.0182707328349,0.0881183817983,,0.00249583716504,-0.0050071706064,-0.0117928283289,-0.999914884567
1520440531910167717,,1467,,1520440531,909907797,"""world""",,,0.00833527278155,-0.0182557180524,0.0881034657359,,0.00240562390536,-0.00503713684157,-0.0117821190506,-0.999915063381
1520440531920656954,,1468,,1520440531,920311483,"""world""",,,0.00833728443831,-0.0182493925095,0.0881029143929,,0.00245437119156,-0.00508709996939,-0.0117806661874,-0.999914705753
1520440531930199933,,1469,,1520440531,929776496,"""world""",,,0.00834087468684,-0.0182438790798,0.088106520474,,0.00249037379399,-0.00503389723599,-0.0117536559701,-0.999915242195
1520440531940620001,,1470,,1520440531,940209706,"""world""",,,0.00833332445472,-0.0182433873415,0.0881057903171,,0.00245893583633,-0.00498784566298,-0.0117254247889,-0.999915838242
1520440531951000006,,1471,,1520440531,950588806,"""world""",,,0.00832769367844,-0.0182528942823,0.0881014615297,,0.00245303474367,-0.00501718744636,-0.0117414928973,-0.999915480614
1520440531960424756,,1472,,1520440531,960068152,"""world""",,,0.00833402108401,-0.0182692110538,0.0881082862616,,0.00244650128298,-0.00502818776295,-0.0117626581341,-0.999915242195
1520440531970824730,,1473,,1520440531,970433956,"""world""",,,0.00833742693067,-0.0182711090893,0.0881032943726,,0.00251220725477,-0.00508800894022,-0.0117731643841,-0.999914586544
1520440531970860984,,1474,,1520440531,970475563,"""world""",,,0.00833692308515,-0.0182635523379,0.0881072953343,,0.00242485129274,-0.00512302666903,-0.0118227498606,-0.999914109707
1520440531979976633,,1475,,1520440531,979681398,"""world""",,,0.00833893287927,-0.018255032599,0.0881086885929,,0.00246190419421,-0.005082719028,-0.0117806252092,-0.999914705753
1520440531990419386,,1476,,1520440531,990063688,"""world""",,,0.00833610910922,-0.0182455144823,0.0881212800741,,0.00242782081477,-0.00501064397395,-0.0117512196302,-0.999915540218
1520440532000826683,,1477,,1520440532,432977,"""world""",,,0.00833047367632,-0.0182459205389,0.0881155431271,,0.00246407045051,-0.00500011211261,-0.0117459697649,-0.999915480614
1520440532010208213,,1478,,1520440532,9831106,"""world""",,,0.0083338059485,-0.0182507261634,0.0881119966507,,0.00235455832444,-0.00500117242336,-0.0117098456249,-0.999916255474
1520440532010219335,,1479,,1520440532,9873316,"""world""",,,0.00833638571203,-0.01826319471,0.0880972072482,,0.00248773652129,-0.00504310941324,-0.0117543274537,-0.99991518259
1520440532020823448,,1480,,1520440532,20297032,"""world""",,,0.0083398129791,-0.0182715840638,0.0880939438939,,0.00254827225581,-0.00507494714111,-0.0117970984429,-0.999914288521
1520440532030360556,,1481,,1520440532,29765301,"""world""",,,0.00833984930068,-0.0182698387653,0.0881049260497,,0.00253639440052,-0.0050811083056,-0.0117964092642,-0.999914288521
1520440532040823340,,1482,,1520440532,40215610,"""world""",,,0.00834130123258,-0.0182682573795,0.0881109237671,,0.00246664951555,-0.0050132246688,-0.0117641892284,-0.99991518259
1520440532051044173,,1483,,1520440532,50584191,"""world""",,,0.00833335518837,-0.0182629600167,0.0881272107363,,0.00248391320929,-0.00500982115045,-0.0117445616052,-0.999915480614
1520440532060296281,,1484,,1520440532,60035870,"""world""",,,0.00833531655371,-0.018264811486,0.0881155356765,,0.00251418864354,-0.00502460682765,-0.0117631293833,-0.999915063381
1520440532070726734,,1485,,1520440532,70429816,"""world""",,,0.00833336729556,-0.0182566940784,0.0881084948778,,0.00242428248748,-0.00506134377792,-0.0117747997865,-0.999914944172
1520440532080349770,,1486,,1520440532,79857911,"""world""",,,0.0083320364356,-0.018246492371,0.0880928188562,,0.00240343506448,-0.00510230707005,-0.0117870951071,-0.999914705753
1520440532091049033,,1487,,1520440532,90402192,"""world""",,,0.00832835771143,-0.0182473324239,0.0880963355303,,0.00241958163679,-0.00508794467896,-0.0118039045483,-0.999914526939
1520440532091072406,,1488,,1520440532,90482733,"""world""",,,0.00833785813302,-0.0182542484254,0.0881112143397,,0.0024949926883,-0.00499477470294,-0.0117359468713,-0.999915599823
1520440532100536601,,1489,,1520440532,99930132,"""world""",,,0.00833801086992,-0.0182586014271,0.0881139859557,,0.00245577702299,-0.00499248923734,-0.0117239737883,-0.999915838242
1520440532110861594,,1490,,1520440532,110428582,"""world""",,,0.00833277218044,-0.0182600934058,0.0881158560514,,0.00240160734393,-0.00507542816922,-0.0117563884705,-0.999915122986
1520440532120264538,,1491,,1520440532,119823100,"""world""",,,0.00833784695715,-0.0182625278831,0.0881087779999,,0.00244513899088,-0.00507620628923,-0.0117694921792,-0.999914944172
1520440532120286902,,1492,,1520440532,119869990,"""world""",,,0.00834466330707,-0.0182490088046,0.0881225913763,,0.00250287982635,-0.005057644099,-0.0118307843804,-0.999914169312
1520440532130435080,,1493,,1520440532,130120608,"""world""",,,0.0083376718685,-0.01826752536,0.0881176069379,,0.00247293990105,-0.00504215853289,-0.0118081830442,-0.999914526939
1520440532140722348,,1494,,1520440532,140406649,"""world""",,,0.0083416281268,-0.0182599108666,0.0881126523018,,0.00248842174187,-0.00496110832319,-0.011758947745,-0.999915540218
1520440532150193130,,1495,,1520440532,149759349,"""world""",,,0.00833793263882,-0.0182558689266,0.0881091803312,,0.00248728017323,-0.00497588282451,-0.0117278611287,-0.999915838242
1520440532160517807,,1496,,1520440532,160164395,"""world""",,,0.00833410769701,-0.0182500574738,0.0881008580327,,0.00244513619691,-0.0050209495239,-0.0117074055597,-0.999915897846
1520440532160531995,,1497,,1520440532,160204618,"""world""",,,0.00833271257579,-0.0182500742376,0.0880969837308,,0.00240037217736,-0.00510964356363,-0.0117809250951,-0.999914646149
1520440532171081133,,1498,,1520440532,170508721,"""world""",,,0.00833219848573,-0.0182583779097,0.0881088972092,,0.00244788080454,-0.00506609072909,-0.0117797851562,-0.999914765358
1520440532190898741,,1499,,1520440532,190292914,"""world""",,,0.00833651516587,-0.018265068531,0.0881123170257,,0.0024649288971,-0.00504846638069,-0.0117828305811,-0.999914884567
1520440532190953200,,1500,,1520440532,190366135,"""world""",,,0.00833970494568,-0.0182725191116,0.0881195366383,,0.00249285669997,-0.00501248519868,-0.0117924455553,-0.999914884567
1520440532200642166,,1501,,1520440532,199736080,"""world""",,,0.00834179669619,-0.0182502828538,0.0881340876222,,0.00247428007424,-0.00497840996832,-0.0117995748296,-0.999914944172
1520440532210667735,,1502,,1520440532,210208436,"""world""",,,0.00834023300558,-0.0182618275285,0.0881122797728,,0.00243598641828,-0.00499628297985,-0.0117398733273,-0.999915719032
1520440532210716495,,1503,,1520440532,210276198,"""world""",,,0.00833835173398,-0.0182548705488,0.0881051644683,,0.00243359617889,-0.00506319478154,-0.0117634916678,-0.999915063381
1520440532230464273,,1504,,1520440532,230012868,"""world""",,,0.00833365414292,-0.0182519685477,0.0881026610732,,0.00243338127621,-0.005076803267,-0.0117986900732,-0.999914526939
1520440532230511596,,1505,,1520440532,230076274,"""world""",,,0.00833486951888,-0.0182554274797,0.0881131216884,,0.00244738068432,-0.00503734964877,-0.0117721389979,-0.999915122986
1520440532241009305,,1506,,1520440532,240571886,"""world""",,,0.00833991263062,-0.0182555429637,0.0881078988314,,0.00241157552227,-0.00498830154538,-0.011729975231,-0.999915957451
1520440532250562904,,1507,,1520440532,250016897,"""world""",,,0.00833470188081,-0.018253210932,0.0881028324366,,0.00237311352976,-0.00501421932131,-0.0117581142113,-0.999915540218
1520440532260910553,,1508,,1520440532,260512235,"""world""",,,0.00834283884615,-0.0182484276593,0.0881240740418,,0.002467938466,-0.00498959980905,-0.0117888972163,-0.999915003777
1520440532270344606,,1509,,1520440532,269959362,"""world""",,,0.00834007002413,-0.0182731077075,0.088110640645,,0.00252820574678,-0.00508741987869,-0.0117869665846,-0.99991440773
1520440532270391630,,1510,,1520440532,270000985,"""world""",,,0.00833889096975,-0.0182679481804,0.0881208181381,,0.00250319228508,-0.00507802283391,-0.0118035720661,-0.999914288521
1520440532280640756,,1511,,1520440532,280381017,"""world""",,,0.00834104325622,-0.0182554014027,0.0881139263511,,0.00243701552972,-0.00504769105464,-0.01176111307,-0.99991518259
1520440532290113296,,1512,,1520440532,289780468,"""world""",,,0.0083361659199,-0.018248224631,0.0881016403437,,0.00241320207715,-0.00501302350312,-0.0117830466479,-0.99991518259
1520440532300427017,,1513,,1520440532,300099913,"""world""",,,0.008330184035,-0.0182428974658,0.0880995616317,,0.00240879924968,-0.00505525292829,-0.0117808813229,-0.999915003777
1520440532310805543,,1514,,1520440532,310471180,"""world""",,,0.00834213756025,-0.0182583630085,0.0881062224507,,0.00238666846417,-0.00506809959188,-0.0117768319324,-0.999915003777
1520440532310819927,,1515,,1520440532,310510238,"""world""",,,0.0083355428651,-0.0182583555579,0.088106751442,,0.00241460232064,-0.00504968967289,-0.0117645999417,-0.999915122986
1520440532331059888,,1516,,1520440532,330484582,"""world""",,,0.00834146700799,-0.0182641595602,0.0881103277206,,0.00250832480378,-0.00501883076504,-0.0117727750912,-0.999914944172
1520440532451047959,,1517,,1520440532,450019852,"""world""",,,0.00833696033806,-0.018260512501,0.0881153419614,,0.00245059165172,-0.0050029293634,-0.0117579437792,-0.999915421009
1520440532451064951,,1518,,1520440532,450083817,"""world""",,,0.00833571236581,-0.0182665809989,0.0881127640605,,0.00244447542354,-0.00501863891259,-0.0117890210822,-0.999914944172
1520440532451078769,,1520,,1520440532,450190302,"""world""",,,0.00832967367023,-0.0182482115924,0.0881078913808,,0.0023997023236,-0.00510852225125,-0.0118192788213,-0.999914288521
1520440532451123296,,1521,,1520440532,450254941,"""world""",,,0.00833771377802,-0.0182494744658,0.0881056338549,,0.00251095602289,-0.00507584400475,-0.0117796352133,-0.999914586544
1520440532451137311,,1523,,1520440532,450331327,"""world""",,,0.00833456404507,-0.0182549767196,0.0881069377065,,0.00237892544828,-0.00502275303006,-0.011750058271,-0.999915540218
1520440532451158682,,1524,,1520440532,450391599,"""world""",,,0.00832851044834,-0.0182572416961,0.0881045535207,,0.00239469995722,-0.00504274666309,-0.0117550650612,-0.999915421009
1520440532451222910,,1526,,1520440532,450458641,"""world""",,,0.00834138784558,-0.0182570517063,0.0881121382117,,0.00251324963756,-0.00504834437743,-0.0117541197687,-0.999915063381
1520440532451233537,,1527,,1520440532,450654884,"""world""",,,0.00834046397358,-0.0182685460895,0.0881161242723,,0.00261299381964,-0.00503903115168,-0.011812296696,-0.999914169312
1520440532820522294,,1528,,1520440532,819962588,"""world""",,,0.00833303574473,-0.0182599425316,0.0881176516414,,0.0024894203525,-0.00503284716979,-0.011763391085,-0.999915122986
1520440532820540870,,1529,,1520440532,820045591,"""world""",,,0.00833195261657,-0.0182438567281,0.0881258994341,,0.0024031274952,-0.00497657060623,-0.0117771467194,-0.999915421009
1520440532820861861,,1530,,1520440532,820107432,"""world""",,,0.00833534169942,-0.0182640086859,0.088099963963,,0.00247909338214,-0.00503786234185,-0.0117656234652,-0.999915003777
1520440532820871356,,1535,,1520440532,820286701,"""world""",,,0.00832988321781,-0.0182582139969,0.0881155207753,,0.00249374937266,-0.0049762846902,-0.0117703005672,-0.9999153018
1520440532822119127,,1536,,1520440532,820659936,"""world""",,,0.0083319703117,-0.0182537063956,0.0881163775921,,0.00241001253016,-0.0050248419866,-0.0117470631376,-0.999915540218
1520440532822142627,,1553,,1520440532,821202351,"""world""",,,0.00832390412688,-0.0182685796171,0.0881126597524,,0.00240851519629,-0.00501396413893,-0.0117880832404,-0.999915122986
1520440532829987668,,1554,,1520440532,829531632,"""world""",,,0.00832449551672,-0.0182425417006,0.0881215780973,,0.00239363289438,-0.0049781431444,-0.0117219733074,-0.99991607666
1520440532840341793,,1555,,1520440532,839956726,"""world""",,,0.0083177909255,-0.0182419419289,0.0881064534187,,0.00240773335099,-0.00505427643657,-0.0117821209133,-0.999914944172
1520440532850644436,,1556,,1520440532,850320549,"""world""",,,0.0083277951926,-0.018255405128,0.0881080776453,,0.00244727591053,-0.00503878109157,-0.0117656774819,-0.999915122986
1520440532860027493,,1557,,1520440532,859592325,"""world""",,,0.00832817330956,-0.0182654932141,0.0881093293428,,0.00243718922138,-0.00509614543989,-0.0118013871834,-0.999914467335
1520440532870422318,,1558,,1520440532,870076037,"""world""",,,0.00833127554506,-0.0182559341192,0.0881342440844,,0.0024977393914,-0.0050545646809,-0.0118642440066,-0.999913811684
1520440532990402951,,1559,,1520440532,989695424,"""world""",,,0.00832552369684,-0.0182579047978,0.0881218761206,,0.00247873505577,-0.00500515429303,-0.0117574948817,-0.9999153018
1520440532990707721,,1560,,1520440532,989818393,"""world""",,,0.00832493323833,-0.0182523913682,0.0881175771356,,0.00242130854167,-0.00503241084516,-0.0117465630174,-0.999915480614
1520440532990733920,,1563,,1520440532,990048591,"""world""",,,0.00833045970649,-0.0182375181466,0.0881290510297,,0.00243406649679,-0.00506414473057,-0.0118097765371,-0.999914467335
1520440532990845541,,1564,,1520440532,990146033,"""world""",,,0.00832705292851,-0.0182365998626,0.0881378352642,,0.00250643212348,-0.00494023738429,-0.0118109434843,-0.999914944172
1520440532990861091,,1566,,1520440532,990249496,"""world""",,,0.0083267018199,-0.0182619467378,0.0881112888455,,0.00245868391357,-0.00502496724948,-0.0117603251711,-0.9999153018
1520440533060844966,,1567,,1520440533,60431957,"""world""",,,0.00833387952298,-0.0182658359408,0.0881138592958,,0.00242301612161,-0.00508156139404,-0.0117802917957,-0.999914824963
1520440533060852803,,1575,,1520440533,60531590,"""world""",,,0.00832997635007,-0.0182699821889,0.0881318077445,,0.00252364575863,-0.00501641165465,-0.0118150748312,-0.99991440773
1520440533060860187,,1576,,1520440533,60617571,"""world""",,,0.00832485500723,-0.0182600282133,0.0881179571152,,0.00248544313945,-0.00499869603664,-0.0118181072176,-0.999914646149
1520440533060865102,,1577,,1520440533,60661304,"""world""",,,0.00833350606263,-0.018250323832,0.0881101861596,,0.0024213003926,-0.00500530330464,-0.0117407711223,-0.999915659428
1520440533060870715,,1578,,1520440533,60682000,"""world""",,,0.00832592882216,-0.0182479321957,0.0881093144417,,0.00245253043249,-0.00507489638403,-0.0117762777954,-0.999914824963
1520440533060956448,,1579,,1520440533,60716032,"""world""",,,0.00832643732429,-0.0182504169643,0.0881102308631,,0.00236996286549,-0.00506506487727,-0.0117840161547,-0.999915003777
1520440533061435664,,1580,,1520440533,61216944,"""world""",,,0.00832186732441,-0.0182550810277,0.08812238276,,0.0024558971636,-0.00500319665298,-0.0117628313601,-0.9999153018
1520440533069772444,,1581,,1520440533,69524546,"""world""",,,0.00832591671497,-0.0182594563812,0.0881176590919,,0.00242688180879,-0.00498124072328,-0.0117726391181,-0.999915421009
1520440533190546308,,1582,,1520440533,190078886,"""world""",,,0.00833163689822,-0.0182679202408,0.0881093889475,,0.00246668700129,-0.00503977760673,-0.0117773842067,-0.999915003777
1520440533190557263,,1587,,1520440533,190160862,"""world""",,,0.00833012070507,-0.0182523857802,0.0881193876266,,0.00242845434695,-0.00502064544708,-0.0117719173431,-0.999915242195
1520440533190564480,,1588,,1520440533,190238821,"""world""",,,0.00833518058062,-0.0182383432984,0.088123396039,,0.00244931108318,-0.0050195758231,-0.0117895565927,-0.999914944172
1520440533190571059,,1589,,1520440533,190289782,"""world""",,,0.00832432694733,-0.0182662643492,0.0881012678146,,0.00240468466654,-0.00504781166092,-0.0117478920147,-0.999915421009
