rosbagTimestamp,header,seq,stamp,secs,nsecs,frame_id,coordinate_frame,type_mask,position,x,y,z,velocity,x,y,z,acceleration_or_force,x,y,z,yaw,yaw_rate
1520440537701313260,,0,,1520440537,677678144,'',1,0,,0.00803159549832,-0.0189682580531,0.0886498093605,,4.7700759751e-05,0.000114648508315,-9.16570425034e-05,,0.00594675214961,0.014441549778,4.88002538681,-1.40499532223,-0.0
1520440537800586272,,1,,1520440537,781815680,'',1,0,,-6.12323399574e-17,6.12323426293e-17,0.5,,-0.00751077150926,0.0182985365391,0.35131958127,,-0.000588960887399,0.0297489278018,5.57132387161,-1.57079637051,-0.0
1520440537882297973,,2,,1520440537,876718656,'',1,0,,-6.12323399574e-17,6.12323426293e-17,0.5,,-0.00778405368328,0.0176411997527,0.411668598652,,-0.00170113914646,0.0299264248461,5.69919729233,-1.57079637051,-0.0
1520440537982617168,,3,,1520440537,977718656,'',1,0,,-6.12323399574e-17,6.12323426293e-17,0.5,,-0.00776212755591,0.0177026167512,0.411618709564,,-0.00131943530869,0.0293266940862,5.70734024048,-1.57079637051,-0.0
1520440538092354100,,4,,1520440538,74888320,'',1,0,,-6.12323399574e-17,6.12323426293e-17,0.5,,-0.00777260400355,0.0176560040563,0.411653459072,,-0.00105240964331,0.0311679001898,5.7156996727,-1.57079637051,-0.0
1520440538182424424,,5,,1520440538,177734528,'',1,0,,-6.12323399574e-17,6.12323426293e-17,0.5,,-0.00780206453055,0.0176031719893,0.411697208881,,-0.00161713187117,0.0315876677632,5.72315835953,-1.57079637051,-0.0
1520440538292028298,,6,,1520440538,275241600,'',1,0,,-6.12323399574e-17,6.12323426293e-17,0.5,,-0.00768037047237,0.0178905967623,0.41146916151,,-0.00115263520274,0.0331308804452,5.72959947586,-1.57079637051,-0.0
1520440538383649590,,7,,1520440538,375957632,'',1,0,,-6.12323399574e-17,6.12323426293e-17,0.5,,-0.00778871774673,0.0176534764469,0.411646842957,,-0.00267129647546,0.0321581996977,5.73890686035,-1.57079637051,-0.0
1520440538483489012,,8,,1520440538,474945152,'',1,0,,-6.12323399574e-17,6.12323426293e-17,0.5,,-0.00782844144851,0.0175781790167,0.411702573299,,-0.00272540166043,0.0334997437894,5.74658918381,-1.57079637051,-0.0
1520440538593257744,,9,,1520440538,577591680,'',1,0,,-6.12323399574e-17,6.12323426293e-17,0.5,,-0.00776097457856,0.0177928060293,0.411556482315,,-0.00232737860642,0.0356356091797,5.75448560715,-1.57079637051,-0.0
1520440538693236438,,10,,1520440538,679604864,'',1,0,,-6.12323399574e-17,6.12323426293e-17,0.5,,-0.00772632844746,0.017852017656,0.411504745483,,-0.00221489882097,0.0364770554006,5.76198768616,-1.57079637051,-0.0
1520440538782657982,,11,,1520440538,779604864,'',1,0,,-6.12323399574e-17,6.12323426293e-17,0.5,,-0.00771021004766,0.0178930684924,0.411503523588,,-0.0025627873838,0.0368015058339,5.77073144913,-1.57079637051,-0.0
1520440538882919162,,12,,1520440538,876849856,'',1,0,,-6.12323399574e-17,6.12323426293e-17,0.5,,-0.00775308767334,0.0177790094167,0.411585837603,,-0.00284909899347,0.0370577983558,5.77829694748,-1.57079637051,-0.0
1520440538994302819,,13,,1520440538,975849856,'',1,0,,-6.12323399574e-17,6.12323426293e-17,0.5,,-0.00766686908901,0.0180686954409,0.411353588104,,-0.00219446839765,0.0383242703974,5.78472805023,-1.57079637051,-0.0
1520440539103148007,,14,,1520440539,72613568,'',1,0,,-6.12323399574e-17,6.12323426293e-17,0.5,,-0.0076502612792,0.0181155074388,0.411316454411,,-0.00304495869204,0.0382389351726,5.7920255661,-1.57079637051,-0.0
1520440539182159090,,15,,1520440539,176714880,'',1,0,,-6.12323399574e-17,6.12323426293e-17,0.5,,-0.00753818405792,0.0184223391116,0.411019384861,,-0.00199850043282,0.0408763624728,5.79744720459,-1.57079637051,-0.0
1520440539300747201,,16,,1520440539,277123008,'',1,0,,-6.12323399574e-17,6.12323426293e-17,0.5,,-0.00760529376566,0.0182346776128,0.411168396473,,-0.00260275695473,0.0395248942077,5.80582857132,-1.57079637051,-0.0
1520440539393909223,,17,,1520440539,381597952,'',1,0,,-6.12323399574e-17,6.12323426293e-17,0.5,,-0.00715191150084,0.0195280145854,0.410038083792,,-0.00136321748141,0.0432174950838,5.80799007416,-1.57079637051,-0.0
1520440539517308448,,18,,1520440539,479195328,'',1,0,,-6.12323399574e-17,6.12323426293e-17,0.5,,-0.00657893018797,0.0211332757026,0.408596068621,,2.54291644517e-05,0.0473788157105,5.81096363068,-1.57079637051,-0.0
1520440539582190324,,19,,1520440539,575341504,'',1,0,,-6.12323399574e-17,6.12323426293e-17,0.5,,-0.00593856908381,0.0229082945734,0.407042562962,,0.00118380994536,0.0516970455647,5.81220006943,-1.57079637051,-0.0
1520440539694679497,,20,,1520440539,675341504,'',1,0,,-6.12323399574e-17,6.12323426293e-17,0.5,,-0.00521758245304,0.0248508732766,0.405325651169,,0.00257480097935,0.0556860268116,5.81394338608,-1.57079637051,-0.0
1520440539794517612,,21,,1520440539,776408256,'',1,0,,-6.12323399574e-17,6.12323426293e-17,0.5,,-0.00442988518626,0.0269275717437,0.403495848179,,0.00427659554407,0.05875210464,5.81631088257,-1.57079637051,-0.0
1520440539892490308,,22,,1520440539,876408256,'',1,0,,-6.12323399574e-17,6.12323426293e-17,0.5,,-0.00356083246879,0.029115345329,0.401577681303,,0.00565860699862,0.0637115165591,5.81858587265,-1.57079637051,-0.0
1520440539992605964,,23,,1520440539,978904256,'',1,0,,-6.12323399574e-17,6.12323426293e-17,0.5,,-0.00263863569126,0.0314602330327,0.39964646101,,0.0061869546771,0.0682875588536,5.82217073441,-1.57079637051,-0.0
1520440540092319241,,24,,1520440540,77521088,'',1,0,,-6.12323399574e-17,6.12323426293e-17,0.5,,-0.00168366869912,0.0339468382299,0.397675454617,,0.00792517792433,0.0720542371273,5.82434225082,-1.57079637051,-0.0
1520440540201330697,,25,,1520440540,177521088,'',1,0,,-6.12323399574e-17,6.12323426293e-17,0.5,,-0.000690818356816,0.0365568175912,0.395610064268,,0.00943642109632,0.07744512707,5.82595062256,-1.57079637051,-0.0
1520440540319778447,,26,,1520440540,294072385,'',1,0,,-6.12323399574e-17,6.12323426293e-17,0.5,,0.000370191526599,0.0393047183752,0.393438637257,,0.0126390065998,0.0818696692586,5.82592391968,-1.57079637051,-0.0
1520440540384279538,,27,,1520440540,384072385,'',1,0,,-6.12323399574e-17,6.12323426293e-17,0.5,,0.00142637977842,0.0418621152639,0.3913154006,,0.0135038821027,0.0860678553581,5.82482862473,-1.57079637051,-0.0
1520440540484238931,,28,,1520440540,477432832,'',1,0,,-6.12323399574e-17,6.12323426293e-17,0.5,,0.00279161194339,0.0450999699533,0.388538181782,,0.0160215720534,0.0919757559896,5.82441520691,-1.57079637051,-0.0
1520440540607630766,,29,,1520440540,577432832,'',1,0,,-6.12323399574e-17,6.12323426293e-17,0.5,,-0.00703473668545,0.0195514578372,0.410024285316,,-0.00227300985716,0.0468559227884,5.89896965027,-1.57079637051,-0.0
1520440540701584713,,30,,1520440540,672418432,'',1,0,,-6.12323399574e-17,6.12323426293e-17,0.5,,-0.0075934282504,0.0180573631078,0.411255002022,,-0.000427720748122,0.050206515938,5.91026496887,-1.57079637051,-0.0
1520440540802676556,,31,,1520440540,783396096,'',1,0,,-6.12323399574e-17,6.12323426293e-17,0.5,,-0.00759616820142,0.0179782751948,0.411336123943,,1.98260095196e-05,0.0528454370797,5.92092370987,-1.57079637051,-0.0
1520440540891683878,,32,,1520440540,874338432,'',1,0,,-6.12323399574e-17,6.12323426293e-17,0.5,,-0.007704698015,0.0177754685283,0.411522626877,,-0.000880769162905,0.0527573861182,5.92996025085,-1.57079637051,-0.0
1520440540993417704,,33,,1520440540,972899776,'',1,0,,-6.12323399574e-17,6.12323426293e-17,0.5,,-0.00778524810448,0.0176072325557,0.411682903767,,-0.000771440158133,0.0537348873913,5.93917560577,-1.57079637051,-0.0
1520440541092764670,,34,,1520440541,80405248,'',1,0,,-6.12323399574e-17,6.12323426293e-17,0.5,,-0.00781875941902,0.0175512805581,0.411734670401,,-0.00130018778145,0.0541044808924,5.94804000854,-1.57079637051,-0.0
1520440541192218087,,35,,1520440541,179014720,'',1,0,,-6.12323399574e-17,6.12323426293e-17,0.5,,-0.00773986708373,0.0177245028317,0.411608278751,,-0.000676339259372,0.0558116957545,5.95622825623,-1.57079637051,-0.0
1520440541292933940,,36,,1520440541,278330688,'',1,0,,-6.12323399574e-17,6.12323426293e-17,0.5,,-0.00764499465004,0.0179709531367,0.4113920331,,-0.00166737427935,0.0564507655799,5.96248531342,-1.57079637051,-0.0
1520440541400756323,,37,,1520440541,382863104,'',1,0,,-6.12323399574e-17,6.12323426293e-17,0.5,,-0.00781762599945,0.0175689551979,0.411709994078,,-0.00138544279616,0.0557647049427,5.97214365005,-1.57079637051,-0.0
1520440541492171325,,38,,1520440541,483863104,'',1,0,,-6.12323399574e-17,6.12323426293e-17,0.5,,-0.00765614863485,0.017996603623,0.411343604326,,-0.00125681003556,0.0573259815574,5.97753190994,-1.57079637051,-0.0
1520440541592696583,,39,,1520440541,584032320,'',1,0,,-6.12323399574e-17,6.12323426293e-17,0.5,,-0.00779501581565,0.0176337398589,0.41163289547,,-0.00201133219525,0.0558016858995,5.98606729507,-1.57079637051,-0.0
1520440541696267302,,40,,1520440541,683135296,'',1,0,,-6.12323399574e-17,6.12323426293e-17,0.5,,-0.00778909726068,0.0176445338875,0.411613464355,,-0.00189433072228,0.0560221858323,5.99413537979,-1.57079637051,-0.0
1520440541806800156,,41,,1520440541,786806080,'',1,0,,-6.12323399574e-17,6.12323426293e-17,0.5,,-0.00767243700102,0.0179415121675,0.411335587502,,-0.00154221674893,0.0573794096708,6.00120019913,-1.57079637051,-0.0
1520440541900977587,,42,,1520440541,886754624,'',1,0,,-6.12323399574e-17,6.12323426293e-17,0.5,,-0.00769390724599,0.0179010629654,0.411398023367,,-0.00250504049473,0.0577334836125,6.01092338562,-1.57079637051,-0.0
1520440542001085030,,43,,1520440541,985370176,'',1,0,,-6.12323399574e-17,6.12323426293e-17,0.5,,-0.00774705829099,0.017780277878,0.4115203619,,-0.0034883399494,0.0573136694729,6.0205078125,-1.57079637051,-0.0
1520440542105946010,,44,,1520440542,87671616,'',1,0,,-6.12323399574e-17,6.12323426293e-17,0.5,,-0.0076814359054,0.0179849155247,0.411359548569,,-0.00281517812982,0.0582365579903,6.02826881409,-1.57079637051,-0.0
1520440542201966286,,45,,1520440542,188083264,'',1,0,,-6.12323399574e-17,6.12323426293e-17,0.5,,-0.00776760932058,0.0177457369864,0.411529868841,,-0.00323465792462,0.0577190071344,6.03609657288,-1.57079637051,-0.0
1520440542296295652,,46,,1520440542,288083264,'',1,0,,-6.12323399574e-17,6.12323426293e-17,0.5,,-0.00768841663376,0.0179277528077,0.411270320415,,-0.0034526407253,0.0593122243881,6.04074811935,-1.57079637051,-0.0
1520440542401087554,,47,,1520440542,387169572,'',1,0,,-6.12323399574e-17,6.12323426293e-17,0.5,,-0.00772181339562,0.0178643967956,0.411344617605,,-0.00327514694072,0.058810018003,6.04913234711,-1.57079637051,-0.0
1520440542504854590,,48,,1520440542,486169572,'',1,0,,-6.12323399574e-17,6.12323426293e-17,0.5,,-0.00771811418235,0.0178979448974,0.411270618439,,-0.0050013079308,0.0579685531557,6.05564785004,-1.57079637051,-0.0
1520440542592916418,,49,,1520440542,584286848,'',1,0,,-6.12323399574e-17,6.12323426293e-17,0.5,,-0.00766466092318,0.0182058718055,0.410742282867,,-0.00448467675597,0.0599580705166,6.059633255,-1.57079637051,-0.0
1520440542707832272,,50,,1520440542,686825856,'',1,0,,-6.12323399574e-17,6.12323426293e-17,0.5,,-0.00779456458986,0.0177874397486,0.411252707243,,-0.00496526993811,0.0593115314841,6.06967735291,-1.57079637051,-0.0
1520440542801605971,,51,,1520440542,786513024,'',1,0,,-6.12323399574e-17,6.12323426293e-17,0.5,,-0.0078175291419,0.0176969114691,-0.474402785301,,-0.00466918991879,0.0217435881495,3.94729852676,-1.57079637051,-0.0
1520440542892825769,,52,,1520440542,886513024,'',1,0,,-6.12323399574e-17,6.12323426293e-17,0.5,,-0.00788098201156,0.0178760197014,-0.373300820589,,-0.00739389192313,0.0285669788718,4.12914705276,-1.57079637051,-0.0
1520440542993053340,,53,,1520440542,971846004,'',1,0,,-6.12323399574e-17,6.12323426293e-17,0.5,,-0.00784060079604,0.0178506486118,-0.270690321922,,-0.00627326918766,0.0257957410067,4.32480382919,-1.57079637051,-0.0
1520440543100848378,,54,,1520440543,86980426,'',1,0,,-6.12323399574e-17,6.12323426293e-17,0.5,,-0.00792848039418,0.0181433781981,-0.16704942286,,-0.00814876612276,0.0267714392394,4.52716970444,-1.57079637051,-0.0
1520440543223674920,,55,,1520440543,185980426,'',1,0,,-6.12323399574e-17,6.12323426293e-17,0.5,,-0.00804288033396,0.0180191155523,-0.064977362752,,-0.012247226201,0.028445860371,4.74690341949,-1.57079637051,-0.0
1520440543306352995,,56,,1520440543,287124553,'',1,0,,-6.12323399574e-17,6.12323426293e-17,0.5,,-0.00817450508475,0.0177011229098,0.03787188977,,-0.0110876131803,0.023718982935,4.94012403488,-1.57079637051,-0.0
1520440543392556019,,57,,1520440543,387124553,'',1,0,,-6.12323399574e-17,6.12323426293e-17,0.5,,-0.00855253916234,0.0182838831097,0.1409201473,,-0.016008162871,0.0283511243761,5.13353824615,-1.57079637051,-0.0
1520440543501234646,,58,,1520440543,485144192,'',1,0,,-6.12323399574e-17,6.12323426293e-17,0.5,,-0.00910432636738,0.0191790629178,0.243478223681,,-0.0146178128198,0.033514559269,5.34633302689,-1.57079637051,-0.0
1520440543610212077,,59,,1520440543,588882048,'',1,0,,-6.12323399574e-17,6.12323426293e-17,0.5,,-0.00963346194476,0.0203536823392,0.345827281475,,-0.0128417033702,0.0362229049206,5.55524682999,-1.57079637051,-0.0
1520440543692886559,,60,,1520440543,678882048,'',1,0,,-6.12323399574e-17,6.12323426293e-17,0.5,,-0.0100351134315,0.021477079019,0.408419907093,,-0.0138234654441,0.0331011749804,5.66809797287,-1.57079637051,-0.0
1520440543802105911,,61,,1520440543,783262336,'',1,0,,-6.12323399574e-17,6.12323426293e-17,0.5,,-0.0104457968846,0.0227358452976,0.406347513199,,-0.014854493551,0.0357032902539,5.65238761902,-1.57079637051,-0.0
1520440543904116525,,62,,1520440543,883180672,'',1,0,,-6.12323399574e-17,6.12323426293e-17,0.5,,-0.0108881536871,0.0236023105681,0.403552144766,,-0.0170739199966,0.0273912940174,5.63472700119,-1.57079637051,-0.0
1520440544000120438,,63,,1520440543,983180672,'',1,0,,-6.12323399574e-17,6.12323426293e-17,0.5,,-0.0114198410884,0.0243312194943,0.399627685547,,-0.0172944236547,0.0390136577189,5.6121301651,-1.57079637051,-0.0
1520440544100874558,,64,,1520440544,84398464,'',1,0,,-6.12323399574e-17,6.12323426293e-17,0.5,,-0.0120312450454,0.0254370514303,0.394991159439,,-0.0204208344221,0.0465925782919,5.61085605621,-1.57079637051,-0.0
1520440544208327397,,65,,1520440544,187613888,'',1,0,,-6.12323399574e-17,6.12323426293e-17,0.5,,-0.0129590863362,0.0270361956209,0.389379441738,,-0.0381118953228,0.0651588514447,5.54118204117,-1.57079637051,-0.0
1520440544301561547,,66,,1520440544,287646656,'',1,0,,-6.12323399574e-17,6.12323426293e-17,0.5,,-0.014255288057,0.030591154471,0.370593965054,,0.0241248309612,0.0554668530822,5.02719402313,-1.57079637051,-0.0
1520440544403436321,,67,,1520440544,387998144,'',1,0,,-6.12323399574e-17,6.12323426293e-17,0.5,,-0.0123568903655,0.0328980535269,0.332077801228,,0.0496301427484,0.039478674531,4.81422138214,-1.57079637051,-0.0
1520440544494930468,,68,,1520440544,484075200,'',1,0,,-6.12323399574e-17,6.12323426293e-17,0.5,,-0.00632912060246,0.0330342501402,0.293572574854,,0.128139778972,0.0323863551021,4.76435565948,-1.57079637051,-0.0
1520440544621123366,,69,,1520440544,596341842,'',1,0,,-6.12323399574e-17,6.12323426293e-17,0.5,,0.00438707647845,0.0342205613852,0.254774868488,,0.155362874269,0.0474959239364,4.65266942978,-1.57079637051,-0.0
1520440544763198780,,70,,1520440544,686341842,'',1,0,,-6.12323399574e-17,6.12323426293e-17,0.5,,0.0160602517426,0.0345498509705,0.218579351902,,0.175646990538,0.00634994776919,4.55525350571,-1.57079637051,-0.0
1520440544814662336,,71,,1520440544,817584101,'',1,0,,-6.12323399574e-17,6.12323426293e-17,0.5,,0.0329213403165,0.0335667543113,0.178755372763,,0.201331973076,0.074805110693,4.65207433701,-1.57079637051,-0.0
1520440544911414338,,72,,1520440544,890902097,'',1,0,,-6.12323399574e-17,6.12323426293e-17,0.5,,0.0478789769113,0.0350968576968,0.149614036083,,0.15934728086,0.0655962824821,4.69017076492,-1.57079637051,-0.0
1520440545003196194,,73,,1520440544,988028032,'',1,0,,-6.12323399574e-17,6.12323426293e-17,0.5,,0.0628596618772,0.0359346680343,0.126408517361,,0.237035959959,0.0362527705729,4.80943584442,-1.57079637051,-0.0
1520440545092380765,,74,,1520440545,84213696,'',1,0,,-6.12323399574e-17,6.12323426293e-17,0.5,,0.0757325142622,0.0290336702019,0.135116159916,,0.231936320662,0.0418263673782,5.08104610443,-1.57079637051,-0.0
1520440545202184055,,75,,1520440545,185784512,'',1,0,,-6.12323399574e-17,6.12323426293e-17,0.5,,0.0755798593163,0.00716099562123,0.194176316261,,0.188955113292,0.000639468082227,5.31756925583,-1.57079637051,-0.0
1520440545301564802,,76,,1520440545,286784512,'',1,0,,-6.12323399574e-17,6.12323426293e-17,0.5,,0.084189131856,0.00311166304164,0.193752348423,,0.26949724555,0.0315763168037,5.02918720245,-1.57079637051,-0.0
1520440545400921355,,77,,1520440545,382311104,'',1,0,,-6.12323399574e-17,6.12323426293e-17,0.5,,0.0919255688787,-0.0023960925173,0.181509286165,,0.277218222618,-0.0873049944639,4.90733098984,-1.57079637051,-0.0
1520440545498105517,,78,,1520440545,484819456,'',1,0,,-6.12323399574e-17,6.12323426293e-17,0.5,,0.105222381651,-0.00915398541838,0.163823962212,,0.26723331213,-0.0627823323011,4.88566303253,-1.57079637051,-0.0
1520440545610255826,,79,,1520440545,594111947,'',1,0,,-6.12323399574e-17,6.12323426293e-17,0.5,,0.111349247396,-0.0132988188416,0.154815495014,,0.205302461982,-0.0327336639166,4.96258354187,-1.57079637051,-0.0
1520440545701146004,,80,,1520440545,688357888,'',1,0,,-6.12323399574e-17,6.12323426293e-17,0.5,,0.12161604315,-0.0163733866066,0.139237731695,,0.216209769249,0.0214967243373,4.88451480865,-1.57079637051,-0.0
1520440545800494615,,81,,1520440545,784704512,'',1,0,,-6.12323399574e-17,6.12323426293e-17,0.5,,0.130711078644,-0.0181341841817,0.125817239285,,0.234267935157,-0.0346696451306,4.96748638153,-1.57079637051,-0.0
1520440545901630389,,82,,1520440545,885670912,'',1,0,,-6.12323399574e-17,6.12323426293e-17,0.5,,0.139162480831,-0.0206657834351,0.115524411201,,0.241613954306,-0.0113678686321,4.94192790985,-1.57079637051,-0.0
1520440546002258079,,83,,1520440545,985670912,'',1,0,,-6.12323399574e-17,6.12323426293e-17,0.5,,0.146718710661,-0.0218873657286,0.105262845755,,0.26175943017,0.000924602907617,4.93384075165,-1.57079637051,-0.0
1520440546094757473,,84,,1520440546,80713728,'',1,0,,-6.12323399574e-17,6.12323426293e-17,0.5,,0.153750300407,-0.0217554681003,0.0957708358765,,0.246070355177,-0.0196792129427,4.93484258652,-1.57079637051,-0.0
1520440546208030725,,85,,1520440546,193103851,'',1,0,,-6.12323399574e-17,6.12323426293e-17,0.5,,0.15928158164,-0.0222200434655,0.0875763893127,,0.250534683466,-0.0261297840625,4.9430770874,-1.57079637051,-0.0
1520440546301103478,,86,,1520440546,291633152,'',1,0,,-6.12323399574e-17,6.12323426293e-17,0.5,,0.163417577744,-0.0223830603063,0.0820612311363,,0.221763476729,0.0120695400983,4.98749637604,-1.57079637051,-0.0
1520440546392475596,,87,,1520440546,386335488,'',1,0,,-6.12323399574e-17,6.12323426293e-17,0.5,,0.16604219377,-0.0217092502862,0.0779699981213,,0.246844470501,-0.0291886553168,5.01325130463,-1.57079637051,-0.0
1520440546492959351,,88,,1520440546,483800576,'',1,0,,-6.12323399574e-17,6.12323426293e-17,0.5,,0.167679786682,-0.0217819176614,0.0752362012863,,0.234508261085,0.000847552786581,5.0169839859,-1.57079637051,-0.0
1520440546600698699,,89,,1520440546,584948544,'',1,0,,-6.12323399574e-17,6.12323426293e-17,0.5,,0.167289599776,-0.0217326935381,0.0744875669479,,0.164878278971,0.0103690167889,5.10428667068,-1.57079637051,-0.0
1520440546698483371,,90,,1520440546,684948544,'',1,0,,-6.12323399574e-17,6.12323426293e-17,0.5,,0.164270073175,-0.0204525738955,0.0724640488625,,0.195083618164,0.0143598988652,5.00002765656,-1.57079637051,-0.0
1520440546804855349,,91,,1520440546,781845056,'',1,0,,-6.12323399574e-17,6.12323426293e-17,0.5,,0.161308005452,-0.0193537212908,0.0677775144577,,0.218174099922,-0.0235305018723,4.93959665298,-1.57079637051,-0.0
1520440546900687468,,92,,1520440546,882056256,'',1,0,,-6.12323399574e-17,6.12323426293e-17,0.5,,0.159430384636,-0.0200178623199,0.0599662065506,,0.233568847179,-0.0510007441044,4.89019298553,-1.57079637051,-0.0
1520440546993618133,,93,,1520440546,982350144,'',1,0,,-6.12323399574e-17,6.12323426293e-17,0.5,,0.0973631441593,0.0240795277059,0.183200418949,,0.114134982228,0.0663599967957,5.27749681473,-1.57079637051,-0.0
1520440547092489133,,94,,1520440547,83047744,'',1,0,,-6.12323399574e-17,6.12323426293e-17,0.5,,0.0779320374131,0.0412734895945,0.212439328432,,0.0737056061625,0.0792675688863,5.35771465302,-1.57079637051,-0.0
1520440547201328829,,95,,1520440547,187794240,'',1,0,,-6.12323399574e-17,6.12323426293e-17,0.5,,0.0720564872026,0.0510646626353,0.20712351799,,0.135475292802,0.135023027658,5.127866745,-1.57079637051,-0.0
1520440547301361305,,96,,1520440547,281916224,'',1,0,,-6.12323399574e-17,6.12323426293e-17,0.5,,0.0709911510348,0.056198541075,0.190717816353,,0.204645603895,0.0641053169966,4.93791770935,-1.57079637051,-0.0
1520440547413771162,,97,,1520440547,382224192,'',1,0,,-6.12323399574e-17,6.12323426293e-17,0.5,,0.0680740624666,0.0622120462358,0.175499498844,,0.169271051884,0.0979268550873,4.96986198425,-1.57079637051,-0.0
1520440547502334623,,98,,1520440547,484039232,'',1,0,,-6.12323399574e-17,6.12323426293e-17,0.5,,0.0667853280902,0.0649785622954,0.16118350625,,0.175591096282,0.0387752316892,4.98512506485,-1.57079637051,-0.0
1520440547603792299,,99,,1520440547,582746944,'',1,0,,-6.12323399574e-17,6.12323426293e-17,0.5,,0.0642353668809,0.0654274895787,0.148581176996,,0.177507251501,0.0604240894318,4.9638915062,-1.57079637051,-0.0
1520440547697755422,,100,,1520440547,679738944,'',1,0,,-6.12323399574e-17,6.12323426293e-17,0.5,,0.0614637658,0.0657706409693,0.139228105545,,0.159836947918,0.0794607922435,5.0331325531,-1.57079637051,-0.0
1520440547802902985,,101,,1520440547,786207360,'',1,0,,-6.12323399574e-17,6.12323426293e-17,0.5,,0.0577024519444,0.0654612481594,0.130367785692,,0.156939476728,0.0685625076294,5.00409221649,-1.57079637051,-0.0
1520440547910570629,,102,,1520440547,887981440,'',1,0,,-6.12323399574e-17,6.12323426293e-17,0.5,,0.056658077985,0.0654281005263,0.122535198927,,0.165728464723,0.0594820268452,5.02387237549,-1.57079637051,-0.0
1520440548008335898,,103,,1520440547,992320896,'',1,0,,-6.12323399574e-17,6.12323426293e-17,0.5,,0.0510656572878,0.0637243315578,0.120059251785,,0.115276955068,0.0484891235828,5.11974620819,-1.57079637051,-0.0
1520440548166081599,,104,,1520440548,98433280,'',1,0,,-6.12323399574e-17,6.12323426293e-17,0.5,,0.0454954728484,0.061747379601,0.116878032684,,0.0954900979996,0.0494361482561,5.18907499313,-1.57079637051,-0.0
1520440548212727977,,105,,1520440548,192285056,'',1,0,,-6.12323399574e-17,6.12323426293e-17,0.5,,0.0391963236034,0.0576357468963,0.109942525625,,0.0879298001528,0.0572299808264,5.17774915695,-1.57079637051,-0.0
1520440548332720309,,106,,1520440548,302285056,'',1,0,,-6.12323399574e-17,6.12323426293e-17,0.5,,0.0363008752465,0.0529195740819,0.104388177395,,0.11846036464,0.026601947844,5.20823287964,-1.57079637051,-0.0
1520440548407147747,,107,,1520440548,396346624,'',1,0,,-6.12323399574e-17,6.12323426293e-17,0.5,,0.0338380970061,0.0477546304464,0.0917759537697,,0.124281048775,-0.0059826457873,5.15078926086,-1.57079637051,-0.0
1520440548502214688,,108,,1520440548,492726336,'',1,0,,-6.12323399574e-17,6.12323426293e-17,0.5,,0.0322144702077,0.0428340174258,0.0794098973274,,0.147603303194,0.034374859184,5.0481801033,-1.57079637051,-0.0
1520440548620656280,,109,,1520440548,591562752,'',1,0,,-6.12323399574e-17,6.12323426293e-17,0.5,,0.0321227386594,0.0384176895022,0.0680839121342,,0.141413375735,0.00281682237983,5.10861206055,-1.57079637051,-0.0
1520440548735924569,,110,,1520440548,695758912,'',1,0,,-6.12323399574e-17,6.12323426293e-17,0.5,,0.0317014716566,0.0348212271929,0.0599160194397,,0.151642352343,0.0538660995662,5.09300994873,-1.57079637051,-0.0
1520440548846017565,,111,,1520440548,810768320,'',1,0,,-6.12323399574e-17,6.12323426293e-17,0.5,,0.0321124047041,0.0314656943083,0.0544389486313,,0.155970111489,0.010014093481,5.11181974411,-1.57079637051,-0.0
1520440548924143175,,112,,1520440548,900478784,'',1,0,,-6.12323399574e-17,6.12323426293e-17,0.5,,0.033398848027,0.0283373594284,0.050775885582,,0.192643836141,0.02074707672,5.04859209061,-1.57079637051,-0.0
1520440549022628679,,113,,1520440549,8183488,'',1,0,,-6.12323399574e-17,6.12323426293e-17,0.5,,0.0323811583221,0.0265594217926,0.0529779195786,,0.053583368659,0.0245970170945,5.28564023972,-1.57079637051,-0.0
1520440549115280967,,114,,1520440549,93531712,'',1,0,,-6.12323399574e-17,6.12323426293e-17,0.5,,0.0309626739472,0.0192972701043,0.0537934601307,,0.0603190176189,-0.0532731600106,5.42281961441,-1.57079637051,-0.0
1520440549209256590,,115,,1520440549,193550208,'',1,0,,-6.12323399574e-17,6.12323426293e-17,0.5,,0.0315571837127,0.017228834331,0.050171226263,,0.087466172874,0.0523468330503,5.30879020691,-1.57079637051,-0.0
1520440549333733335,,116,,1520440549,297831488,'',1,0,,-6.12323399574e-17,6.12323426293e-17,0.5,,0.0328963063657,0.0166132077575,0.0469175577164,,0.180024877191,0.0709050744772,5.09885215759,-1.57079637051,-0.0
1520440549450680090,,117,,1520440549,400512576,'',1,0,,-6.12323399574e-17,6.12323426293e-17,0.5,,0.0366630963981,0.015865970403,0.0390291213989,,0.159622177482,0.0625517368317,5.0760269165,-1.57079637051,-0.0
1520440549512017023,,118,,1520440549,500512576,'',1,0,,-6.12323399574e-17,6.12323426293e-17,0.5,,0.0372569449246,0.0186720564961,0.0408612787724,,0.151062682271,0.10240149498,5.13902187347,-1.57079637051,-0.0
1520440549612021577,,119,,1520440549,596634176,'',1,0,,-6.12323399574e-17,6.12323426293e-17,0.5,,0.0465146154165,0.00848217308521,0.0309695899487,,0.17288659513,0.00930532068014,5.16571331024,-1.57079637051,-0.0
1520440549745247299,,120,,1520440549,692745344,'',1,0,,-6.12323399574e-17,6.12323426293e-17,0.5,,0.0534338876605,0.00220222189091,0.0277588367462,,0.161908507347,0.0134298112243,5.19875001907,-1.57079637051,-0.0
1520440549819001920,,121,,1520440549,817614920,'',1,0,,-6.12323399574e-17,6.12323426293e-17,0.5,,0.058102440089,0.000488680787384,0.028489023447,,0.221043497324,0.0457791052759,5.13093423843,-1.57079637051,-0.0
1520440549947675794,,122,,1520440549,905162916,'',1,0,,-6.12323399574e-17,6.12323426293e-17,0.5,,0.0609217435122,-0.0023943411652,0.0276205539703,,0.202283024788,0.0255823843181,5.10116481781,-1.57079637051,-0.0
1520440550050664083,,123,,1520440550,9232640,'',1,0,,-6.12323399574e-17,6.12323426293e-17,0.5,,0.0666910111904,-0.00719930091873,0.0344897806644,,0.160857394338,0.0235520806164,5.23970556259,-1.57079637051,-0.0
1520440550112130864,,124,,1520440550,110192192,'',1,0,,-6.12323399574e-17,6.12323426293e-17,0.5,,0.0693511068821,-0.00943848770112,0.0362263917923,,0.192911058664,0.00853736046702,5.17146635056,-1.57079637051,-0.0
1520440550212639688,,125,,1520440550,195485312,'',1,0,,-6.12323399574e-17,6.12323426293e-17,0.5,,0.0746324583888,-0.0126608135179,0.0430650115013,,0.21889282763,0.0314520969987,5.13622951508,-1.57079637051,-0.0
1520440550322108908,,126,,1520440550,305213184,'',1,0,,-6.12323399574e-17,6.12323426293e-17,0.5,,0.078209720552,-0.0142023945227,0.0499761104584,,0.197181344032,0.0897490531206,5.14889383316,-1.57079637051,-0.0
1520440550414574287,,127,,1520440550,405329295,'',1,0,,-6.12323399574e-17,6.12323426293e-17,0.5,,0.0812859460711,-0.0148502737284,0.0552434325218,,0.188513815403,0.0557803362608,5.18051195145,-1.57079637051,-0.0
1520440550522030133,,128,,1520440550,511553088,'',1,0,,-6.12323399574e-17,6.12323426293e-17,0.5,,0.0842268839478,-0.0150680076331,0.0619444847107,,0.212331518531,0.0216508600861,5.19717693329,-1.57079637051,-0.0
1520440550650211239,,129,,1520440550,596861056,'',1,0,,-6.12323399574e-17,6.12323426293e-17,0.5,,0.0857937410474,-0.01608806476,0.0682591199875,,0.14245814085,0.0413004122674,5.28670024872,-1.57079637051,-0.0
1520440550723465664,,130,,1520440550,709120256,'',1,0,,-6.12323399574e-17,6.12323426293e-17,0.5,,0.0859365910292,-0.0150678865612,0.0722585916519,,0.168614879251,0.0835918560624,5.18055200577,-1.57079637051,-0.0
1520440550833068374,,131,,1520440550,799498880,'',1,0,,-6.12323399574e-17,6.12323426293e-17,0.5,,0.0862966775894,-0.0140198729932,0.0726812183857,,0.198986977339,0.0759937390685,5.10280704498,-1.57079637051,-0.0
1520440550950710691,,132,,1520440550,904990272,'',1,0,,-6.12323399574e-17,6.12323426293e-17,0.5,,0.0888454020023,-0.0149428304285,0.0752265751362,,0.219043463469,0.0614129118621,5.17097949982,-1.57079637051,-0.0
1520440551034860259,,133,,1520440551,6421691,'',1,0,,-6.12323399574e-17,6.12323426293e-17,0.5,,0.0909115299582,-0.0129383504391,0.0764446556568,,0.185144498944,0.0722107887268,5.1598815918,-1.57079637051,-0.0
1520440551126667700,,134,,1520440551,112202368,'',1,0,,-6.12323399574e-17,6.12323426293e-17,0.5,,0.091647028923,-0.0131157180294,0.077007651329,,0.209544599056,0.0573089197278,5.12715530396,-1.57079637051,-0.0
1520440551246772694,,135,,1520440551,213596992,'',1,0,,-6.12323399574e-17,6.12323426293e-17,0.5,,0.0930792167783,-0.0151866050437,0.0785704553127,,0.197476893663,0.0859806537628,5.12245225906,-1.57079637051,-0.0
1520440551322750034,,136,,1520440551,312726592,'',1,0,,-6.12323399574e-17,6.12323426293e-17,0.5,,0.0931934565306,-0.0115397879854,0.0745977461338,,0.247793927789,0.0616074725986,5.02771425247,-1.57079637051,-0.0
1520440551421622941,,137,,1520440551,410504000,'',1,0,,-6.12323399574e-17,6.12323426293e-17,0.5,,0.0932791382074,-0.016136046499,0.0785202980042,,0.216058284044,-0.0101434867829,5.09280538559,-1.57079637051,-0.0
1520440551548520156,,138,,1520440551,505956928,'',1,0,,-6.12323399574e-17,6.12323426293e-17,0.5,,0.0918434262276,-0.0180816613138,0.0798520743847,,0.269852280617,-0.00492227030918,5.03386688232,-1.57079637051,-0.0
1520440551650730491,,139,,1520440551,611615808,'',1,0,,-6.12323399574e-17,6.12323426293e-17,0.5,,0.093633249402,-0.0178292673081,0.0728042721748,,0.246807545424,0.0551406554878,4.98928642273,-1.57079637051,-0.0
1520440551745370536,,140,,1520440551,711621440,'',1,0,,-6.12323399574e-17,6.12323426293e-17,0.5,,0.0942234918475,-0.0148902665824,0.066990852356,,0.213440909982,0.0672750249505,5.05654525757,-1.57079637051,-0.0
1520440551821946413,,141,,1520440551,808729984,'',1,0,,-6.12323399574e-17,6.12323426293e-17,0.5,,0.0942004173994,-0.0111063914374,0.0633476674557,,0.243227750063,0.0648012906313,5.05452489853,-1.57079637051,-0.0
1520440552016317602,,142,,1520440552,10525760,'',1,0,,-6.12323399574e-17,6.12323426293e-17,0.5,,0.0941635817289,-0.00527467345819,0.0546528100967,,0.230007335544,0.0316160358489,5.02040719986,-1.57079637051,-0.0
1520440552122367369,,143,,1520440552,111822976,'',1,0,,-6.12323399574e-17,6.12323426293e-17,0.5,,0.0942925140262,-0.00346371880732,0.0491875112057,,0.236448645592,0.0438677854836,4.98617696762,-1.57079637051,-0.0
1520440552252781220,,144,,1520440552,215028608,'',1,0,,-6.12323399574e-17,6.12323426293e-17,0.5,,0.0944376587868,-0.00107121956535,0.0421043634415,,0.239107370377,0.0692461356521,4.94274997711,-1.57079637051,-0.0
1520440552326516743,,145,,1520440552,312025216,'',1,0,,-6.12323399574e-17,6.12323426293e-17,0.5,,0.0940781310201,0.00160171999596,0.0365948677063,,0.208524346352,0.063841290772,5.00446796417,-1.57079637051,-0.0
1520440552453235143,,146,,1520440552,411474816,'',1,0,,-6.12323399574e-17,6.12323426293e-17,0.5,,0.093650251627,0.00450756028295,0.0314284563065,,0.233974769711,0.0382093936205,4.95764017105,-1.57079637051,-0.0
1520440552544999705,,147,,1520440552,509366912,'',1,0,,-6.12323399574e-17,6.12323426293e-17,0.5,,0.0920468941331,0.00600376259536,0.0243247747421,,0.206057190895,0.0519726760685,4.88504457474,-1.57079637051,-0.0
1520440552629087520,,148,,1520440552,612877248,'',1,0,,-6.12323399574e-17,6.12323426293e-17,0.5,,0.0873924642801,0.00785543583333,0.0192540585995,,0.128940403461,0.0680506974459,5.00616168976,-1.57079637051,-0.0
1520440552747874134,,149,,1520440552,715372224,'',1,0,,-6.12323399574e-17,6.12323426293e-17,0.5,,0.0801193714142,0.00939627829939,0.0176853239536,,0.152827054262,0.0514453984797,5.01269483566,-1.57079637051,-0.0
1520440552851730937,,150,,1520440552,820755392,'',1,0,,-6.12323399574e-17,6.12323426293e-17,0.5,,0.0726883783937,0.0109844757244,0.0135377347469,,0.155106052756,0.0477346330881,4.90745592117,-1.57079637051,-0.0
1520440552931664539,,151,,1520440552,906035563,'',1,0,,-6.12323399574e-17,6.12323426293e-17,0.5,,0.0657244622707,0.0123026622459,0.00539192557335,,0.171833887696,0.0861043035984,4.81084632874,-1.57079637051,-0.0
1520440553059775921,,152,,1520440553,6187456,'',1,0,,-6.12323399574e-17,6.12323426293e-17,0.5,,0.0590239651501,0.0149013120681,-0.00470691919327,,0.15787628293,0.0747550278902,4.79878139496,-1.57079637051,-0.0
1520440553223757614,,153,,1520440553,215523869,'',1,0,,-6.12323399574e-17,6.12323426293e-17,0.5,,-0.0941743850708,0.00440091453493,0.23805591464,,-0.017760515213,0.0287718903273,5.39055776596,-1.57079637051,-0.0
1520440553320216906,,154,,1520440553,308080130,'',1,0,,-6.12323399574e-17,6.12323426293e-17,0.5,,-0.110186606646,0.00222512381151,0.248411238194,,-0.0154459001496,0.0270149428397,5.34978818893,-1.57079637051,-0.0
1520440553448826799,,155,,1520440553,413892544,'',1,0,,-6.12323399574e-17,6.12323426293e-17,0.5,,-0.118497535586,-0.00342416809872,0.236160188913,,0.0549172647297,-0.0852889791131,5.2326002121,-1.57079637051,-0.0
1520440553537062371,,156,,1520440553,500443661,'',1,0,,-6.12323399574e-17,6.12323426293e-17,0.5,,-0.120668940246,-0.00992435868829,0.220082581043,,0.108776800334,-0.0443514809012,5.09906625748,-1.57079637051,-0.0
1520440553623059690,,157,,1520440553,604363200,'',1,0,,-6.12323399574e-17,6.12323426293e-17,0.5,,-0.113014221191,-0.014144429937,0.179954081774,,0.105626456439,-0.00264515099116,5.02103090286,-1.57079637051,-0.0
1520440553723779837,,158,,1520440553,710310656,'',1,0,,-6.12323399574e-17,6.12323426293e-17,0.5,,-0.103935167193,-0.0192787833512,0.146948575974,,0.128075927496,-0.0200231280178,4.96334218979,-1.57079637051,-0.0
1520440553825942762,,159,,1520440553,806897600,'',1,0,,-6.12323399574e-17,6.12323426293e-17,0.5,,-0.0920798331499,-0.0243324693292,0.116691201925,,0.151255965233,-0.00649524154142,4.91766929626,-1.57079637051,-0.0
1520440553926089135,,160,,1520440553,906890240,'',1,0,,-6.12323399574e-17,6.12323426293e-17,0.5,,-0.0794524922967,-0.0287104509771,0.0909855365753,,0.148869007826,0.0087932664901,4.92312860489,-1.57079637051,-0.0
1520440554022043929,,161,,1520440554,10809792,'',1,0,,-6.12323399574e-17,6.12323426293e-17,0.5,,-0.0653311908245,-0.0328428670764,0.0713359117508,,0.175894826651,-0.0187362544239,5.05016613007,-1.57079637051,-0.0
1520440554139111374,,162,,1520440554,117920064,'',1,0,,-6.12323399574e-17,6.12323426293e-17,0.5,,-0.0525464117527,-0.0360492281616,0.0628810226917,,0.171231642365,0.0102666886523,5.15515565872,-1.57079637051,-0.0
1520440554245717228,,163,,1520440554,220222592,'',1,0,,-6.12323399574e-17,6.12323426293e-17,0.5,,-0.0381926521659,-0.0376555286348,0.0472917556763,,0.154343336821,0.0464196130633,5.16873025894,-1.57079637051,-0.0
1520440554332653577,,164,,1520440554,318172544,'',1,0,,-6.12323399574e-17,6.12323426293e-17,0.5,,-0.0199257489294,-0.0397907420993,0.0315796732903,,0.189103484154,0.00991009362042,5.12902069092,-1.57079637051,-0.0
1520440554444228524,,165,,1520440554,416744832,'',1,0,,-6.12323399574e-17,6.12323426293e-17,0.5,,-0.00581813137978,-0.0416114889085,0.0220514535904,,0.233502164483,-0.0110435960814,5.12417602539,-1.57079637051,-0.0
1520440554552372479,,166,,1520440554,528318087,'',1,0,,-6.12323399574e-17,6.12323426293e-17,0.5,,0.00315842567943,-0.0402099601924,0.0252469778061,,0.23844756186,0.00025194947375,5.19966840744,-1.57079637051,-0.0
1520440554635485087,,167,,1520440554,631163008,'',1,0,,-6.12323399574e-17,6.12323426293e-17,0.5,,0.0137045271695,-0.0437519140542,0.0135760307312,,0.248854756355,-0.00437565566972,5.21376991272,-1.57079637051,-0.0
1520440554748954591,,168,,1520440554,727170780,'',1,0,,-6.12323399574e-17,6.12323426293e-17,0.5,,0.0404277071357,-0.0467037595809,-0.00206410884857,,0.265283554792,-0.00513341277838,5.16189336777,-1.57079637051,-0.0
1520440554853470280,,169,,1520440554,827316480,'',1,0,,-6.12323399574e-17,6.12323426293e-17,0.5,,0.0543276071548,-0.0464296340942,-0.00935560464859,,0.316385954618,-0.0178224034607,5.08517026901,-1.57079637051,-0.0
1520440554972124578,,170,,1520440554,928672256,'',1,0,,-6.12323399574e-17,6.12323426293e-17,0.5,,0.0647821128368,-0.0468036234379,-0.0107802152634,,0.276872009039,-0.0313173085451,5.10102653503,-1.57079637051,-0.0
1520440555043610054,,171,,1520440555,25407808,'',1,0,,-6.12323399574e-17,6.12323426293e-17,0.5,,0.0747224763036,-0.0450700260699,-0.0141494274139,,0.260456889868,-0.0264144334942,5.18661594391,-1.57079637051,-0.0
1520440555146480985,,172,,1520440555,126131520,'',1,0,,-6.12323399574e-17,6.12323426293e-17,0.5,,0.0842702016234,-0.0419650971889,-0.0163617134094,,0.256687611341,-0.0409084782004,5.17447328568,-1.57079637051,-0.0
1520440555242694909,,173,,1520440555,227277056,'',1,0,,-6.12323399574e-17,6.12323426293e-17,0.5,,0.0919782593846,-0.0367648005486,-0.0173017978668,,0.300014406443,0.00564548373222,5.13345479965,-1.57079637051,-0.0
1520440555343794375,,174,,1520440555,327159104,'',1,0,,-6.12323399574e-17,6.12323426293e-17,0.5,,0.0983556285501,-0.0311040189117,-0.0150640010834,,0.293781757355,0.00826547667384,5.18409252167,-1.57079637051,-0.0
1520440555546114272,,175,,1520440555,532794944,'',1,0,,-6.12323399574e-17,6.12323426293e-17,0.5,,0.104462057352,-0.0201908946037,-0.00537043809891,,0.271174997091,-0.0179814919829,5.19066858292,-1.57079637051,-0.0
1520440555645736076,,176,,1520440555,644308928,'',1,0,,-6.12323399574e-17,6.12323426293e-17,0.5,,0.10533811897,-0.0125456284732,-0.00504529476166,,0.269436836243,0.0673038512468,5.11699819565,-1.57079637051,-0.0
1520440555750549695,,177,,1520440555,744681152,'',1,0,,-6.12323399574e-17,6.12323426293e-17,0.5,,0.105630904436,6.04290871706e-05,-0.00245690345764,,0.25452658534,0.0413421206176,5.06914329529,-1.57079637051,-0.0
1520440555851923415,,178,,1520440555,840613824,'',1,0,,-6.12323399574e-17,6.12323426293e-17,0.5,,0.104588590562,0.0106121087447,0.00272390246391,,0.256386369467,0.0406756289303,5.16321325302,-1.57079637051,-0.0
1520440555953230359,,179,,1520440555,939839680,'',1,0,,-6.12323399574e-17,6.12323426293e-17,0.5,,0.101705245674,0.0221086554229,0.00939944386482,,0.255040615797,0.114950358868,5.13741636276,-1.57079637051,-0.0
1520440556055150441,,180,,1520440556,39435968,'',1,0,,-6.12323399574e-17,6.12323426293e-17,0.5,,0.0975100398064,0.0308517683297,0.016812980175,,0.18997824192,0.0868362337351,5.26502799988,-1.57079637051,-0.0
1520440556169170142,,181,,1520440556,139643584,'',1,0,,-6.12323399574e-17,6.12323426293e-17,0.5,,0.0923675075173,0.0399657338858,0.0234096944332,,0.20162512362,0.100913055241,5.23874521255,-1.57079637051,-0.0
1520440556251703992,,182,,1520440556,242157312,'',1,0,,-6.12323399574e-17,6.12323426293e-17,0.5,,0.0863738059998,0.0500041879714,0.0281660556793,,0.206492692232,0.146213293076,5.14920377731,-1.57079637051,-0.0
1520440556377680400,,183,,1520440556,338208960,'',1,0,,-6.12323399574e-17,6.12323426293e-17,0.5,,0.0819062665105,0.0567418299615,0.030693590641,,0.157228514552,0.130288183689,5.21325206757,-1.57079637051,-0.0
1520440556476493388,,184,,1520440556,451718777,'',1,0,,-6.12323399574e-17,6.12323426293e-17,0.5,,0.0772728696465,0.0610695146024,0.0328668057919,,0.192038804293,0.111698314548,5.16382789612,-1.57079637051,-0.0
1520440556550225827,,185,,1520440556,548990720,'',1,0,,-6.12323399574e-17,6.12323426293e-17,0.5,,0.0731304585934,0.061847306788,0.0377905666828,,0.119624480605,0.0899289101362,5.30933856964,-1.57079637051,-0.0
1520440556651655532,,186,,1520440556,631824997,'',1,0,,-6.12323399574e-17,6.12323426293e-17,0.5,,0.0616564750671,0.0662537291646,0.0425328016281,,0.115842744708,0.0847413390875,5.34431838989,-1.57079637051,-0.0
1520440556779842363,,187,,1520440556,747057382,'',1,0,,-6.12323399574e-17,6.12323426293e-17,0.5,,0.0498135462403,0.0685889199376,0.0474723279476,,0.144034579396,0.0550127066672,5.28338289261,-1.57079637051,-0.0
1520440556898490608,,188,,1520440556,846844928,'',1,0,,-6.12323399574e-17,6.12323426293e-17,0.5,,0.0500150769949,0.066585496068,0.0399582386017,,0.191858097911,0.0797515586019,5.21750831604,-1.57079637051,-0.0
1520440556976366192,,189,,1520440556,948532288,'',1,0,,-6.12323399574e-17,6.12323426293e-17,0.5,,0.0447804145515,0.0651746615767,0.043143004179,,0.195456907153,0.0626112893224,5.23701238632,-1.57079637051,-0.0
1520440557078650097,,190,,1520440557,64411840,'',1,0,,-6.12323399574e-17,6.12323426293e-17,0.5,,0.0396694615483,0.0628987625241,0.0475932359695,,0.185096427798,0.0807095021009,5.20062875748,-1.57079637051,-0.0
1520440557176675717,,191,,1520440557,150604544,'',1,0,,-6.12323399574e-17,6.12323426293e-17,0.5,,0.0365145616233,0.0608778744936,0.0496701300144,,0.182314395905,0.0912476480007,5.21929931641,-1.57079637051,-0.0
1520440557262613963,,192,,1520440557,250700800,'',1,0,,-6.12323399574e-17,6.12323426293e-17,0.5,,0.0339087285101,0.0577086061239,0.0548516511917,,0.202205464244,0.0194184277207,5.31399393082,-1.57079637051,-0.0
1520440557377757971,,193,,1520440557,350623552,'',1,0,,-6.12323399574e-17,6.12323426293e-17,0.5,,0.0313926152885,0.0530031919479,0.0620431303978,,0.212382823229,0.0155988074839,5.2641620636,-1.57079637051,-0.0
1520440557451916063,,194,,1520440557,447533120,'',1,0,,-6.12323399574e-17,6.12323426293e-17,0.5,,0.0297539830208,0.046130862087,0.0667815506458,,0.164087623358,0.0415620431304,5.2828207016,-1.57079637051,-0.0
1520440557562864889,,195,,1520440557,553629696,'',1,0,,-6.12323399574e-17,6.12323426293e-17,0.5,,0.0265455264598,0.0395102836192,0.0720291733742,,0.175958305597,0.0149092087522,5.283639431,-1.57079637051,-0.0
1520440557689507551,,196,,1520440557,656416719,'',1,0,,-6.12323399574e-17,6.12323426293e-17,0.5,,0.023142023012,0.0351658128202,0.0753194689751,,0.148861989379,0.077042542398,5.2578587532,-1.57079637051,-0.0
1520440557763127558,,197,,1520440557,744504106,'',1,0,,-6.12323399574e-17,6.12323426293e-17,0.5,,0.0191270001233,0.031156392768,0.0776494443417,,0.12288081646,0.024484757334,5.33726406097,-1.57079637051,-0.0
1520440557891909840,,198,,1520440557,857983680,'',1,0,,-6.12323399574e-17,6.12323426293e-17,0.5,,0.014249204658,0.0254825912416,0.0825204253197,,0.173045352101,-0.0335817411542,5.32435750961,-1.57079637051,-0.0
1520440557978786452,,199,,1520440557,945914231,'',1,0,,-6.12323399574e-17,6.12323426293e-17,0.5,,0.00991476792842,0.0184907242656,0.0875526964664,,0.176412507892,-0.00301819248125,5.29235839844,-1.57079637051,-0.0
1520440558064903363,,200,,1520440558,61867616,'',1,0,,-6.12323399574e-17,6.12323426293e-17,0.5,,0.00709749246016,0.01015320234,0.0891982316971,,0.17323589325,-0.0509550757706,5.2817029953,-1.57079637051,-0.0
1520440558172837916,,201,,1520440558,150710471,'',1,0,,-6.12323399574e-17,6.12323426293e-17,0.5,,0.00523879751563,0.00280926143751,0.0908903479576,,0.182200461626,0.00976080074906,5.28745317459,-1.57079637051,-0.0
1520440558282466744,,202,,1520440558,251250432,'',1,0,,-6.12323399574e-17,6.12323426293e-17,0.5,,0.00483124237508,-0.00419839518145,0.0926457941532,,0.172906905413,-0.0141188595444,5.32442998886,-1.57079637051,-0.0
1520440558370789279,,203,,1520440558,349825792,'',1,0,,-6.12323399574e-17,6.12323426293e-17,0.5,,0.00423703808337,-0.00897029135376,0.094360679388,,0.180216223001,-0.0124863013625,5.30282020569,-1.57079637051,-0.0
1520440558463410801,,204,,1520440558,451629807,'',1,0,,-6.12323399574e-17,6.12323426293e-17,0.5,,0.00351178878918,-0.011581630446,0.0953515470028,,0.166196107864,0.0473871827126,5.29701852798,-1.57079637051,-0.0
1520440558571959616,,205,,1520440558,551533296,'',1,0,,-6.12323399574e-17,6.12323426293e-17,0.5,,0.0204351656139,-0.0562469102442,-0.222162723541,,0.191064044833,-0.101863265038,4.50208711624,-1.57079637051,-0.0
1520440558664193487,,206,,1520440558,643446400,'',1,0,,-6.12323399574e-17,6.12323426293e-17,0.5,,0.0235654003918,-0.0652235746384,-0.246348500252,,0.197062686086,-0.104631133378,4.70116853714,-1.57079637051,-0.0
1520440558765908606,,207,,1520440558,741707904,'',1,0,,-6.12323399574e-17,6.12323426293e-17,0.5,,0.0261556841433,-0.0721364989877,-0.244485020638,,0.238559827209,-0.0694490820169,4.92405939102,-1.57079637051,-0.0
1520440558863446625,,208,,1520440558,851084288,'',1,0,,-6.12323399574e-17,6.12323426293e-17,0.5,,0.0279670357704,-0.0764779523015,-0.22628235817,,0.189901143312,-0.00857518520206,5.0718755722,-1.57079637051,-0.0
1520440558977520810,,209,,1520440558,936651136,'',1,0,,-6.12323399574e-17,6.12323426293e-17,0.5,,0.0286247152835,-0.0794650539756,-0.209038972855,,0.195908010006,0.00421297829598,5.12036514282,-1.57079637051,-0.0
1520440559077106690,,210,,1520440559,63266171,'',1,0,,-6.12323399574e-17,6.12323426293e-17,0.5,,0.0286533106118,-0.0796230360866,-0.184853494167,,0.214314118028,-0.000371159985662,5.20488834381,-1.57079637051,-0.0
1520440559191910111,,211,,1520440559,162282048,'',1,0,,-6.12323399574e-17,6.12323426293e-17,0.5,,0.0295004211366,-0.0795302018523,-0.163804888725,,0.205147400498,0.0139853190631,5.24623346329,-1.57079637051,-0.0
1520440559269612526,,212,,1520440559,254013056,'',1,0,,-6.12323399574e-17,6.12323426293e-17,0.5,,0.0307159963995,-0.0843151211739,-0.134354412556,,0.23504717648,-0.0425691492856,5.27549648285,-1.57079637051,-0.0
1520440559357329622,,213,,1520440559,349333376,'',1,0,,-6.12323399574e-17,6.12323426293e-17,0.5,,0.0321358665824,-0.088262476027,-0.108189284801,,0.188368171453,-0.0233546290547,5.381336689,-1.57079637051,-0.0
1520440559465956655,,214,,1520440559,446712960,'',1,0,,-6.12323399574e-17,6.12323426293e-17,0.5,,0.0345477610826,-0.0918451622128,-0.0857557058334,,0.256845355034,-0.0722404122353,5.26514053345,-1.57079637051,-0.0
1520440559571201488,,215,,1520440559,554046784,'',1,0,,-6.12323399574e-17,6.12323426293e-17,0.5,,0.0365782752633,-0.09473349154,-0.0650932788849,,0.231994301081,-0.0187595076859,5.19152259827,-1.57079637051,-0.0
1520440559679944669,,216,,1520440559,657184576,'',1,0,,-6.12323399574e-17,6.12323426293e-17,0.5,,0.0370398573577,-0.097811460495,-0.0471419692039,,0.219534382224,-0.0558665804565,5.27444171906,-1.57079637051,-0.0
1520440559773974868,,217,,1520440559,750490048,'',1,0,,-6.12323399574e-17,6.12323426293e-17,0.5,,0.0385063327849,-0.0966862216592,-0.0356960296631,,0.254784226418,-0.00463755661622,5.21675634384,-1.57079637051,-0.0
1520440559876960740,,218,,1520440559,850725056,'',1,0,,-6.12323399574e-17,6.12323426293e-17,0.5,,0.0391020141542,-0.0980347171426,-0.0272796154022,,0.212005764246,-0.0652435868979,5.28744459152,-1.57079637051,-0.0
1520440559962281721,,219,,1520440559,952589248,'',1,0,,-6.12323399574e-17,6.12323426293e-17,0.5,,0.0393441580236,-0.0953125357628,-0.0163348913193,,0.223648712039,-0.0597907491028,5.26321983337,-1.57079637051,-0.0
1520440560062397674,,220,,1520440560,57797184,'',1,0,,-6.12323399574e-17,6.12323426293e-17,0.5,,0.0416567400098,-0.0929760560393,0.00348520278931,,0.235826477408,-0.00870098453015,5.24036836624,-1.57079637051,-0.0
1520440560181319452,,221,,1520440560,145638592,'',1,0,,-6.12323399574e-17,6.12323426293e-17,0.5,,0.0424910001457,-0.0899685993791,0.0104506611824,,0.213118985295,-0.0199201218784,5.25751304626,-1.57079637051,-0.0
1520440560270475404,,222,,1520440560,254933888,'',1,0,,-6.12323399574e-17,6.12323426293e-17,0.5,,0.0432451665401,-0.0846724063158,0.0158473849297,,0.231311127543,-0.017365494743,5.25417518616,-1.57079637051,-0.0
1520440560383684315,,223,,1520440560,355789888,'',1,0,,-6.12323399574e-17,6.12323426293e-17,0.5,,0.042755972594,-0.0791731998324,0.0208409428596,,0.239033073187,0.0314979888499,5.21628856659,-1.57079637051,-0.0
1520440560462385259,,224,,1520440560,445422784,'',1,0,,-6.12323399574e-17,6.12323426293e-17,0.5,,0.0442454777658,-0.0746647194028,0.0185068845749,,0.166251674294,0.0190825629979,5.25355386734,-1.57079637051,-0.0
1520440560566585417,,225,,1520440560,542867904,'',1,0,,-6.12323399574e-17,6.12323426293e-17,0.5,,0.0432993881404,-0.0658034682274,0.0191983580589,,0.213900312781,0.0281375087798,5.18804168701,-1.57079637051,-0.0
1520440560676607363,,226,,1520440560,654672256,'',1,0,,-6.12323399574e-17,6.12323426293e-17,0.5,,0.0464351922274,-0.0601544678211,0.0132123827934,,0.220245435834,0.016497399658,5.14650297165,-1.57079637051,-0.0
1520440560776594425,,227,,1520440560,760191360,'',1,0,,-6.12323399574e-17,6.12323426293e-17,0.5,,0.0454790778458,-0.053594622761,0.0123472213745,,0.223015502095,0.0397024340928,5.14611339569,-1.57079637051,-0.0
1520440560897834144,,228,,1520440560,845798656,'',1,0,,-6.12323399574e-17,6.12323426293e-17,0.5,,0.0472775921226,-0.0497080720961,0.0100789070129,,0.212160512805,0.00960289407521,5.22153806686,-1.57079637051,-0.0
1520440560961863631,,229,,1520440560,940039680,'',1,0,,-6.12323399574e-17,6.12323426293e-17,0.5,,0.0487998314202,-0.04415762797,0.00886011123657,,0.202356204391,0.0384586490691,5.29030132294,-1.57079637051,-0.0
1520440561094981707,,230,,1520440561,41379328,'',1,0,,-6.12323399574e-17,6.12323426293e-17,0.5,,0.0506275445223,-0.0398205704987,0.00596162676811,,0.207656607032,0.0080404188484,5.29575443268,-1.57079637051,-0.0
1520440561174510879,,231,,1520440561,143497728,'',1,0,,-6.12323399574e-17,6.12323426293e-17,0.5,,0.0495856516063,-0.0362461730838,0.0074422955513,,0.227085143328,0.0602300055325,5.24572753906,-1.57079637051,-0.0
1520440561291753246,,232,,1520440561,258552192,'',1,0,,-6.12323399574e-17,6.12323426293e-17,0.5,,0.0535510629416,-0.0327310599387,-0.000219583511353,,0.218876838684,0.0261655524373,5.26207399368,-1.57079637051,-0.0
1520440561377282169,,233,,1520440561,348495332,'',1,0,,-6.12323399574e-17,6.12323426293e-17,0.5,,0.0548054240644,-0.0313222445548,-0.0037853717804,,0.258997946978,0.0321722142398,5.21782016754,-1.57079637051,-0.0
1520440561477755468,,234,,1520440561,465018212,'',1,0,,-6.12323399574e-17,6.12323426293e-17,0.5,,0.0568713657558,-0.0299010612071,-0.00627082586288,,0.241861596704,-0.00891826674342,5.22667455673,-1.57079637051,-0.0
1520440561595076704,,235,,1520440561,563987072,'',1,0,,-6.12323399574e-17,6.12323426293e-17,0.5,,0.0563967712224,-0.0263368040323,-0.00022828578949,,0.272988468409,0.0172372180969,5.20672035217,-1.57079637051,-0.0
1520440561679506169,,236,,1520440561,634006375,'',1,0,,-6.12323399574e-17,6.12323426293e-17,0.5,,0.0575730092824,-0.0249065756798,0.0035200715065,,0.261961996555,-0.0366220697761,5.2242398262,-1.57079637051,-0.0
1520440561777748635,,237,,1520440561,762326305,'',1,0,,-6.12323399574e-17,6.12323426293e-17,0.5,,0.0577367767692,-0.0243245530874,0.0108255147934,,0.276730656624,-0.0319185182452,5.2670006752,-1.57079637051,-0.0
1520440561877000970,,238,,1520440561,863291072,'',1,0,,-6.12323399574e-17,6.12323426293e-17,0.5,,0.058307133615,-0.0256857387722,0.0175860822201,,0.24617575109,-0.0184366833419,5.26684379578,-1.57079637051,-0.0
1520440561971541323,,239,,1520440561,964731584,'',1,0,,-6.12323399574e-17,6.12323426293e-17,0.5,,0.0574606098235,-0.0265616197139,0.0245572924614,,0.259090602398,-0.0115962531418,5.2356338501,-1.57079637051,-0.0
1520440562084521268,,240,,1520440562,53860669,'',1,0,,-6.12323399574e-17,6.12323426293e-17,0.5,,0.0576146952808,-0.0283734202385,0.0276261270046,,0.237428709865,-0.0412330031395,5.26271772385,-1.57079637051,-0.0
1520440562173052450,,241,,1520440562,152786112,'',1,0,,-6.12323399574e-17,6.12323426293e-17,0.5,,0.0566920302808,-0.0280992444605,0.0308773517609,,0.260787039995,0.0275929477066,5.22799968719,-1.57079637051,-0.0
1520440562266878021,,242,,1520440562,255017408,'',1,0,,-6.12323399574e-17,6.12323426293e-17,0.5,,0.055893316865,-0.0273492801934,0.0337410569191,,0.229988634586,0.000214880303247,5.25302457809,-1.57079637051,-0.0
1520440562368564120,,243,,1520440562,359639232,'',1,0,,-6.12323399574e-17,6.12323426293e-17,0.5,,0.0540125742555,-0.0255838204175,0.0369799733162,,0.257639855146,0.012872970663,5.20746994019,-1.57079637051,-0.0
1520440562471406598,,244,,1520440562,438060690,'',1,0,,-6.12323399574e-17,6.12323426293e-17,0.5,,0.0529652051628,-0.0247723069042,0.0381446480751,,0.203601643443,-0.00936250388622,5.26116943359,-1.57079637051,-0.0
1520440562572753162,,245,,1520440562,556453636,'',1,0,,-6.12323399574e-17,6.12323426293e-17,0.5,,0.0502982474864,-0.0229485761374,0.0403630435467,,0.234196573496,0.00172858941369,5.25569343567,-1.57079637051,-0.0
1520440562676164239,,246,,1520440562,658264000,'',1,0,,-6.12323399574e-17,6.12323426293e-17,0.5,,0.0468579642475,-0.0206925515085,0.0434681773186,,0.214056164026,0.0366098843515,5.23650741577,-1.57079637051,-0.0
1520440562777190527,,247,,1520440562,759822592,'',1,0,,-6.12323399574e-17,6.12323426293e-17,0.5,,0.0435088276863,-0.0182095076889,0.0436801314354,,0.21679148078,-0.00793641991913,5.21456623077,-1.57079637051,-0.0
1520440562878149994,,248,,1520440562,856645056,'',1,0,,-6.12323399574e-17,6.12323426293e-17,0.5,,0.0737627446651,-0.0426495708525,-0.111667513847,,0.288675814867,-0.00430052867159,4.7357711792,-1.57079637051,-0.0
1520440563001087136,,249,,1520440562,960827840,'',1,0,,-6.12323399574e-17,6.12323426293e-17,0.5,,0.0732882842422,-0.0431809611619,-0.122169971466,,0.206369638443,-0.00101538759191,5.02331113815,-1.57079637051,-0.0
1520440563092694800,,250,,1520440563,61462464,'',1,0,,-6.12323399574e-17,6.12323426293e-17,0.5,,0.0727979615331,-0.0468778572977,-0.113414287567,,0.230980038643,-0.0177291799337,5.17273950577,-1.57079637051,-0.0
1520440563193839125,,251,,1520440563,149643781,'',1,0,,-6.12323399574e-17,6.12323426293e-17,0.5,,0.0694241523743,-0.0473277717829,-0.100310206413,,0.241935446858,-0.0430376380682,5.19964885712,-1.57079637051,-0.0
1520440563282355050,,252,,1520440563,248025280,'',1,0,,-6.12323399574e-17,6.12323426293e-17,0.5,,0.0657603144646,-0.0474980250001,-0.0852513313293,,0.227952823043,-0.0481839030981,5.29116773605,-1.57079637051,-0.0
1520440563391664087,,253,,1520440563,361791672,'',1,0,,-6.12323399574e-17,6.12323426293e-17,0.5,,0.0609566606581,-0.0469647943974,-0.0688596963882,,0.217586115003,0.0148057322949,5.26837110519,-1.57079637051,-0.0
1520440563475452297,,254,,1520440563,450255771,'',1,0,,-6.12323399574e-17,6.12323426293e-17,0.5,,0.0563702955842,-0.0447757877409,-0.0565305948257,,0.21165664494,0.0195617545396,5.23684263229,-1.57079637051,-0.0
1520440563572308514,,255,,1520440563,551920896,'',1,0,,-6.12323399574e-17,6.12323426293e-17,0.5,,0.0509484149516,-0.0411261953413,-0.0448532104492,,0.225930482149,0.00111025024671,5.25513648987,-1.57079637051,-0.0
1520440563671795507,,256,,1520440563,650646528,'',1,0,,-6.12323399574e-17,6.12323426293e-17,0.5,,0.0454748719931,-0.0372194722295,-0.0344108343124,,0.187433481216,0.0335947088897,5.25162553787,-1.57079637051,-0.0
1520440563776344214,,257,,1520440563,753847808,'',1,0,,-6.12323399574e-17,6.12323426293e-17,0.5,,0.0402963347733,-0.0320427082479,-0.0289409160614,,0.239698767662,-0.00295491633005,5.09045648575,-1.57079637051,-0.0
1520440563870769359,,258,,1520440563,857480960,'',1,0,,-6.12323399574e-17,6.12323426293e-17,0.5,,0.0367482155561,-0.0272649489343,-0.0280047655106,,0.235407292843,0.0465415343642,5.07735776901,-1.57079637051,-0.0
1520440563971971100,,259,,1520440563,956931840,'',1,0,,-6.12323399574e-17,6.12323426293e-17,0.5,,0.0335367918015,-0.0223315823823,-0.0255255699158,,0.172665700316,0.027866140008,5.22491979599,-1.57079637051,-0.0
1520440564067067327,,260,,1520440564,62069760,'',1,0,,-6.12323399574e-17,6.12323426293e-17,0.5,,0.0675505772233,-0.0500254519284,-3.35574150085e-05,,0.299062788486,-0.0587360858917,5.29585123062,-1.57079637051,-0.0
1520440564174046820,,261,,1520440564,157580032,'',1,0,,-6.12323399574e-17,6.12323426293e-17,0.5,,0.0817258134484,-0.0608428604901,0.0202380716801,,0.284625917673,-0.00460243178532,5.35896587372,-1.57079637051,-0.0
1520440564276708392,,262,,1520440564,266602112,'',1,0,,-6.12323399574e-17,6.12323426293e-17,0.5,,0.0857054591179,-0.0624703727663,0.0312724709511,,0.275253593922,-0.0119986273348,5.27710103989,-1.57079637051,-0.0
1520440564372034564,,263,,1520440564,358437632,'',1,0,,-6.12323399574e-17,6.12323426293e-17,0.5,,0.0864480659366,-0.0611611306667,0.0374800562859,,0.248192623258,0.0589017756283,5.22533369064,-1.57079637051,-0.0
1520440564477565564,,264,,1520440564,458046976,'',1,0,,-6.12323399574e-17,6.12323426293e-17,0.5,,0.0888437181711,-0.0608544237912,0.0426807701588,,0.22951425612,0.0909120813012,5.15390014648,-1.57079637051,-0.0
1520440564588626485,,265,,1520440564,562027776,'',1,0,,-6.12323399574e-17,6.12323426293e-17,0.5,,0.0882916226983,-0.0570825189352,0.0419756770134,,0.260065972805,0.0570971816778,5.06225967407,-1.57079637051,-0.0
1520440564683977729,,266,,1520440564,657802048,'',1,0,,-6.12323399574e-17,6.12323426293e-17,0.5,,0.0892325863242,-0.0579790435731,0.045862942934,,0.243163213134,0.0816987529397,5.12238168716,-1.57079637051,-0.0
1520440564816855367,,267,,1520440564,771414464,'',1,0,,-6.12323399574e-17,6.12323426293e-17,0.5,,0.0834669992328,-0.0495000779629,0.0455222427845,,0.184178397059,0.058061607182,5.23527860641,-1.57079637051,-0.0
1520440564898020253,,268,,1520440564,860496578,'',1,0,,-6.12323399574e-17,6.12323426293e-17,0.5,,0.0898469910026,-0.058389544487,0.0566479563713,,0.29413023591,0.00359647651203,5.17364597321,-1.57079637051,-0.0
1520440564973137225,,269,,1520440564,952303424,'',1,0,,-6.12323399574e-17,6.12323426293e-17,0.5,,0.0902170389891,-0.0594697743654,0.0621691942215,,0.24627289176,0.0661493167281,5.16868495941,-1.57079637051,-0.0
1520440565076241278,,270,,1520440565,57839680,'',1,0,,-6.12323399574e-17,6.12323426293e-17,0.5,,0.0879199951887,-0.055149000138,0.0593889951706,,0.244500085711,0.0897227525711,5.07976865768,-1.57079637051,-0.0
1520440565194030007,,271,,1520440565,156627776,'',1,0,,-6.12323399574e-17,6.12323426293e-17,0.5,,0.0888369306922,-0.0589463673532,0.0648631155491,,0.245190382004,0.0606286115944,5.06333732605,-1.57079637051,-0.0
1520440565280988518,,272,,1520440565,252126784,'',1,0,,-6.12323399574e-17,6.12323426293e-17,0.5,,0.0872819125652,-0.0569368600845,0.0640580058098,,0.251465767622,0.0502390377223,5.07769393921,-1.57079637051,-0.0
1520440565376367343,,273,,1520440565,363971223,'',1,0,,-6.12323399574e-17,6.12323426293e-17,0.5,,0.0832645967603,-0.0628911480308,0.0775684416294,,0.199071407318,0.0576354041696,5.13927555084,-1.57079637051,-0.0
1520440565477034007,,274,,1520440565,459904576,'',1,0,,-6.12323399574e-17,6.12323426293e-17,0.5,,0.0787068083882,-0.0649243742228,0.0845234692097,,0.199453160167,-0.000446459423984,5.19362926483,-1.57079637051,-0.0
1520440565576359740,,275,,1520440565,560268608,'',1,0,,-6.12323399574e-17,6.12323426293e-17,0.5,,0.074878975749,-0.0685457065701,0.092443048954,,0.22423556447,0.0233274102211,5.17254495621,-1.57079637051,-0.0
1520440565676505562,,276,,1520440565,661381696,'',1,0,,-6.12323399574e-17,6.12323426293e-17,0.5,,0.0720007717609,-0.0739494040608,0.100206315517,,0.227861851454,0.0413719117641,5.13474607468,-1.57079637051,-0.0
1520440565785515967,,277,,1520440565,770813952,'',1,0,,-6.12323399574e-17,6.12323426293e-17,0.5,,0.0674718022346,-0.0759939178824,0.103260010481,,0.186936676502,-0.0359063185751,5.19139146805,-1.57079637051,-0.0
1520440565872512006,,278,,1520440565,856301184,'',1,0,,-6.12323399574e-17,6.12323426293e-17,0.5,,0.0639530867338,-0.0827725231647,0.111328303814,,0.191562950611,-0.0171764921397,5.27442932129,-1.57079637051,-0.0
1520440566001259726,,279,,1520440565,960682880,'',1,0,,-6.12323399574e-17,6.12323426293e-17,0.5,,0.0605961345136,-0.0889284908772,0.114764630795,,0.22123350203,-0.120664261281,5.35469388962,-1.57079637051,-0.0
1520440566076582663,,280,,1520440566,64945280,'',1,0,,-6.12323399574e-17,6.12323426293e-17,0.5,,0.0538640059531,-0.0916810780764,0.113758385181,,0.145831868052,-0.0479924716055,5.30877542496,-1.57079637051,-0.0
