rosbagTimestamp,header,seq,stamp,secs,nsecs,frame_id,twist,linear,x,y,z,angular,x,y,z
1520440529249498241,,384,,1520440529,217544652,"""map""",,,-0.00046551018022,-0.00741071999073,0.015393326059,,0.00211411481723,0.00068349565845,0.0524541437626
1520440529267114117,,385,,1520440529,248544652,"""map""",,,-0.00064737413777,-0.00642671622336,0.0123880943283,,0.00221285969019,0.0012526109349,0.0515118837357
1520440529303335474,,386,,1520440529,295618510,"""map""",,,-0.000701912911609,-0.00609135441482,0.0113457972184,,0.000892284617294,0.000838076230139,0.0510905832052
1520440529347715595,,387,,1520440529,326618510,"""map""",,,-0.000719336036127,-0.00589716108516,0.0109507218003,,0.00223849900067,-0.00107355299406,0.0514846257865
1520440529391663674,,388,,1520440529,365618510,"""map""",,,-0.000641689810436,-0.00560930091888,0.0102871395648,,-0.000167875143234,-0.00157571979798,0.0509403720498
1520440529392237890,,389,,1520440529,395618510,"""map""",,,-0.00071530113928,-0.00563086150214,0.0101471701637,,0.00102141790558,-0.00139763113111,0.0503601320088
1520440529452586271,,390,,1520440529,408396830,"""map""",,,-0.000765504257288,-0.00545364432037,0.00993715971708,,0.00140031578485,-0.00113645917736,0.0519587360322
1520440529479794661,,391,,1520440529,448396830,"""map""",,,-0.000617767625954,-0.00538255646825,0.00961207412183,,0.000582467706408,0.00112466223072,0.0523798689246
1520440529500977016,,392,,1520440529,489765879,"""map""",,,-0.00067963404581,-0.0054324711673,0.00958348065615,,0.00111296749674,-0.000120104465168,0.0519960336387
1520440529542549734,,393,,1520440529,529765879,"""map""",,,-0.000798301538453,-0.00528195733204,0.0097120096907,,0.00161904771812,-0.000861451320816,0.051146350801
1520440529573649810,,394,,1520440529,559765879,"""map""",,,-0.000760752474889,-0.00515248905867,0.0096594998613,,0.00134876661468,-0.00178487214725,0.0514184013009
1520440529601194236,,395,,1520440529,586857536,"""map""",,,-0.000736471673008,-0.00530596449971,0.00993774924427,,0.00139290490188,0.000744692224544,0.0515799857676
1520440529643570552,,396,,1520440529,616857536,"""map""",,,-0.0006935709971,-0.00562105607241,0.0103150662035,,0.00274811778218,-0.00269079394639,0.0518363825977
1520440529672354979,,397,,1520440529,656857536,"""map""",,,-0.000823806098197,-0.00598130561411,0.0106583815068,,0.00105250603519,-0.000654359231703,0.0515953116119
1520440529700817522,,398,,1520440529,686902592,"""map""",,,-0.000860083149746,-0.00585644878447,0.0100991940126,,0.000735015259124,-0.00232530990615,0.0511349402368
1520440529743640143,,399,,1520440529,726902592,"""map""",,,-0.000790657359175,-0.00615784293041,0.0100994538516,,0.0016082561342,0.000368861103198,0.0524073019624
1520440529778510238,,400,,1520440529,756902592,"""map""",,,-0.000752380350605,-0.00616009300575,0.00987199880183,,0.00137599022128,-0.0024584417697,0.0515762045979
1520440529800931310,,401,,1520440529,791526464,"""map""",,,-0.000622829073109,-0.00628479011357,0.00991105567664,,-0.000158601091243,0.00111965578981,0.0516603924334
1520440529850788762,,402,,1520440529,821526464,"""map""",,,-0.000477249559481,-0.00677788443863,0.0102094709873,,0.000679522869177,-5.97503385507e-05,0.0517708398402
1520440529877143721,,403,,1520440529,861526464,"""map""",,,-0.000198510620976,-0.00693560717627,0.00971371121705,,0.000619021360762,-0.00112104299478,0.0517671443522
1520440529901397430,,404,,1520440529,893527872,"""map""",,,-0.000188050398719,-0.00718546193093,0.00980497337878,,0.00092145067174,-0.00155966880266,0.0524320341647
1520440529943474570,,405,,1520440529,933527872,"""map""",,,-0.000262273941189,-0.00721486378461,0.00979940034449,,0.00124025077093,-0.000720494543202,0.0520624481142
1520440529976920160,,406,,1520440529,963527872,"""map""",,,-0.00036520435242,-0.00731676863506,0.00969883892685,,0.000430694839451,-2.31071026064e-05,0.0528166331351
1520440530003983784,,407,,1520440529,993096930,"""map""",,,-0.000218328161282,-0.00748870428652,0.00966555252671,,0.00090709910728,-0.000956864503678,0.0508626624942
1520440530042573305,,408,,1520440530,23096930,"""map""",,,-0.000251397490501,-0.00747011508793,0.00980105437338,,-0.000243087881245,0.000176029396243,0.0526281036437
1520440530073133009,,409,,1520440530,53096930,"""map""",,,-0.000249038304901,-0.00746603962034,0.00965626910329,,-0.000129596330225,0.000615871220361,0.0529156029224
1520440530103136561,,410,,1520440530,85190208,"""map""",,,-0.000356281088898,-0.00747112836689,0.00943280570209,,-0.000571312732063,0.00185967492871,0.0522897988558
1520440530142608439,,411,,1520440530,115190208,"""map""",,,-0.000378511904273,-0.0074623064138,0.00933626666665,,7.95237137936e-05,-0.000534466118552,0.0515121370554
1520440530172499284,,412,,1520440530,155190208,"""map""",,,-0.00048324171803,-0.0075626494363,0.00970562268049,,0.00109282904305,0.000296492653433,0.0516908466816
1520440530200350610,,413,,1520440530,185807424,"""map""",,,-0.000401281722588,-0.00758687127382,0.00992015469819,,0.00251082750037,-0.000220878166147,0.0500556528568
1520440530251244995,,414,,1520440530,225807424,"""map""",,,-0.000457595451735,-0.00766241876408,0.0101266540587,,0.000394773378503,0.00134898722172,0.0530959591269
1520440530277610771,,415,,1520440530,255807424,"""map""",,,-0.000567462702747,-0.00790020544082,0.0104179922491,,0.00109365466051,-0.00239162053913,0.0508291497827
1520440530301813030,,416,,1520440530,290800448,"""map""",,,-0.000606650020927,-0.00822858978063,0.0107404608279,,0.00142841460183,-0.00140064558946,0.0510350391269
1520440530332845318,,417,,1520440530,320800448,"""map""",,,-0.000597590580583,-0.0085483007133,0.0110233938321,,0.00194790307432,-0.000274168560281,0.0523756444454
1520440530376252677,,418,,1520440530,360800448,"""map""",,,-0.000818563567009,-0.00818766001612,0.0109186880291,,6.90675806254e-05,0.000337852427037,0.0517671257257
1520440530401639218,,419,,1520440530,390001216,"""map""",,,-0.00100103893783,-0.00776827335358,0.0107482625172,,0.00145581876859,0.000597176549491,0.0518645904958
1520440530441714770,,420,,1520440530,430001216,"""map""",,,-0.00134662212804,-0.00766051001847,0.0108448555693,,0.00095048075309,-0.000398386560846,0.051305886358
1520440530477493352,,421,,1520440530,461001216,"""map""",,,-0.00156228232663,-0.00788102298975,0.0109562985599,,-0.000198941910639,-0.000495030952152,0.0520652718842
1520440530503311782,,422,,1520440530,491934016,"""map""",,,-0.00173742417246,-0.00790493376553,0.0107437428087,,0.000620201288257,0.000401296303608,0.0508595667779
1520440530547971332,,423,,1520440530,531934016,"""map""",,,-0.00186921027489,-0.00774770602584,0.0105287004262,,0.000795630272478,-0.00143129238859,0.0505010597408
1520440530591517198,,424,,1520440530,561934016,"""map""",,,-0.00183209194802,-0.00805867649615,0.0106019154191,,0.0020951682236,0.00119053549133,0.0513867475092
1520440530595295271,,425,,1520440530,591934016,"""map""",,,-0.00188751739915,-0.00815167557448,0.0109155112877,,0.000818621949293,0.000245317496592,0.0520917698741
1520440530655014783,,426,,1520440530,618053098,"""map""",,,-0.00184742314741,-0.00800285022706,0.010710096918,,0.000354443152901,-0.000583377608564,0.0505914278328
1520440530676243112,,427,,1520440530,648053098,"""map""",,,-0.00189722352661,-0.00789843127131,0.0106007214636,,0.000170363637153,0.000583614397328,0.0519011877477
1520440530702633168,,428,,1520440530,692686575,"""map""",,,-0.0018359698588,-0.00808961223811,0.0106384046376,,0.000458906986751,-0.00188806885853,0.0524201206863
1520440530749183105,,429,,1520440530,722686575,"""map""",,,-0.00188852206338,-0.00827661156654,0.0108949514106,,0.00150258257054,0.000902656989638,0.0535477288067
1520440530771819018,,430,,1520440530,762686575,"""map""",,,-0.00185281469021,-0.00859425216913,0.0112381083891,,0.000510643119924,0.00111653679051,0.0524413064122
1520440530804170623,,431,,1520440530,794986624,"""map""",,,-0.00181234488264,-0.0083789806813,0.0104722008109,,0.000155032612383,-0.00120390753727,0.0525613427162
1520440530867667878,,432,,1520440530,824986624,"""map""",,,-0.00169571768492,-0.00813817232847,0.0099125681445,,0.00194161967374,-0.000270738324616,0.0517183206975
1520440530878431595,,433,,1520440530,864986624,"""map""",,,-0.00157694751397,-0.0082683628425,0.0100055234507,,0.000113016692922,-0.000861402601004,0.0524140000343
1520440530905815848,,434,,1520440530,892874112,"""map""",,,-0.00145984801929,-0.00856561213732,0.01022897847,,0.000847479095683,-0.000377587799449,0.052753765136
1520440530947500870,,435,,1520440530,922874112,"""map""",,,-0.00145417416934,-0.00861539877951,0.0102541241795,,0.00127103109844,-0.000257508712821,0.0523930229247
1520440530972780526,,436,,1520440530,962874112,"""map""",,,-0.00135550624691,-0.00877874065191,0.0102871600538,,0.00106714037247,0.00150939961895,0.0504052601755
1520440531008633822,,437,,1520440530,988747392,"""map""",,,-0.0012921532616,-0.00872836541384,0.0103816799819,,-8.84838518687e-05,9.47780208662e-05,0.0522812157869
1520440531042795388,,438,,1520440531,28747392,"""map""",,,-0.00110339303501,-0.00854696705937,0.0108100976795,,0.00220580678433,0.00194459781051,0.0523680709302
1520440531065825647,,439,,1520440531,58747392,"""map""",,,-0.000862620887347,-0.00808012392372,0.0106428526342,,0.000565217575058,-0.000105503248051,0.0528328493237
1520440531101515723,,440,,1520440531,89458048,"""map""",,,-0.000699925702065,-0.00788908172399,0.0102070244029,,0.00248423754238,-0.00200164830312,0.0506280511618
1520440531142524931,,441,,1520440531,119458048,"""map""",,,-0.000673037779052,-0.00791018456221,0.00999098084867,,0.000537594314665,-0.000997463008389,0.0527953058481
1520440531173086873,,442,,1520440531,159458048,"""map""",,,-0.000467933161417,-0.00806760322303,0.00985801592469,,0.00173737562727,0.000338485202519,0.0528619885445
1520440531201196530,,443,,1520440531,188077952,"""map""",,,-0.000333461706759,-0.0078086592257,0.00940713565797,,0.000504927476868,-0.00132093951106,0.0520813204348
1520440531232069070,,444,,1520440531,218077952,"""map""",,,-0.000325281580444,-0.00786485150456,0.00957927387208,,0.00162146682851,-0.00281782308593,0.0518625453115
1520440531267206627,,445,,1520440531,258077952,"""map""",,,-0.000229723838856,-0.00799895823002,0.0102685010061,,0.000465623830678,-0.00052515527932,0.0517397932708
1520440531300525678,,446,,1520440531,286628736,"""map""",,,-0.000270001241006,-0.00789688620716,0.010527539067,,0.000564285321161,-0.00215147063136,0.0513579659164
1520440531331723187,,447,,1520440531,316628736,"""map""",,,-0.000373160495656,-0.00779830198735,0.0106044197455,,0.00154467998073,-0.00128765206318,0.0523028112948
1520440531376559312,,448,,1520440531,356628736,"""map""",,,-0.000276425591437,-0.00782269518822,0.0108408555388,,0.00207668426447,-0.000455633213278,0.0525821596384
1520440531401974669,,449,,1520440531,389498496,"""map""",,,-0.000370330089936,-0.00775919808075,0.0108687300235,,0.000398305535782,0.00102595321368,0.0530443228781
1520440531450369794,,450,,1520440531,429498496,"""map""",,,-0.000379752775189,-0.00796426460147,0.0106264902279,,0.00149376527406,0.000197348592337,0.0518886558712
1520440531472259967,,451,,1520440531,459498496,"""map""",,,-0.000684813130647,-0.00821365229785,0.0108026908711,,0.000334340205882,7.46494042687e-05,0.0518228970468
1520440531513503113,,452,,1520440531,492273536,"""map""",,,-0.000933511299081,-0.00830099079758,0.0108874943107,,0.0016154559562,-0.00147780845873,0.051720701158
1520440531552164675,,453,,1520440531,522273536,"""map""",,,-0.00128435879014,-0.00814533792436,0.0111888172105,,0.00043110846309,0.00212715752423,0.0518664196134
1520440531576599805,,454,,1520440531,562273536,"""map""",,,-0.0015247091651,-0.00806154776365,0.011367958039,,-0.00010728277266,-0.000834571081214,0.0518475398421
1520440531603211223,,455,,1520440531,590037120,"""map""",,,-0.00171309500001,-0.00824245996773,0.0112960645929,,0.00151523551904,0.00155705027282,0.0520399957895
1520440531647816289,,456,,1520440531,621037120,"""map""",,,-0.00176712078974,-0.00828557088971,0.011037260294,,0.00212196214125,-0.00200287648477,0.0515615902841
1520440531700869469,,457,,1520440531,661037120,"""map""",,,-0.00178869022056,-0.00827526301146,0.0109631204978,,-0.000556600629352,0.000132623681566,0.0519929602742
1520440531701471556,,458,,1520440531,690037120,"""map""",,,-0.00176261807792,-0.0085074743256,0.0113162873313,,0.00130716874264,-0.00094405724667,0.0510586574674
1520440531751043783,,459,,1520440531,715071245,"""map""",,,-0.00175082590431,-0.00906106643379,0.0120807271451,,0.000245696515776,0.00127012026496,0.0521730445325
1520440531776125322,,460,,1520440531,746071245,"""map""",,,-0.00167769368272,-0.00904405675828,0.0117381643504,,0.00137135875411,-1.4181190636e-05,0.0512749254704
1520440531808522519,,461,,1520440531,785491477,"""map""",,,-0.00158942642156,-0.00909844134003,0.0112926559523,,0.000277774815913,-0.00013157131616,0.0516712777317
1520440531835056189,,462,,1520440531,816491477,"""map""",,,-0.0016210777685,-0.00930112227798,0.0109648648649,,0.00150238943752,-0.00113760004751,0.052860237658
1520440531874760417,,463,,1520440531,856491477,"""map""",,,-0.00177537102718,-0.0095100691542,0.0108312340453,,0.000747848302126,-0.000713246699888,0.0526764802635
1520440531900755678,,464,,1520440531,886379712,"""map""",,,-0.00184910977259,-0.00961250159889,0.0104270167649,,0.00129467691295,-0.000859055842739,0.0521278232336
1520440531943453020,,465,,1520440531,916379712,"""map""",,,-0.00198691035621,-0.00987203791738,0.0103220595047,,-0.000169849081431,0.000617790734395,0.0515000224113
1520440531972720831,,466,,1520440531,956379712,"""map""",,,-0.00225543184206,-0.0101975826547,0.0103201959282,,0.00139040173963,-0.00119711773004,0.0522078424692
1520440532000881702,,467,,1520440531,986081472,"""map""",,,-0.00252673239447,-0.010150635615,0.010280107148,,0.00096628855681,-0.00113206612878,0.0513361394405
1520440532032955076,,468,,1520440532,16081472,"""map""",,,-0.00280642695725,-0.0101297972724,0.0104441056028,,0.000613551470451,-0.00191752216779,0.050697222352
1520440532072300169,,469,,1520440532,56081472,"""map""",,,-0.00321001326665,-0.00991287827492,0.0104231387377,,0.000719933363143,-0.00193291367032,0.0513136014342
1520440532106970909,,470,,1520440532,86087616,"""map""",,,-0.00345647358336,-0.00990734435618,0.0106177162379,,0.00141244998667,0.000992060406134,0.0522977001965
1520440532142339763,,471,,1520440532,116087616,"""map""",,,-0.0036585542839,-0.0101370085031,0.0108995791525,,0.00169821095187,0.000471904524602,0.0516447499394
1520440532173144427,,472,,1520440532,156087616,"""map""",,,-0.00358828203753,-0.010174408555,0.0106145525351,,0.00173998787068,-0.000231709622312,0.0516750477254
1520440532202720414,,473,,1520440532,188990656,"""map""",,,-0.00374866183847,-0.0102925635874,0.0107331797481,,-0.000144884164911,0.000113892892841,0.0519374832511
1520440532232393578,,474,,1520440532,218990656,"""map""",,,-0.00374295935035,-0.0105204572901,0.0109698586166,,0.000573643599637,0.000319164071698,0.0525426976383
1520440532276239197,,475,,1520440532,258990656,"""map""",,,-0.00381015590392,-0.010377435945,0.0113327223808,,0.00069761328632,0.000551707460545,0.0518570020795
1520440532312519082,,476,,1520440532,287153344,"""map""",,,-0.00381508097053,-0.0104667283595,0.0115373367444,,0.000485499476781,-0.00114245619625,0.0511402264237
1520440532333601055,,477,,1520440532,317153344,"""map""",,,-0.00390454521403,-0.010641278699,0.0115569233894,,0.00132018141448,-0.00123327318579,0.0513709150255
1520440532378383586,,478,,1520440532,357153344,"""map""",,,-0.00381061644293,-0.0106982812285,0.0118378056213,,0.00244432827458,0.00031740902341,0.0521477237344
1520440532401647775,,479,,1520440532,391185088,"""map""",,,-0.00393886025995,-0.0108039472252,0.0122266896069,,0.000130854081362,-0.00044460099889,0.0528052970767
1520440532451772795,,480,,1520440532,431185088,"""map""",,,-0.00424306467175,-0.0109320869669,0.0125368637964,,0.000222018978093,-2.61623063125e-05,0.0521496087313
1520440532477042986,,481,,1520440532,461185088,"""map""",,,-0.00446009449661,-0.0111433481798,0.0127256233245,,0.000881058163941,-0.00154824997298,0.0522579699755
1520440532551163587,,482,,1520440532,494081984,"""map""",,,-0.0043122516945,-0.0108663309366,0.0121395280585,,0.00303255114704,-0.00141978904139,0.0525171756744
1520440532551524561,,483,,1520440532,524081984,"""map""",,,-0.00439065694809,-0.0108680045232,0.0116057358682,,-2.40235822275e-05,-0.000571982294787,0.0517410933971
1520440532576966095,,484,,1520440532,564081984,"""map""",,,-0.00463739270344,-0.0112081095576,0.0114319473505,,0.000819155073259,0.000211671955185,0.0521473512053
1520440532647508688,,485,,1520440532,597402304,"""map""",,,-0.00483050430194,-0.0115844178945,0.0113480743021,,0.000378759868909,-0.000374288239982,0.050740737468
1520440532647962709,,486,,1520440532,627402304,"""map""",,,-0.00487859360874,-0.0119951674715,0.0116390800104,,0.00225891312584,-0.000733034568839,0.0503924563527
1520440532694292773,,487,,1520440532,667402304,"""map""",,,-0.00500064250082,-0.0122378952801,0.0123960049823,,0.00103772256989,-0.000289463670924,0.0526543706656
1520440532704834229,,488,,1520440532,697402304,"""map""",,,-0.00506858713925,-0.0125436997041,0.013012394309,,0.00100513768848,0.000883395259734,0.051367893815
1520440532751640491,,489,,1520440532,709367355,"""map""",,,-0.00531000969931,-0.0130505198613,0.0135630602017,,-0.000162430980708,0.000380329263862,0.0510526970029
1520440532776979766,,490,,1520440532,749367355,"""map""",,,-0.0055401083082,-0.0136262038723,0.0142033090815,,0.00144404754974,0.00121507735457,0.0529856868088
1520440532824035199,,491,,1520440532,795765421,"""map""",,,-0.00570568162948,-0.0139061491936,0.0146085424349,,9.94006404653e-05,0.000388467597077,0.0521487407386
1520440532832072440,,492,,1520440532,826765421,"""map""",,,-0.0058234250173,-0.014060116373,0.014798976481,,0.00170685653575,-0.0012503194157,0.0519085079432
1520440532871794654,,493,,1520440532,866765421,"""map""",,,-0.00612159399316,-0.0141726443544,0.0150023903698,,0.00023655872792,-0.00023266900098,0.0516863539815
1520440532952780344,,494,,1520440532,896329216,"""map""",,,-0.00639692181721,-0.0141719756648,0.0152187012136,,0.00123261776753,-0.00120119843632,0.0515664219856
1520440532953728880,,495,,1520440532,926329216,"""map""",,,-0.00657829875126,-0.0142670692876,0.0155599135906,,0.00118740729522,3.41314589605e-05,0.0519824549556
1520440532980810924,,496,,1520440532,966329216,"""map""",,,-0.00678241346031,-0.0146317668259,0.0160437654704,,0.000525276991539,-0.000976921408437,0.0515291839838
1520440533002433150,,497,,1520440532,991607296,"""map""",,,-0.00723184505478,-0.0148747963831,0.0163679420948,,-0.000452215608675,-0.00173756515142,0.0520683787763
1520440533044345230,,498,,1520440533,21607296,"""map""",,,-0.00756416656077,-0.0151781467721,0.016690697521,,0.000332349736709,-0.000237743079197,0.0530211403966
1520440533090863765,,499,,1520440533,61607296,"""map""",,,-0.0079087857157,-0.0156063949689,0.0172612611204,,0.000673989998177,-0.0006249123835,0.052696775645
1520440533100715414,,500,,1520440533,91607296,"""map""",,,-0.00815850868821,-0.015928613022,0.0174975246191,,0.00148031930439,-0.00105483585503,0.0516878478229
1520440533144715199,,501,,1520440533,110092020,"""map""",,,-0.00826351251453,-0.0162361115217,0.0177857168019,,0.000415795075241,-0.00244967127219,0.052033867687
1520440533176814510,,502,,1520440533,150092020,"""map""",,,-0.0082629667595,-0.0167865063995,0.0187225751579,,0.00097872549668,0.00117043452337,0.051574639976
1520440533200511498,,503,,1520440533,193672545,"""map""",,,-0.00838850717992,-0.0171499103308,0.0193419512361,,0.00105597497895,0.000125813705381,0.0523815006018
1520440533243852773,,504,,1520440533,223672545,"""map""",,,-0.00868386588991,-0.017579600215,0.0198069233447,,0.00224418542348,-0.00126543361694,0.0523890815675
1520440533267352176,,505,,1520440533,263672545,"""map""",,,-0.00911833159626,-0.0180477015674,0.0203489735723,,-0.000350143003743,0.00223691063002,0.0522854998708
1520440533302271341,,506,,1520440533,296082944,"""map""",,,-0.00937214959413,-0.0185370743275,0.0209110602736,,0.00210857135244,-0.00240059150383,0.0503509044647
1520440533351342508,,507,,1520440533,326082944,"""map""",,,-0.00967876426876,-0.0187853090465,0.0216253120452,,0.00136263435706,-0.000427224498708,0.0517592169344
1520440533371803692,,508,,1520440533,356082944,"""map""",,,-0.01001977548,-0.0189956966788,0.0219953786582,,0.000933246628847,0.00154340907466,0.0516624599695
1520440533400669380,,509,,1520440533,397912320,"""map""",,,-0.0105798132718,-0.0192806124687,0.0222624335438,,0.00247955368832,0.000311296666041,0.0520969964564
1520440533446414822,,510,,1520440533,427912320,"""map""",,,-0.0109444335103,-0.0195942632854,0.0221363641322,,0.000967444095295,-0.000562687055208,0.0508933477104
1520440533476720036,,511,,1520440533,457912320,"""map""",,,-0.0113809900358,-0.0197859071195,0.0225098542869,,0.00155466399156,0.00102424935903,0.050854768604
1520440533502207880,,512,,1520440533,497947136,"""map""",,,-0.0118279643357,-0.0200777612627,0.0227974802256,,0.000478490779642,-0.00114037492312,0.0518395006657
1520440533536137691,,513,,1520440533,537947136,"""map""",,,-0.0121904769912,-0.020558251068,0.0231368336827,,0.00122447358444,-0.00165165541694,0.0517182983458
1520440533573180837,,514,,1520440533,567947136,"""map""",,,-0.012356496416,-0.0208312384784,0.0235278010368,,0.00235553178936,-0.00064593233401,0.0515797846019
1520440533601014822,,515,,1520440533,595980544,"""map""",,,-0.012575622648,-0.0211810059845,0.0239029489458,,0.000338690762874,0.0017309829127,0.052277546376
1520440533634205382,,516,,1520440533,625980544,"""map""",,,-0.0128227854148,-0.0213884748518,0.0241678319871,,0.000532051781192,-0.000493617670145,0.0526094809175
1520440533677369133,,517,,1520440533,665980544,"""map""",,,-0.0131977535784,-0.021912580356,0.0245055891573,,5.86750102229e-05,0.000276315637166,0.0523623116314
1520440533700469620,,518,,1520440533,696964608,"""map""",,,-0.0134446034208,-0.0221056975424,0.0246805436909,,0.00238698837347,-0.000880939420313,0.052122015506
1520440533749299055,,519,,1520440533,726964608,"""map""",,,-0.0137283755466,-0.0221819132566,0.0248430036008,,0.00115721672773,0.000161198433489,0.0520706288517
1520440533782639398,,520,,1520440533,756964608,"""map""",,,-0.0138694606721,-0.0223631877452,0.0252559408545,,0.000112824549433,-0.00128721981309,0.051350645721
1520440533801484736,,521,,1520440533,793234432,"""map""",,,-0.0141261462122,-0.0228120423853,0.0258757863194,,0.000303427339531,0.00110709480941,0.0523937344551
1520440533850978498,,522,,1520440533,823234432,"""map""",,,-0.0143198510632,-0.0231882091612,0.0262114349753,,0.000676904222928,-0.00113782042172,0.0519653782248
1520440533876692411,,523,,1520440533,863234432,"""map""",,,-0.0146221444011,-0.0236396640539,0.0263987462968,,0.00191284739412,0.000431754626334,0.0515749901533
1520440533900172516,,524,,1520440533,895857152,"""map""",,,-0.014865566045,-0.0241154581308,0.0265841521323,,0.00104544509668,-0.000939415360335,0.0523188412189
1520440533944062307,,525,,1520440533,925857152,"""map""",,,-0.0150844790041,-0.024518083781,0.0268400236964,,0.00148547487333,-3.84823069908e-05,0.0525279976428
1520440533978273469,,526,,1520440533,965857152,"""map""",,,-0.0153346871957,-0.0251365080476,0.0273292437196,,0.00101518863812,-0.00206554122269,0.0510854236782
1520440534000731488,,527,,1520440533,989864960,"""map""",,,-0.0155456326902,-0.0256011523306,0.0278120692819,,0.00160475843586,-0.00117424351629,0.0520165413618
1520440534041879330,,528,,1520440534,19864960,"""map""",,,-0.0156754106283,-0.0261652730405,0.0281575340778,,0.000895578588825,-0.00251925364137,0.0506346486509
1520440534077422153,,529,,1520440534,59864960,"""map""",,,-0.0158749036491,-0.0268019009382,0.0285204164684,,0.00174927152693,-0.00153767573647,0.05315092206
1520440534143687429,,530,,1520440534,93659200,"""map""",,,-0.0161579139531,-0.0272827018052,0.0287161134183,,0.000845365633722,-0.000482557865325,0.0523905530572
1520440534144192710,,531,,1520440534,123659200,"""map""",,,-0.0162939578295,-0.0276596620679,0.0291017573327,,0.00277973152697,-0.00173050560988,0.0507574267685
1520440534173121709,,532,,1520440534,163659200,"""map""",,,-0.0166101120412,-0.0282603874803,0.0295938421041,,0.00131407100707,-0.00154062302317,0.0523544102907
1520440534200725646,,533,,1520440534,196812608,"""map""",,,-0.0167608521879,-0.0288106016815,0.0297229569405,,0.00144591205753,-0.000731529027689,0.0528622418642
1520440534248545127,,534,,1520440534,226812608,"""map""",,,-0.0168415047228,-0.0291840136051,0.0301587991416,,0.000798963592388,-0.00120839604642,0.0517265684903
1520440534267926676,,535,,1520440534,266812608,"""map""",,,-0.0172242745757,-0.029451712966,0.0303594376892,,0.00057916494552,-0.000778955814894,0.0504196919501
1520440534302315676,,536,,1520440534,296194112,"""map""",,,-0.017574492842,-0.0298372264951,0.0307369492948,,0.00144478003494,0.00351517950185,0.0518659241498
1520440534349324768,,537,,1520440534,326194112,"""map""",,,-0.0178718883544,-0.0300680249929,0.0313774012029,,0.000454288528999,-0.000275229103863,0.0517814457417
1520440534393818929,,538,,1520440534,366194112,"""map""",,,-0.0180534925312,-0.0307064279914,0.0316528864205,,0.00105259707198,-0.000981755554676,0.0516617484391
1520440534396593382,,539,,1520440534,396194112,"""map""",,,-0.0183672048151,-0.0312840901315,0.0320155657828,,0.00204136781394,-0.000764242489822,0.0519078746438
1520440534436897300,,540,,1520440534,426417600,"""map""",,,-0.0186456590891,-0.0318792015314,0.0322322547436,,0.00125056598336,0.000149625033373,0.0521062985063
1520440534461555584,,541,,1520440534,456417600,"""map""",,,-0.0130511717871,-0.0219447314739,0.02087219432,,0.00111081963405,0.00161658227444,0.0530901513994
1520440534500767536,,542,,1520440534,491831104,"""map""",,,-0.0100827487186,-0.0167083982378,0.0147417439148,,0.000421511766035,-0.00136450608261,0.0519683174789
1520440534543226704,,543,,1520440534,521831104,"""map""",,,-0.00916036218405,-0.0151726584882,0.0129578709602,,0.000777391251177,-0.00150593509898,0.052537214011
1520440534574022792,,544,,1520440534,561831104,"""map""",,,-0.00874974299222,-0.0141993351281,0.0118160806596,,0.00147279002704,-0.000873012817465,0.0519803464413
1520440534600347652,,545,,1520440534,589791552,"""map""",,,-0.00876712985337,-0.013946056366,0.0114406403154,,0.00102101324592,0.000200742884772,0.0521865151823
1520440534643108112,,546,,1520440534,619791552,"""map""",,,-0.0086256749928,-0.0140656000003,0.0110004190356,,-6.76866038702e-05,0.00155550776981,0.0526718311012
1520440534662663248,,547,,1520440534,649791552,"""map""",,,-0.00864833779633,-0.014042397961,0.0106097050011,,0.00252608628944,-0.00183850992471,0.051564399153
1520440534700311525,,548,,1520440534,689350720,"""map""",,,-0.00872977357358,-0.0141253378242,0.0105348192155,,0.00215392187238,0.000652798858937,0.0520458556712
1520440534742732722,,549,,1520440534,719350720,"""map""",,,-0.00863949581981,-0.0138128455728,0.0103150410578,,0.00203449511901,-0.00214799074456,0.0521899498999
1520440534766695952,,550,,1520440534,759350720,"""map""",,,-0.00884264148772,-0.0137276947498,0.0101679312065,,0.00100101414137,-0.000260908796918,0.0501665920019
1520440534803011699,,551,,1520440534,787145792,"""map""",,,-0.00887140445411,-0.0138146663085,0.00988019444048,,0.000557946739718,0.000674123992212,0.0516307465732
1520440534844055969,,552,,1520440534,817145792,"""map""",,,-0.00858307536691,-0.0137181915343,0.00984182581306,,0.00128660537302,0.000312367628794,0.0513651147485
1520440534877345821,,553,,1520440534,857145792,"""map""",,,-0.008311284706,-0.0136599680409,0.0100439852104,,0.00138053949922,0.000438905117335,0.0518070980906
1520440534901240023,,554,,1520440534,887173440,"""map""",,,-0.00819800514728,-0.0135908517987,0.0102622862905,,0.000783667142969,-0.000110364053398,0.0525455102324
1520440534931551759,,555,,1520440534,917173440,"""map""",,,-0.00797720067203,-0.0133491251618,0.0102033354342,,0.00118602067232,-0.00066415918991,0.0529227741063
1520440534976998213,,556,,1520440534,957173440,"""map""",,,-0.00791449844837,-0.0133095905185,0.0101271625608,,0.000585523317568,-0.000415590126067,0.0511689372361
1520440535001124585,,557,,1520440534,997414285,"""map""",,,-0.00791800394654,-0.0133622959256,0.0101832067594,,0.00121985620353,-0.000360764795914,0.0517825968564
1520440535048386394,,558,,1520440535,28414285,"""map""",,,-0.00801075622439,-0.0133893126622,0.0102551663294,,0.00126178772189,-0.00088326720288,0.0524309799075
1520440535076677690,,559,,1520440535,68414285,"""map""",,,-0.00830825604498,-0.013824634254,0.0106600373983,,0.000920947291888,-0.000525928975549,0.0520125590265
1520440535147541568,,560,,1520440535,97488512,"""map""",,,-0.00852833408862,-0.0141639495268,0.0108708515763,,0.00146450311877,-0.000850202748552,0.0515699163079
1520440535147886683,,561,,1520440535,127488512,"""map""",,,-0.00841517653316,-0.0140049932525,0.0108338724822,,0.000705322658177,0.000304037239403,0.0514571331441
1520440535177472024,,562,,1520440535,167488512,"""map""",,,-0.0085313282907,-0.0138340750709,0.0109820328653,,0.000887602451257,-0.000214942730963,0.0519636832178
1520440535202159502,,563,,1520440535,198457472,"""map""",,,-0.0089004682377,-0.014292627573,0.0115009145811,,6.88625732437e-05,-0.00152977881953,0.0522220022976
1520440535251560626,,564,,1520440535,228457472,"""map""",,,-0.00938837882131,-0.0146575765684,0.0117909014225,,0.0026554944925,-0.00216961372644,0.0514541305602
1520440535276511614,,565,,1520440535,268457472,"""map""",,,-0.00980356615037,-0.015208681114,0.0119528565556,,0.000276611885056,-0.000182008661795,0.0525726675987
1520440535347236299,,566,,1520440535,296909184,"""map""",,,-0.0100214853883,-0.0156725719571,0.0121923750266,,0.0010896557942,0.000688376079779,0.0516608543694
1520440535347630260,,567,,1520440535,336909184,"""map""",,,-0.0104039935395,-0.0164863914251,0.0125706847757,,0.000541283865459,0.00139422318898,0.0517425313592
1520440535376602816,,568,,1520440535,366909184,"""map""",,,-0.0106279840693,-0.0170969739556,0.0126000996679,,0.00119265541434,0.00057862768881,0.0511095039546
1520440535401117267,,569,,1520440535,397996928,"""map""",,,-0.0109066236764,-0.0176731646061,0.0127485860139,,-0.0003019166179,0.000185224344023,0.0518871285021
1520440535449584685,,570,,1520440535,427996928,"""map""",,,-0.0113355014473,-0.0182084999979,0.0128995822743,,0.000570092175622,-0.00319624459371,0.0515638291836
1520440535496673961,,571,,1520440535,467996928,"""map""",,,-0.0118126934394,-0.0189482942224,0.0135609228164,,0.00137063523289,-0.000319832935929,0.0518511161208
1520440535503277571,,572,,1520440535,497996928,"""map""",,,-0.0121240187436,-0.0193675030023,0.0140194939449,,-0.000499677786138,0.000483999669086,0.0510793812573
1520440535542052890,,573,,1520440535,512577848,"""map""",,,-0.0123419724405,-0.0198539607227,0.0145569257438,,-0.000694464717526,0.00162650924176,0.0524594672024
1520440535572312606,,574,,1520440535,552577848,"""map""",,,-0.0123793659732,-0.0204839352518,0.0152264609933,,0.00114953145385,0.000183460564585,0.0510444678366
1520440535601488764,,575,,1520440535,586418304,"""map""",,,-0.0124711170793,-0.0209334548563,0.0157606974244,,0.00060225406196,-0.000233072554693,0.051809836179
1520440535642832863,,576,,1520440535,616418304,"""map""",,,-0.0126794241369,-0.0213010087609,0.0161965042353,,0.000658755889162,-0.00201687566005,0.0508328713477
1520440535675276912,,577,,1520440535,656418304,"""map""",,,-0.0129627976567,-0.0220320299268,0.0170600600541,,0.0019141046796,-0.0007568532601,0.0519271418452
1520440535712582505,,578,,1520440535,688744576,"""map""",,,-0.0132440915331,-0.0225465409458,0.0176783055067,,0.00116376578808,-0.000125277787447,0.0507706664503
1520440535742435986,,579,,1520440535,718744576,"""map""",,,-0.0135332141072,-0.0229302700609,0.0181508865207,,0.000334748649038,7.44318822399e-06,0.0518226586282
1520440535772544149,,580,,1520440535,758744576,"""map""",,,-0.0139973778278,-0.0237813387066,0.0186014063656,,0.00141397560947,-0.00177605799399,0.0512969568372
1520440535802416910,,581,,1520440535,793863040,"""map""",,,-0.0141705358401,-0.0244674496353,0.0188492573798,,0.00128418463282,-0.000295338162687,0.0513719245791
1520440535842149817,,582,,1520440535,833863040,"""map""",,,-0.0142708020285,-0.0251166988164,0.0190209988505,,0.00100437132642,-0.000646290369332,0.0506024062634
1520440535877073485,,583,,1520440535,864863040,"""map""",,,-0.0142753822729,-0.0256657153368,0.0191836934537,,0.00047771204845,-4.69014048576e-06,0.0509648770094
1520440535903115502,,584,,1520440535,898154112,"""map""",,,-0.0143386628479,-0.0262496378273,0.019209286198,,0.00139561947435,-0.000607144553214,0.0528665035963
1520440535948740854,,585,,1520440535,929154112,"""map""",,,-0.0143581666052,-0.0267758853734,0.019424173981,,0.00157592631876,-0.00193217583001,0.0509296022356
1520440535976995933,,586,,1520440535,969154112,"""map""",,,-0.0145923644304,-0.0274054668844,0.0199230723083,,0.00070789293386,0.000789586745668,0.0517229475081
1520440536001378027,,587,,1520440535,992516736,"""map""",,,-0.0147667601705,-0.0280430577695,0.0204007830471,,0.0015510211233,-0.000115169619676,0.0511995665729
1520440536052165640,,588,,1520440536,23516736,"""map""",,,-0.0150866759941,-0.0285111516714,0.0212386231869,,0.000439371040557,-4.87972283736e-05,0.0499439276755
1520440536076326816,,589,,1520440536,63516736,"""map""",,,-0.0155768720433,-0.0291576962918,0.0216523893178,,0.000726724159904,0.000952268717811,0.0504028610885
1520440536102171722,,590,,1520440536,95301056,"""map""",,,-0.0158109683543,-0.0298351403326,0.0218956768513,,-0.000673982664011,0.00122135761194,0.0524239391088
1520440536134376818,,591,,1520440536,125301056,"""map""",,,-0.0159736946225,-0.030412543565,0.0223799664527,,0.00144514837302,-0.00236477144063,0.0506861694157
1520440536171688233,,592,,1520440536,165301056,"""map""",,,-0.0162238385528,-0.0310789942741,0.0230860412121,,0.00172073533759,-0.00165933743119,0.0499636717141
1520440536200695010,,593,,1520440536,192731840,"""map""",,,-0.0165814757347,-0.0314209796488,0.0235045757145,,9.36792348512e-05,-0.000777800101787,0.0513615570962
1520440536241778879,,594,,1520440536,222731840,"""map""",,,-0.0168041680008,-0.0319401212037,0.0237258300185,,0.00291610741988,-0.00180715951137,0.0506077334285
1520440536267624804,,595,,1520440536,262731840,"""map""",,,-0.0168993864208,-0.0328871160746,0.0239568836987,,-4.72733518109e-05,0.00191960996017,0.0513576567173
1520440536302458584,,596,,1520440536,291915968,"""map""",,,-0.0170175842941,-0.0334674865007,0.0243047270924,,-0.000274628051557,0.00100636330899,0.0498617850244
1520440536346529607,,597,,1520440536,331915968,"""map""",,,-0.0171594377607,-0.0341257080436,0.0249854642898,,0.000444502307801,-0.000459131028038,0.0505440086126
1520440536371664400,,598,,1520440536,361915968,"""map""",,,-0.0173091217875,-0.0344914495945,0.0257655084133,,0.000497410015669,-0.000777934561484,0.050518527627
1520440536412333658,,599,,1520440536,391386304,"""map""",,,-0.0151674477383,-0.0304140299559,0.0232387259603,,0.00178912933916,-0.000625669839792,0.0515132732689
1520440536441801316,,600,,1520440536,431386304,"""map""",,,-0.0102298511192,-0.0216718129814,0.0168044622988,,0.000491434533615,-0.000845178612508,0.0507689900696
1520440536482081051,,601,,1520440536,461386304,"""map""",,,-0.00888578407466,-0.0195905659348,0.0148028591648,,0.000835774932057,-0.001749121584,0.0514141619205
1520440536500844261,,602,,1520440536,493768896,"""map""",,,-0.008176041767,-0.018363064155,0.0135906757787,,0.00152727705427,-0.000171657244209,0.0500101745129
1520440536542998750,,603,,1520440536,533768896,"""map""",,,-0.00765592884272,-0.0176797565073,0.0127950515598,,0.000146414211486,-0.000849774456583,0.0505480468273
1520440536572361258,,604,,1520440536,564768896,"""map""",,,-0.00752672832459,-0.0177593771368,0.0127419568598,,0.000403107784223,-0.000979080563411,0.0509588122368
1520440536601360166,,605,,1520440536,592164544,"""map""",,,-0.007182917092,-0.0178467575461,0.0126010375097,,6.28805719316e-06,0.000846918905154,0.0503893643618
1520440536642778216,,606,,1520440536,622164544,"""map""",,,-0.00697269104421,-0.0176688618958,0.0123939523473,,0.00156540097669,-0.00223561609164,0.0503874458373
1520440536679028906,,607,,1520440536,662164544,"""map""",,,-0.00695770280436,-0.0177377425134,0.0129550099373,,0.00192881957628,0.00138614908792,0.050245679915
1520440536701401600,,608,,1520440536,693644480,"""map""",,,-0.00695761851966,-0.0177969932556,0.0130862155929,,0.000613542681094,-0.0019369488582,0.0493787005544
1520440536744563160,,609,,1520440536,723644480,"""map""",,,-0.00679199071601,-0.0174658652395,0.0127933658659,,0.00201765727252,-0.000205754477065,0.049828145653
1520440536772950861,,610,,1520440536,764644480,"""map""",,,-0.00688694091514,-0.0175344645977,0.012735331431,,0.00144514022395,-0.000416601484176,0.05127293244
1520440536812620078,,611,,1520440536,794688960,"""map""",,,-0.00694109499454,-0.0176074206829,0.0126874791458,,0.000506562995724,-0.00229770177975,0.0495562367141
1520440536842488110,,612,,1520440536,824688960,"""map""",,,-0.00688040303066,-0.0175256170332,0.0123154511675,,0.000444941717433,-0.000628662062809,0.0506585910916
1520440536875872115,,613,,1520440536,865688960,"""map""",,,-0.00689534377307,-0.0174942072481,0.0121503667906,,0.000611417810433,0.0015169500839,0.0499949268997
1520440536912347779,,614,,1520440536,892415936,"""map""",,,-0.00679354602471,-0.0174093395472,0.0120938485488,,0.000303625187371,0.00205212295987,0.0512338988483
1520440536942360996,,615,,1520440536,923415936,"""map""",,,-0.0067770476453,-0.017506763339,0.0116088716313,,0.000121516815852,-0.00167337455787,0.0493877902627
1520440536973592128,,616,,1520440536,963415936,"""map""",,,-0.00686444994062,-0.0176375731826,0.0114231621847,,0.00137965939939,0.000192079955013,0.0516170486808
1520440537000501440,,617,,1520440536,994617856,"""map""",,,-0.00680979853496,-0.0172747783363,0.0108123831451,,-0.000562815810554,0.00175482698251,0.0500577166677
1520440537041784563,,618,,1520440537,34617856,"""map""",,,-0.00687633361667,-0.0169727951288,0.0102279502898,,0.00071472406853,0.000163025571965,0.0514940358698
1520440537076772929,,619,,1520440537,64617856,"""map""",,,-0.0068402858451,-0.0168888308108,0.0103922970593,,-0.000383488135412,0.0008906039875,0.0497972331941
1520440537104761432,,620,,1520440537,100125440,"""map""",,,-0.00696048606187,-0.016917835921,0.0108217559755,,0.000459511415102,-0.0001319682342,0.0508183203638
1520440537149243758,,621,,1520440537,130125440,"""map""",,,-0.00698750093579,-0.0171211622655,0.0111089739949,,0.000670687353704,0.000728056009393,0.0507377684116
1520440537175916773,,622,,1520440537,170125440,"""map""",,,-0.00712626799941,-0.0174445211887,0.0113351987675,,-0.000264386064373,-0.000232231337577,0.0504945591092
1520440537222789345,,623,,1520440537,200055808,"""map""",,,-0.00691251922399,-0.0171433705837,0.0110175870359,,0.000354394491296,-0.000455819477793,0.0493972301483
1520440537251030754,,624,,1520440537,230055808,"""map""",,,-0.00657186983153,-0.0165120586753,0.0106423012912,,0.000658772070892,-0.000792660634033,0.0505895987153
1520440537276089608,,625,,1520440537,270055808,"""map""",,,-0.00627742614597,-0.0161219164729,0.0102815143764,,0.00205163424835,-0.000201560382266,0.0502922572196
1520440537322953495,,626,,1520440537,300634880,"""map""",,,-0.00638588983566,-0.0158613733947,0.0100926691666,,-0.000154456822202,-0.000462462776341,0.0502803511918
1520440537334026030,,627,,1520440537,330634880,"""map""",,,-0.00650329468772,-0.0159011017531,0.010556275025,,0.00169981655199,0.000316903257044,0.0500287860632
1520440537382768998,,628,,1520440537,370634880,"""map""",,,-0.00644234055653,-0.0158337280154,0.0109151341021,,0.000403444195399,-0.000118250667583,0.050149820745
1520440537400202554,,629,,1520440537,397324032,"""map""",,,-0.00633028754964,-0.0157362688333,0.010952854529,,0.00158519227989,-0.00237026810646,0.0498863123357
1520440537442185643,,630,,1520440537,427324032,"""map""",,,-0.00641370750964,-0.0157419741154,0.0111923040822,,-0.000540022097994,-0.00117266154848,0.0503455996513
1520440537475734825,,631,,1520440537,467324032,"""map""",,,-0.00655816774815,-0.0156870540231,0.011288610287,,0.000574216595851,-0.00171064748429,0.0501851439476
1520440537500881305,,632,,1520440537,497830144,"""map""",,,-0.00661025289446,-0.0153642594814,0.010988839902,,-0.000136574846692,-0.00020813010633,0.0497646182775
1520440537542997594,,633,,1520440537,527830144,"""map""",,,-0.00659821322188,-0.0152669642121,0.0109003391117,,0.000194824184291,0.000915588927455,0.0487172305584
1520440537571937322,,634,,1520440537,567830144,"""map""",,,-0.00646073836833,-0.0155025012791,0.0112482234836,,-0.000430549087469,0.00211278116331,0.0501202642918
1520440537601930103,,635,,1520440537,596678144,"""map""",,,-0.00627887714654,-0.0155484341085,0.0114563181996,,0.000859380292241,-0.00257575628348,0.0487872213125
1520440537653573224,,636,,1520440537,626678144,"""map""",,,-0.00627227080986,-0.0153783289716,0.0115793850273,,0.00100539613049,-0.00229317811318,0.0493020005524
1520440537677603888,,637,,1520440537,666678144,"""map""",,,-0.00642638420686,-0.0155632514507,0.0116953421384,,0.00180528673809,-0.000559817301109,0.0484165064991
1520440537732834007,,638,,1520440537,699815680,"""map""",,,-0.00653399527073,-0.0159311126918,0.0120436828583,,0.00256727752276,0.000474883272545,0.0497155636549
1520440537752288706,,639,,1520440537,729815680,"""map""",,,-0.00684180995449,-0.0163587965071,0.0123877227306,,0.0007273296942,0.00147033459507,0.0498525239527
1520440537777838908,,640,,1520440537,769815680,"""map""",,,-0.00682014739141,-0.0159469954669,0.0118698934093,,-7.95049709268e-05,0.00183121720329,0.0490108206868
1520440537814699802,,641,,1520440537,799698432,"""map""",,,-0.00668653286994,-0.0153236091137,0.0111243901774,,0.00204633525573,-0.00223602657206,0.0488145314157
1520440537842760577,,642,,1520440537,829698432,"""map""",,,-0.00659426907077,-0.0152367344126,0.0108712166548,,0.00147822289728,-0.000858888612129,0.0497990250587
1520440537874243755,,643,,1520440537,869698432,"""map""",,,-0.00643396750093,-0.0153025072068,0.0107946870849,,0.00147147593088,-0.00282169948332,0.04911101982
1520440537912722780,,644,,1520440537,895718656,"""map""",,,-0.00629830639809,-0.0150905512273,0.0107426187024,,0.00104500330053,-0.00103376200423,0.0488168038428
1520440537942894389,,645,,1520440537,925718656,"""map""",,,-0.00616918783635,-0.0147833637893,0.0106343301013,,0.000952776521444,0.00228610541672,0.0507490895689
1520440537971460201,,646,,1520440537,965718656,"""map""",,,-0.00624089408666,-0.0143999736756,0.0105619691312,,0.000387421459891,-0.000442267686594,0.0481900423765
1520440538012357941,,647,,1520440537,992888320,"""map""",,,-0.0062417103909,-0.0142888016999,0.0105092162266,,-0.000321008206811,-3.43613792211e-05,0.0493094064295
1520440538041339087,,648,,1520440538,22888320,"""map""",,,-0.00645156018436,-0.014488292858,0.0105048511177,,0.00228012329899,-0.00222674268298,0.0483052171767
1520440538071933767,,649,,1520440538,62888320,"""map""",,,-0.0064282733947,-0.0144681166857,0.0103180706501,,0.00185452983715,-0.00222186162136,0.0485429093242
1520440538111307008,,650,,1520440538,95734528,"""map""",,,-0.0065423999913,-0.0145451966673,0.0103800827637,,-2.80939857475e-05,0.00135158980265,0.0490826815367
1520440538142372529,,651,,1520440538,126734528,"""map""",,,-0.00646516215056,-0.0147000765428,0.0104341860861,,7.91947240941e-05,-0.00115414289758,0.048591375351
1520440538171870413,,652,,1520440538,166734528,"""map""",,,-0.00625940971076,-0.0146346315742,0.0105260526761,,0.001610950334,0.000837858649902,0.048615988344
1520440538208082732,,653,,1520440538,194241600,"""map""",,,-0.00622531119734,-0.0145521992818,0.0107086189091,,-0.000300610263366,0.000870382704306,0.0487813092768
1520440538242371401,,654,,1520440538,224241600,"""map""",,,-0.00621579075232,-0.0144742680714,0.0106621868908,,0.000110164808575,-9.96702583507e-05,0.047379206866
1520440538271853023,,655,,1520440538,264241600,"""map""",,,-0.00629229377955,-0.0147463567555,0.0109713133425,,0.0010665046284,0.000551114266273,0.0488564036787
1520440538311550137,,656,,1520440538,294957632,"""map""",,,-0.00614171428606,-0.0146780144423,0.0111209340394,,0.000304610439343,0.000683665100951,0.0481542013586
1520440538341857590,,657,,1520440538,324957632,"""map""",,,-0.0059338612482,-0.0148194739595,0.0111957695335,,0.000836083898321,-0.00169667205773,0.0494375787675
1520440538376362411,,658,,1520440538,364957632,"""map""",,,-0.00561413727701,-0.014438056387,0.0106262098998,,-0.000378240190912,0.000903617416043,0.0479549840093
1520440538402693445,,659,,1520440538,393945152,"""map""",,,-0.00549427233636,-0.0144172394648,0.0104974098504,,0.00107068265788,0.000733670080081,0.0482507497072
1520440538442970308,,660,,1520440538,423945152,"""map""",,,-0.00535730179399,-0.0144721381366,0.010805785656,,0.00176913291216,-0.00320891523734,0.047535572201
1520440538476381350,,661,,1520440538,463945152,"""map""",,,-0.00530129950494,-0.014571275562,0.0107853263617,,-0.000639416801278,-0.00137002603151,0.0479537062347
1520440538506146693,,662,,1520440538,492810816,"""map""",,,-0.00525218434632,-0.0147310998291,0.0106819570065,,0.000377648219001,0.000769824255258,0.0486502572894
1520440538542614191,,663,,1520440538,532810816,"""map""",,,-0.00521273724735,-0.0148580400273,0.0102409794927,,0.00229465798475,-0.00212453794666,0.0492281988263
1520440538571650076,,664,,1520440538,562810816,"""map""",,,-0.00518279802054,-0.0150707811117,0.010438981466,,0.000880514970049,0.00154883763753,0.0491277165711
1520440538611962572,,665,,1520440538,596591680,"""map""",,,-0.00530490791425,-0.0152249056846,0.010619757697,,-0.00024164991919,0.0013935319148,0.0485429093242
1520440538643354058,,666,,1520440538,626591680,"""map""",,,-0.00541908107698,-0.0153968129307,0.0108118224889,,0.00164072704501,-0.00181527703535,0.0475065372884
1520440538677095070,,667,,1520440538,666591680,"""map""",,,-0.00537314731628,-0.015468458645,0.010623972863,,-0.000165243982337,0.000999459065497,0.0481559038162
1520440538712494165,,668,,1520440538,698604864,"""map""",,,-0.00541859399527,-0.0155048705637,0.0104314759374,,0.000287187518552,-0.000841368164401,0.0472091473639
1520440538745137743,,669,,1520440538,728604864,"""map""",,,-0.00549664860591,-0.0155335739255,0.0102877300233,,0.00199258769862,-0.00218243524432,0.0471775270998
1520440538777652083,,670,,1520440538,768604864,"""map""",,,-0.00543972849846,-0.0158778466284,0.0103925103322,,0.000734042201657,-0.00166587461717,0.0472144819796
1520440538811983782,,671,,1520440538,795278912,"""map""",,,-0.00535039696842,-0.0155611000955,0.0100649259984,,-8.81088781171e-05,-0.000339582213201,0.0485099628568
1520440538842338626,,672,,1520440538,825278912,"""map""",,,-0.00532538816333,-0.0154410041869,0.0100513510406,,0.00129635701887,-0.00259637692943,0.0481452047825
1520440538874438237,,673,,1520440538,865278912,"""map""",,,-0.00525568146259,-0.0153534840792,0.0103991748765,,0.00028654729249,-0.0020443839021,0.0482272692025
1520440538943161806,,674,,1520440538,894849856,"""map""",,,-0.00521902786568,-0.0157779641449,0.0105550037697,,0.000634544412605,-0.00186060299166,0.047317173332
1520440538943631143,,675,,1520440538,924849856,"""map""",,,-0.00518496800214,-0.0158017966896,0.0104725025594,,0.00186022545677,0.000893153483048,0.0477208867669
1520440538994210038,,676,,1520440538,965849856,"""map""",,,-0.00520828971639,-0.0157461781055,0.0108781717718,,0.000674883543979,-0.00103541859426,0.0462608672678
1520440539022575810,,677,,1520440538,990613568,"""map""",,,-0.00548646319658,-0.0159732755274,0.0111298188567,,-0.000421072298195,0.0005594061804,0.0476837866008
1520440539050820114,,678,,1520440539,20613568,"""map""",,,-0.00575370015576,-0.0162466838956,0.011376041919,,0.00188729551155,-0.00338935363106,0.0472835078835
1520440539079876191,,679,,1520440539,60613568,"""map""",,,-0.005376374349,-0.0158275924623,0.0111741395667,,0.000958477903623,0.000948962173425,0.0482151098549
1520440539151416005,,680,,1520440539,95714880,"""map""",,,-0.0052131684497,-0.0155106838793,0.0112924342975,,9.46890795603e-05,-0.00183172686957,0.046550180763
1520440539152440828,,681,,1520440539,125714880,"""map""",,,-0.00528823025525,-0.0155683979392,0.0115890912712,,0.000677293457557,0.000868630188052,0.0469675026834
1520440539177256179,,682,,1520440539,166714880,"""map""",,,-0.00541647570208,-0.0158778671175,0.0120201464742,,0.000965874642134,5.29099488631e-05,0.0463495366275
1520440539252020896,,683,,1520440539,196123008,"""map""",,,-0.00557666737586,-0.0163488611579,0.0123925842345,,0.000545101473108,-1.02197518572e-05,0.046702157706
1520440539252648455,,684,,1520440539,226123008,"""map""",,,-0.00531414058059,-0.015557426028,0.0120520368218,,0.000630743685178,-0.000562338100281,0.0468862205744
1520440539276368248,,685,,1520440539,266123008,"""map""",,,-0.00527609791607,-0.0153745152056,0.011900912039,,0.00119004712906,-0.00099633494392,0.0460306107998
1520440539350866372,,686,,1520440539,299597952,"""map""",,,-0.00540358899161,-0.0153874084353,0.0123574435711,,0.00233481195755,-0.00108615262434,0.0462585166097
1520440539351537053,,687,,1520440539,329597952,"""map""",,,-0.00547204865143,-0.0156403835863,0.0128169888631,,0.000862702901941,-0.00102486170363,0.046421635896
1520440539373213207,,688,,1520440539,369597952,"""map""",,,-0.00561263971031,-0.0159498341382,0.0135789848864,,0.00162876700051,0.000415103364503,0.0472772791982
1520440539411328300,,689,,1520440539,398195328,"""map""",,,-0.00582573749125,-0.0164927840233,0.0141204185784,,0.000176049012225,0.000172560976353,0.0472180508077
1520440539442917388,,690,,1520440539,428195328,"""map""",,,-0.00606146687642,-0.0170451402664,0.0146347414702,,0.00282099144533,0.000144163146615,0.0462125763297
1520440539517085532,,691,,1520440539,458195328,"""map""",,,-0.00627374043688,-0.017478492111,0.0147904660553,,0.000582767825108,0.000807939679362,0.0472984947264
1520440539520248128,,692,,1520440539,498195328,"""map""",,,-0.00654069613665,-0.0180774405599,0.0149069465697,,0.00101958413143,-0.000133531459142,0.0463995970786
1520440539560677482,,693,,1520440539,524112640,"""map""",,,-0.00675225118175,-0.0187081508338,0.015519881621,,0.000891964999028,0.000363984028809,0.0461598522961
1520440539572526594,,694,,1520440539,554112640,"""map""",,,-0.00694078905508,-0.0192517153919,0.0160967223346,,0.00170582369901,-0.000538356951438,0.0461110547185
1520440539612030337,,695,,1520440539,594341504,"""map""",,,-0.00730609940365,-0.0199314747006,0.0167910568416,,0.00111269718036,-0.00146726937965,0.0453589558601
1520440539642979600,,696,,1520440539,624341504,"""map""",,,-0.00754895620048,-0.0204387214035,0.0172267593443,,0.000905172724742,-0.00171962403692,0.0467021912336
1520440539672670605,,697,,1520440539,654341504,"""map""",,,-0.00791052356362,-0.0209859721363,0.017476413399,,0.000710446678568,0.000292430864647,0.0460904799402
1520440539709176897,,698,,1520440539,696992128,"""map""",,,-0.00800108071417,-0.0215272177011,0.0180399157107,,0.00056549772853,-0.00156409852207,0.0458483025432
1520440539741325318,,699,,1520440539,726992128,"""map""",,,-0.00824839342386,-0.0218440387398,0.0182620435953,,0.00137043837458,0.000371669128072,0.0463599599898
1520440539771764659,,700,,1520440539,756992128,"""map""",,,-0.0085601368919,-0.022050447762,0.0184447541833,,0.00133674091194,-9.3873240985e-05,0.0462278351188
1520440539813334117,,701,,1520440539,795408256,"""map""",,,-0.00892602838576,-0.0226015206426,0.0189890842885,,0.000564525835216,0.000538673251867,0.045133665204
1520440539842448419,,702,,1520440539,825408256,"""map""",,,-0.00914115831256,-0.0230619162321,0.0192554797977,,-0.000439216557425,0.0004272738297,0.0445210002363
1520440539875498111,,703,,1520440539,865408256,"""map""",,,-0.00946734566242,-0.0237032938749,0.0194027163088,,0.00201559090056,-0.0026549808681,0.0442785732448
1520440539911661432,,704,,1520440539,897904256,"""map""",,,-0.00965076405555,-0.0241986513138,0.0192607529461,,0.000940436730161,-0.00179690914229,0.0469052381814
1520440539942194399,,705,,1520440539,927904256,"""map""",,,-0.00976367387921,-0.0246532615274,0.0192623138428,,0.00170773209538,0.00144488736987,0.0461998730898
1520440539972379770,,706,,1520440539,957904256,"""map""",,,-0.00976376980543,-0.025138027966,0.0193018410355,,0.000886659021489,-0.00316856359132,0.0448439791799
1520440540005969286,,707,,1520440539,998824320,"""map""",,,-0.00989091582596,-0.0258412435651,0.0195301715285,,0.00153674045578,-0.000559139356483,0.0444369912148
1520440540043113974,,708,,1520440540,28824320,"""map""",,,-0.0100431395695,-0.0262174513191,0.0196416694671,,0.000231346755754,0.0005142679438,0.0447820536792
1520440540076991209,,709,,1520440540,58824320,"""map""",,,-0.0101776467636,-0.0264820735902,0.0199054628611,,0.000435999711044,-0.000594864948653,0.0443496964872
1520440540104970314,,710,,1520440540,96521088,"""map""",,,-0.0102729778737,-0.0268927589059,0.0203727446496,,0.00128776207566,-0.000613719515968,0.0448873788118
1520440540148031823,,711,,1520440540,126521088,"""map""",,,-0.0104012303054,-0.0274208076298,0.020633386448,,-5.32672856934e-05,-0.00187037221622,0.0444832108915
1520440540179051326,,712,,1520440540,156521088,"""map""",,,-0.0106339240447,-0.0279578212649,0.0208762474358,,0.00114573538303,-1.81531067938e-05,0.0465844385326
1520440540202086600,,713,,1520440540,199491968,"""map""",,,-0.0108304722235,-0.0285505149513,0.0213581733406,,3.3748219721e-06,0.00154769665096,0.0446069091558
1520440540251279184,,714,,1520440540,230491968,"""map""",,,-0.0110718393698,-0.0289266258478,0.0215965360403,,0.00138585292734,-0.000370123365428,0.0444734841585
1520440540268700962,,715,,1520440540,259491968,"""map""",,,-0.0114720016718,-0.029293872416,0.0220743920654,,0.000444501900347,-0.000402846897487,0.0449442714453
1520440540320936552,,716,,1520440540,312072385,"""map""",,,-0.012198753655,-0.0296399518847,0.0230159945786,,-0.000508744036779,-0.000685574254021,0.0451716482639
1520440540350623123,,717,,1520440540,342072385,"""map""",,,-0.0123893972486,-0.0299023799598,0.0237277131528,,0.00192734529264,0.000161569565535,0.0453241989017
1520440540377082310,,718,,1520440540,372072385,"""map""",,,-0.0125450314954,-0.0302122011781,0.0242102090269,,0.00123151158914,-0.00329880579375,0.0451866239309
1520440540411817269,,719,,1520440540,395360360,"""map""",,,-0.012832111679,-0.0306045133621,0.0248788744211,,0.000239545595832,5.07132499479e-05,0.0442677736282
1520440540442996167,,720,,1520440540,425360360,"""map""",,,-0.0130858067423,-0.030941657722,0.0253946445882,,0.00223558116704,0.000426159793278,0.0437729358673
1520440540472412724,,721,,1520440540,455360360,"""map""",,,-0.0133487656713,-0.0313986763358,0.0256691910326,,0.000680471828673,0.000440601987066,0.044196870178
1520440540503622978,,722,,1520440540,496432832,"""map""",,,-0.0107002761215,-0.0244999397546,0.0199592951685,,-5.47852250747e-05,0.00124095799401,0.0458753220737
1520440540551559984,,723,,1520440540,526432832,"""map""",,,-0.00852893851697,-0.0190150272101,0.0156293623149,,0.000501699512824,-0.00128892203793,0.0435277111828
1520440540577774719,,724,,1520440540,556432832,"""map""",,,-0.00749372830614,-0.0164791084826,0.0137274656445,,0.00209716917016,-0.00113158440217,0.043457724154
1520440540607611070,,725,,1520440540,601418432,"""map""",,,-0.00695974007249,-0.0153425112367,0.0128986975178,,0.00020607849001,-0.000702254474163,0.0434453561902
1520440540652352586,,726,,1520440540,631418432,"""map""",,,-0.00686911959201,-0.0151627250016,0.0128556806594,,0.000779124617111,0.000186694145668,0.0443188510835
1520440540677746992,,727,,1520440540,661418432,"""map""",,,-0.00667863944545,-0.0142814330757,0.0123433331028,,0.000587594578974,0.0014460531529,0.0444831326604
1520440540702418707,,728,,1520440540,702396096,"""map""",,,-0.0067516984418,-0.013955890201,0.0120154302567,,-0.000166288926266,-0.00019096134929,0.044001288712
1520440540757589693,,729,,1520440540,732396096,"""map""",,,-0.00662373378873,-0.0135576715693,0.0114474091679,,0.000922194565646,-0.00049883115571,0.0434622205794
1520440540776963846,,730,,1520440540,762396096,"""map""",,,-0.00659344997257,-0.0134420925751,0.0112137664109,,0.000444674922619,0.000177370209713,0.0440352298319
1520440540802650611,,731,,1520440540,803338432,"""map""",,,-0.0067357160151,-0.013820130378,0.0113729247823,,-9.62215126492e-05,0.000881566666067,0.044135209173
1520440540851710773,,732,,1520440540,833338432,"""map""",,,-0.00668754149228,-0.0138661470264,0.0110853854567,,0.00113493390381,-0.000534246442839,0.044072445482
1520440540872280474,,733,,1520440540,863338432,"""map""",,,-0.00638536922634,-0.0135425534099,0.0105549357831,,0.000599993800279,-0.000491308630444,0.0420812964439
1520440540907450223,,734,,1520440540,900899776,"""map""",,,-0.00610101409256,-0.0134044308215,0.010244384408,,0.00076600315515,0.000124039594084,0.042507622391
1520440540941440926,,735,,1520440540,930899776,"""map""",,,-0.00603561336175,-0.0133655024692,0.0101703396067,,0.00246791588143,-0.00323360506445,0.0429522655904
1520440540972188444,,736,,1520440540,960899776,"""map""",,,-0.00601845234632,-0.0133443661034,0.00988665316254,,0.00139134260826,-8.32207733765e-05,0.0418039150536
1520440541009939343,,737,,1520440540,999369152,"""map""",,,-0.0060152662918,-0.0134445335716,0.0101273125038,,-0.000422285287641,-0.0020282252226,0.0420120172203
1520440541057009458,,738,,1520440541,29369152,"""map""",,,-0.00588624691591,-0.0133589981124,0.0100447796285,,0.000741431606002,-0.000382979225833,0.0427509918809
1520440541073297435,,739,,1520440541,59369152,"""map""",,,-0.00578792160377,-0.0132676353678,0.0100228795782,,-0.00043972308049,-0.000696290517226,0.0426819473505
1520440541102362893,,740,,1520440541,99405248,"""map""",,,-0.00572074670345,-0.013235882856,0.00988367106766,,0.00107737397775,-0.000480714370497,0.0430623404682
1520440541152415781,,741,,1520440541,129405248,"""map""",,,-0.00578663498163,-0.013266550377,0.00977677106857,,0.000716432288755,0.000586548296269,0.0432567670941
1520440541172675289,,742,,1520440541,159405248,"""map""",,,-0.00586032588035,-0.0133703900501,0.00953518878669,,0.00182625371963,0.00115124031436,0.0429552942514
1520440541213982225,,743,,1520440541,197014720,"""map""",,,-0.0057898554951,-0.0134711265564,0.00957998726517,,0.000202421360882,0.00181563710794,0.0437166765332
1520440541243283663,,744,,1520440541,227014720,"""map""",,,-0.00563695002347,-0.0136740440503,0.00989316031337,,-0.000270319229458,0.000198557274416,0.0425614267588
1520440541271731868,,745,,1520440541,257014720,"""map""",,,-0.0055508534424,-0.013893680647,0.0102078104392,,0.000201016286155,0.00230559776537,0.0428036749363
1520440541304482825,,746,,1520440541,296330688,"""map""",,,-0.00527007691562,-0.0135956965387,0.010150286369,,-0.000972900597844,0.00163813284598,0.042130548507
1520440541350454205,,747,,1520440541,326330688,"""map""",,,-0.00531446468085,-0.0133724585176,0.00994004681706,,0.0018258090131,-0.000565165537409,0.0416399724782
1520440541371794179,,748,,1520440541,356330688,"""map""",,,-0.00541275646538,-0.0132593605667,0.00972514320165,,0.000859725289047,7.86886084825e-05,0.0426054894924
1520440541443420439,,749,,1520440541,401863104,"""map""",,,-0.00528846215457,-0.0133414808661,0.00967187061906,,0.000770171522163,-0.00126655679196,0.0430166721344
