rosbagTimestamp,header,seq,stamp,secs,nsecs,frame_id,orientation,x,y,z,w,orientation_covariance,angular_velocity,x,y,z,angular_velocity_covariance,linear_acceleration,x,y,z,linear_acceleration_covariance
1520440529147860220,,645,,1520440529,114025344,"""base_link""",,0.00314331533698,0.00532588116141,0.164464589322,-0.986363622931,"[1.0, 0.0, 0.0, 0.0, 1.0, 0.0, 0.0, 0.0, 1.0]",,0.000948071945459,0.000976077513769,0.0521644949913,"[1.2184696791468346e-07, 0.0, 0.0, 0.0, 1.2184696791468346e-07, 0.0, 0.0, 0.0, 1.2184696791468346e-07]",,0.122916154563,-0.0633435621858,9.84364032745,"[8.999999999999999e-08, 0.0, 0.0, 0.0, 8.999999999999999e-08, 0.0, 0.0, 0.0, 8.999999999999999e-08]"
1520440529147866000,,646,,1520440529,130025344,"""base_link""",,0.0031410487091,0.00532248825778,0.163769166322,-0.986479358177,"[1.0, 0.0, 0.0, 0.0, 1.0, 0.0, 0.0, 0.0, 1.0]",,0.000866875227075,-0.00030471169157,0.0505259409547,"[1.2184696791468346e-07, 0.0, 0.0, 0.0, 1.2184696791468346e-07, 0.0, 0.0, 0.0, 1.2184696791468346e-07]",,0.113678388298,-0.0383847020566,9.82017040253,"[8.999999999999999e-08, 0.0, 0.0, 0.0, 8.999999999999999e-08, 0.0, 0.0, 0.0, 8.999999999999999e-08]"
1520440529187036717,,647,,1520440529,146025344,"""base_link""",,0.00313788316797,0.00532225241653,0.163086555963,-0.986592396025,"[1.0, 0.0, 0.0, 0.0, 1.0, 0.0, 0.0, 0.0, 1.0]",,-5.96056343056e-05,0.000417126109824,0.0510396361351,"[1.2184696791468346e-07, 0.0, 0.0, 0.0, 1.2184696791468346e-07, 0.0, 0.0, 0.0, 1.2184696791468346e-07]",,0.139576658607,-0.0534440875053,9.82295513153,"[8.999999999999999e-08, 0.0, 0.0, 0.0, 8.999999999999999e-08, 0.0, 0.0, 0.0, 8.999999999999999e-08]"
1520440529187453427,,648,,1520440529,170025344,"""base_link""",,0.00312927418026,0.00533173134154,0.162042409938,-0.98676443946,"[1.0, 0.0, 0.0, 0.0, 1.0, 0.0, 0.0, 0.0, 1.0]",,0.00155330495909,0.00141110294499,0.0531534478068,"[1.2184696791468346e-07, 0.0, 0.0, 0.0, 1.2184696791468346e-07, 0.0, 0.0, 0.0, 1.2184696791468346e-07]",,0.104741804302,-0.0900824293494,9.85207748413,"[8.999999999999999e-08, 0.0, 0.0, 0.0, 8.999999999999999e-08, 0.0, 0.0, 0.0, 8.999999999999999e-08]"
1520440529187459342,,649,,1520440529,186025344,"""base_link""",,0.00313166387364,0.0053177716797,0.161352592469,-0.986877603749,"[1.0, 0.0, 0.0, 0.0, 1.0, 0.0, 0.0, 0.0, 1.0]",,-0.000193548155949,0.000828222604468,0.0516150817275,"[1.2184696791468346e-07, 0.0, 0.0, 0.0, 1.2184696791468346e-07, 0.0, 0.0, 0.0, 1.2184696791468346e-07]",,0.0835735797882,-0.0431007146835,9.8472442627,"[8.999999999999999e-08, 0.0, 0.0, 0.0, 8.999999999999999e-08, 0.0, 0.0, 0.0, 8.999999999999999e-08]"
1520440529221862371,,650,,1520440529,195544652,"""base_link""",,0.00311785131417,0.00532141499487,0.16030448464,-0.987048467073,"[1.0, 0.0, 0.0, 0.0, 1.0, 0.0, 0.0, 0.0, 1.0]",,0.00117050705012,-0.000751576910261,0.0529408268631,"[1.2184696791468346e-07, 0.0, 0.0, 0.0, 1.2184696791468346e-07, 0.0, 0.0, 0.0, 1.2184696791468346e-07]",,0.152534037828,-0.0171995442361,9.82227802277,"[8.999999999999999e-08, 0.0, 0.0, 0.0, 8.999999999999999e-08, 0.0, 0.0, 0.0, 8.999999999999999e-08]"
1520440529249516424,,651,,1520440529,215544652,"""base_link""",,0.00310345157996,0.00531734453127,0.159433435722,-0.987189532575,"[1.0, 0.0, 0.0, 0.0, 1.0, 0.0, 0.0, 0.0, 1.0]",,0.00211411481723,0.00068349565845,0.0524541437626,"[1.2184696791468346e-07, 0.0, 0.0, 0.0, 1.2184696791468346e-07, 0.0, 0.0, 0.0, 1.2184696791468346e-07]",,0.112866982818,-0.0479744300246,9.83612728119,"[8.999999999999999e-08, 0.0, 0.0, 0.0, 8.999999999999999e-08, 0.0, 0.0, 0.0, 8.999999999999999e-08]"
1520440529267191470,,652,,1520440529,235544652,"""base_link""",,0.00308156361847,0.00532470368382,0.158582701585,-0.987326551979,"[1.0, 0.0, 0.0, 0.0, 1.0, 0.0, 0.0, 0.0, 1.0]",,0.00221285969019,0.0012526109349,0.0515118837357,"[1.2184696791468346e-07, 0.0, 0.0, 0.0, 1.2184696791468346e-07, 0.0, 0.0, 0.0, 1.2184696791468346e-07]",,0.0988092795014,-0.0903923884034,9.81968307495,"[8.999999999999999e-08, 0.0, 0.0, 0.0, 8.999999999999999e-08, 0.0, 0.0, 0.0, 8.999999999999999e-08]"
1520440529276025578,,653,,1520440529,259544652,"""base_link""",,0.00307035445008,0.00533136560239,0.157539187762,-0.98749357994,"[1.0, 0.0, 0.0, 0.0, 1.0, 0.0, 0.0, 0.0, 1.0]",,0.0018175363075,-0.00183462072164,0.0527618788183,"[1.2184696791468346e-07, 0.0, 0.0, 0.0, 1.2184696791468346e-07, 0.0, 0.0, 0.0, 1.2184696791468346e-07]",,0.11508898437,-0.0449963286519,9.85031890869,"[8.999999999999999e-08, 0.0, 0.0, 0.0, 8.999999999999999e-08, 0.0, 0.0, 0.0, 8.999999999999999e-08]"
1520440529303611972,,654,,1520440529,293618510,"""base_link""",,0.00306258749384,0.00533327217105,0.156860497061,-0.987601686606,"[1.0, 0.0, 0.0, 0.0, 1.0, 0.0, 0.0, 0.0, 1.0]",,0.000892284617294,0.000838076230139,0.0510905832052,"[1.2184696791468346e-07, 0.0, 0.0, 0.0, 1.2184696791468346e-07, 0.0, 0.0, 0.0, 1.2184696791468346e-07]",,0.135387375951,-0.0308786835521,9.81259346008,"[8.999999999999999e-08, 0.0, 0.0, 0.0, 8.999999999999999e-08, 0.0, 0.0, 0.0, 8.999999999999999e-08]"
1520440529347558766,,655,,1520440529,317618510,"""base_link""",,0.00305295356391,0.00534019092197,0.15585133292,-0.987761423162,"[1.0, 0.0, 0.0, 0.0, 1.0, 0.0, 0.0, 0.0, 1.0]",,-0.000124694139231,-0.000265099748503,0.0510013103485,"[1.2184696791468346e-07, 0.0, 0.0, 0.0, 1.2184696791468346e-07, 0.0, 0.0, 0.0, 1.2184696791468346e-07]",,0.108064211905,-0.0551396273077,9.8379573822,"[8.999999999999999e-08, 0.0, 0.0, 0.0, 8.999999999999999e-08, 0.0, 0.0, 0.0, 8.999999999999999e-08]"
1520440529347573192,,656,,1520440529,333618510,"""base_link""",,0.00304618775995,0.00534852340331,0.155171841428,-0.98786830757,"[1.0, 0.0, 0.0, 0.0, 1.0, 0.0, 0.0, 0.0, 1.0]",,0.00223849900067,-0.00107355299406,0.0514846257865,"[1.2184696791468346e-07, 0.0, 0.0, 0.0, 1.2184696791468346e-07, 0.0, 0.0, 0.0, 1.2184696791468346e-07]",,0.110456876457,-0.0529292114079,9.82505321503,"[8.999999999999999e-08, 0.0, 0.0, 0.0, 8.999999999999999e-08, 0.0, 0.0, 0.0, 8.999999999999999e-08]"
1520440529391946871,,657,,1520440529,353618510,"""base_link""",,0.00304172184037,0.00536120532418,0.154321865934,-0.988001365171,"[1.0, 0.0, 0.0, 0.0, 1.0, 0.0, 0.0, 0.0, 1.0]",,-0.000167875143234,-0.00157571979798,0.0509403720498,"[1.2184696791468346e-07, 0.0, 0.0, 0.0, 1.2184696791468346e-07, 0.0, 0.0, 0.0, 1.2184696791468346e-07]",,0.10727199167,-0.0423543080688,9.80518054962,"[8.999999999999999e-08, 0.0, 0.0, 0.0, 8.999999999999999e-08, 0.0, 0.0, 0.0, 8.999999999999999e-08]"
1520440529391959798,,658,,1520440529,377618510,"""base_link""",,0.00304646015043,0.00535897541016,0.153309287899,-0.988159036531,"[1.0, 0.0, 0.0, 0.0, 1.0, 0.0, 0.0, 0.0, 1.0]",,0.000596173806116,0.000620265316684,0.0519526228309,"[1.2184696791468346e-07, 0.0, 0.0, 0.0, 1.2184696791468346e-07, 0.0, 0.0, 0.0, 1.2184696791468346e-07]",,0.13226826489,-0.0502256602049,9.82256603241,"[8.999999999999999e-08, 0.0, 0.0, 0.0, 8.999999999999999e-08, 0.0, 0.0, 0.0, 8.999999999999999e-08]"
1520440529392175159,,659,,1520440529,393618510,"""base_link""",,0.00304069080663,0.00536373059541,0.152650153335,-0.988261074051,"[1.0, 0.0, 0.0, 0.0, 1.0, 0.0, 0.0, 0.0, 1.0]",,0.00102141790558,-0.00139763113111,0.0503601320088,"[1.2184696791468346e-07, 0.0, 0.0, 0.0, 1.2184696791468346e-07, 0.0, 0.0, 0.0, 1.2184696791468346e-07]",,0.0839719697833,-0.070219270885,9.8263130188,"[8.999999999999999e-08, 0.0, 0.0, 0.0, 8.999999999999999e-08, 0.0, 0.0, 0.0, 8.999999999999999e-08]"
1520440529423834951,,660,,1520440529,395396830,"""base_link""",,0.0030413118141,0.00537204669546,0.151809197267,-0.988390507023,"[1.0, 0.0, 0.0, 0.0, 1.0, 0.0, 0.0, 0.0, 1.0]",,0.000632073613815,-0.00130599597469,0.0507609024644,"[1.2184696791468346e-07, 0.0, 0.0, 0.0, 1.2184696791468346e-07, 0.0, 0.0, 0.0, 1.2184696791468346e-07]",,0.102106310427,-0.0216722078621,9.85187625885,"[8.999999999999999e-08, 0.0, 0.0, 0.0, 8.999999999999999e-08, 0.0, 0.0, 0.0, 8.999999999999999e-08]"
1520440529452846098,,661,,1520440529,415396830,"""base_link""",,0.00302877205653,0.00539032369278,0.150965501653,-0.98851972926,"[1.0, 0.0, 0.0, 0.0, 1.0, 0.0, 0.0, 0.0, 1.0]",,0.00140031578485,-0.00113645917736,0.0519587360322,"[1.2184696791468346e-07, 0.0, 0.0, 0.0, 1.2184696791468346e-07, 0.0, 0.0, 0.0, 1.2184696791468346e-07]",,0.146440938115,-0.035711593926,9.81217098236,"[8.999999999999999e-08, 0.0, 0.0, 0.0, 8.999999999999999e-08, 0.0, 0.0, 0.0, 8.999999999999999e-08]"
1520440529479327759,,662,,1520440529,435396830,"""base_link""",,0.00302139578182,0.0053930644727,0.15012113169,-0.988648277148,"[1.0, 0.0, 0.0, 0.0, 1.0, 0.0, 0.0, 0.0, 1.0]",,0.000582467706408,0.00112466223072,0.0523798689246,"[1.2184696791468346e-07, 0.0, 0.0, 0.0, 1.2184696791468346e-07, 0.0, 0.0, 0.0, 1.2184696791468346e-07]",,0.119822271168,-0.0754038393497,9.85554409027,"[8.999999999999999e-08, 0.0, 0.0, 0.0, 8.999999999999999e-08, 0.0, 0.0, 0.0, 8.999999999999999e-08]"
1520440529480220192,,663,,1520440529,459396830,"""base_link""",,0.00301052296503,0.00539850232166,0.149107668571,-0.988801691677,"[1.0, 0.0, 0.0, 0.0, 1.0, 0.0, 0.0, 0.0, 1.0]",,0.00246159546077,-0.000864619505592,0.0531565099955,"[1.2184696791468346e-07, 0.0, 0.0, 0.0, 1.2184696791468346e-07, 0.0, 0.0, 0.0, 1.2184696791468346e-07]",,0.0958428904414,-0.0613334290683,9.85724067688,"[8.999999999999999e-08, 0.0, 0.0, 0.0, 8.999999999999999e-08, 0.0, 0.0, 0.0, 8.999999999999999e-08]"
1520440529501291842,,664,,1520440529,490765879,"""base_link""",,0.00299741998728,0.00539315222376,0.148246692749,-0.988931166796,"[1.0, 0.0, 0.0, 0.0, 1.0, 0.0, 0.0, 0.0, 1.0]",,0.00111296749674,-0.000120104465168,0.0519960336387,"[1.2184696791468346e-07, 0.0, 0.0, 0.0, 1.2184696791468346e-07, 0.0, 0.0, 0.0, 1.2184696791468346e-07]",,0.102779313922,-0.0358618050814,9.83651733398,"[8.999999999999999e-08, 0.0, 0.0, 0.0, 8.999999999999999e-08, 0.0, 0.0, 0.0, 8.999999999999999e-08]"
1520440529512813316,,665,,1520440529,506765879,"""base_link""",,0.00299099794355,0.00539302635944,0.147583469941,-0.989030464771,"[1.0, 0.0, 0.0, 0.0, 1.0, 0.0, 0.0, 0.0, 1.0]",,0.000574850884732,0.000560140237212,0.051641266793,"[1.2184696791468346e-07, 0.0, 0.0, 0.0, 1.2184696791468346e-07, 0.0, 0.0, 0.0, 1.2184696791468346e-07]",,0.125008538365,-0.0433212853968,9.81762218475,"[8.999999999999999e-08, 0.0, 0.0, 0.0, 8.999999999999999e-08, 0.0, 0.0, 0.0, 8.999999999999999e-08]"
1520440529533142010,,666,,1520440529,530765879,"""base_link""",,0.00297837092884,0.00540754734816,0.146568236654,-0.989181266195,"[1.0, 0.0, 0.0, 0.0, 1.0, 0.0, 0.0, 0.0, 1.0]",,0.00161904771812,-0.000861451320816,0.051146350801,"[1.2184696791468346e-07, 0.0, 0.0, 0.0, 1.2184696791468346e-07, 0.0, 0.0, 0.0, 1.2184696791468346e-07]",,0.100921697915,-0.0579803548753,9.84977722168,"[8.999999999999999e-08, 0.0, 0.0, 0.0, 8.999999999999999e-08, 0.0, 0.0, 0.0, 8.999999999999999e-08]"
1520440529563368147,,667,,1520440529,550765879,"""base_link""",,0.00297144155889,0.00542197622296,0.145738870969,-0.989303744936,"[1.0, 0.0, 0.0, 0.0, 1.0, 0.0, 0.0, 0.0, 1.0]",,0.00134876661468,-0.00178487214725,0.0514184013009,"[1.2184696791468346e-07, 0.0, 0.0, 0.0, 1.2184696791468346e-07, 0.0, 0.0, 0.0, 1.2184696791468346e-07]",,0.0982335880399,-0.0627488568425,9.86101436615,"[8.999999999999999e-08, 0.0, 0.0, 0.0, 8.999999999999999e-08, 0.0, 0.0, 0.0, 8.999999999999999e-08]"
1520440529574100272,,668,,1520440529,570765879,"""base_link""",,0.00296760841826,0.00540575404914,0.144929440744,-0.989422809783,"[1.0, 0.0, 0.0, 0.0, 1.0, 0.0, 0.0, 0.0, 1.0]",,0.000503883697093,0.00240149092861,0.0508851781487,"[1.2184696791468346e-07, 0.0, 0.0, 0.0, 1.2184696791468346e-07, 0.0, 0.0, 0.0, 1.2184696791468346e-07]",,0.126992642879,-0.0331451259553,9.84867572784,"[8.999999999999999e-08, 0.0, 0.0, 0.0, 8.999999999999999e-08, 0.0, 0.0, 0.0, 8.999999999999999e-08]"
1520440529592703578,,669,,1520440529,583857536,"""base_link""",,0.00295668349415,0.00539900890702,0.144258631503,-0.989520927647,"[1.0, 0.0, 0.0, 0.0, 1.0, 0.0, 0.0, 0.0, 1.0]",,0.00139290490188,0.000744692224544,0.0515799857676,"[1.2184696791468346e-07, 0.0, 0.0, 0.0, 1.2184696791468346e-07, 0.0, 0.0, 0.0, 1.2184696791468346e-07]",,0.12333881855,-0.0727047249675,9.87381649017,"[8.999999999999999e-08, 0.0, 0.0, 0.0, 8.999999999999999e-08, 0.0, 0.0, 0.0, 8.999999999999999e-08]"
1520440529612382149,,670,,1520440529,607857536,"""base_link""",,0.00295230878298,0.00538927759483,0.143247402167,-0.989667809414,"[1.0, 0.0, 0.0, 0.0, 1.0, 0.0, 0.0, 0.0, 1.0]",,0.00133062445093,0.000243666552706,0.0531935170293,"[1.2184696791468346e-07, 0.0, 0.0, 0.0, 1.2184696791468346e-07, 0.0, 0.0, 0.0, 1.2184696791468346e-07]",,0.113220281899,-0.0521419085562,9.85256481171,"[8.999999999999999e-08, 0.0, 0.0, 0.0, 8.999999999999999e-08, 0.0, 0.0, 0.0, 8.999999999999999e-08]"
1520440529643812346,,671,,1520440529,623857536,"""base_link""",,0.00293815913105,0.00540484048328,0.142558849102,-0.989767233829,"[1.0, 0.0, 0.0, 0.0, 1.0, 0.0, 0.0, 0.0, 1.0]",,0.00274811778218,-0.00269079394639,0.0518363825977,"[1.2184696791468346e-07, 0.0, 0.0, 0.0, 1.2184696791468346e-07, 0.0, 0.0, 0.0, 1.2184696791468346e-07]",,0.119903206825,-0.0363717004657,9.83340263367,"[8.999999999999999e-08, 0.0, 0.0, 0.0, 8.999999999999999e-08, 0.0, 0.0, 0.0, 8.999999999999999e-08]"
1520440529658667090,,672,,1520440529,647857536,"""base_link""",,0.00292691209635,0.00541618300693,0.141585214755,-0.989907034926,"[1.0, 0.0, 0.0, 0.0, 1.0, 0.0, 0.0, 0.0, 1.0]",,0.00105250603519,-0.000654359231703,0.0515953116119,"[1.2184696791468346e-07, 0.0, 0.0, 0.0, 1.2184696791468346e-07, 0.0, 0.0, 0.0, 1.2184696791468346e-07]",,0.109246388078,-0.0520772300661,9.80230712891,"[8.999999999999999e-08, 0.0, 0.0, 0.0, 8.999999999999999e-08, 0.0, 0.0, 0.0, 8.999999999999999e-08]"
1520440529672947108,,673,,1520440529,667857536,"""base_link""",,0.00291898618392,0.00543789818281,0.140771780579,-0.990022854466,"[1.0, 0.0, 0.0, 0.0, 1.0, 0.0, 0.0, 0.0, 1.0]",,0.00151689979248,-0.00157152209431,0.0523493103683,"[1.2184696791468346e-07, 0.0, 0.0, 0.0, 1.2184696791468346e-07, 0.0, 0.0, 0.0, 1.2184696791468346e-07]",,0.113287016749,-0.068257831037,9.86065196991,"[8.999999999999999e-08, 0.0, 0.0, 0.0, 8.999999999999999e-08, 0.0, 0.0, 0.0, 8.999999999999999e-08]"
1520440529692114945,,674,,1520440529,683902592,"""base_link""",,0.00291461970456,0.00545767460365,0.140097304562,-0.990118485665,"[1.0, 0.0, 0.0, 0.0, 1.0, 0.0, 0.0, 0.0, 1.0]",,0.000735015259124,-0.00232530990615,0.0511349402368,"[1.2184696791468346e-07, 0.0, 0.0, 0.0, 1.2184696791468346e-07, 0.0, 0.0, 0.0, 1.2184696791468346e-07]",,0.109031915665,-0.0401859171689,9.82850456238,"[8.999999999999999e-08, 0.0, 0.0, 0.0, 8.999999999999999e-08, 0.0, 0.0, 0.0, 8.999999999999999e-08]"
1520440529744024696,,675,,1520440529,707902592,"""base_link""",,0.00291277322808,0.00546137620001,0.139136314269,-0.990253903489,"[1.0, 0.0, 0.0, 0.0, 1.0, 0.0, 0.0, 0.0, 1.0]",,0.000801105750725,-0.000163672317285,0.0516558885574,"[1.2184696791468346e-07, 0.0, 0.0, 0.0, 1.2184696791468346e-07, 0.0, 0.0, 0.0, 1.2184696791468346e-07]",,0.16500787437,-0.0476724989712,9.80519771576,"[8.999999999999999e-08, 0.0, 0.0, 0.0, 8.999999999999999e-08, 0.0, 0.0, 0.0, 8.999999999999999e-08]"
1520440529744034565,,676,,1520440529,723902592,"""base_link""",,0.00290535423029,0.00546229733914,0.13846040526,-0.990348607458,"[1.0, 0.0, 0.0, 0.0, 1.0, 0.0, 0.0, 0.0, 1.0]",,0.0016082561342,0.000368861103198,0.0524073019624,"[1.2184696791468346e-07, 0.0, 0.0, 0.0, 1.2184696791468346e-07, 0.0, 0.0, 0.0, 1.2184696791468346e-07]",,0.110692024231,-0.0672349184751,9.83825969696,"[8.999999999999999e-08, 0.0, 0.0, 0.0, 8.999999999999999e-08, 0.0, 0.0, 0.0, 8.999999999999999e-08]"
1520440529779077250,,677,,1520440529,747902592,"""base_link""",,0.00289105813452,0.00548603630461,0.137473283921,-0.990486132625,"[1.0, 0.0, 0.0, 0.0, 1.0, 0.0, 0.0, 0.0, 1.0]",,0.00137599022128,-0.0024584417697,0.0515762045979,"[1.2184696791468346e-07, 0.0, 0.0, 0.0, 1.2184696791468346e-07, 0.0, 0.0, 0.0, 1.2184696791468346e-07]",,0.104106582701,-0.0511222481728,9.85014057159,"[8.999999999999999e-08, 0.0, 0.0, 0.0, 8.999999999999999e-08, 0.0, 0.0, 0.0, 8.999999999999999e-08]"
1520440529779094286,,678,,1520440529,763902592,"""base_link""",,0.00288834665983,0.00549333915162,0.136833874082,-0.99057459886,"[1.0, 0.0, 0.0, 0.0, 1.0, 0.0, 0.0, 0.0, 1.0]",,0.00147299375385,-0.00127234077081,0.0524157322943,"[1.2184696791468346e-07, 0.0, 0.0, 0.0, 1.2184696791468346e-07, 0.0, 0.0, 0.0, 1.2184696791468346e-07]",,0.127664223313,-0.0295847374946,9.82444095612,"[8.999999999999999e-08, 0.0, 0.0, 0.0, 8.999999999999999e-08, 0.0, 0.0, 0.0, 8.999999999999999e-08]"
1520440529800948317,,679,,1520440529,793526464,"""base_link""",,0.00288361114859,0.00550346814238,0.135817123508,-0.990714526397,"[1.0, 0.0, 0.0, 0.0, 1.0, 0.0, 0.0, 0.0, 1.0]",,-0.000158601091243,0.00111965578981,0.0516603924334,"[1.2184696791468346e-07, 0.0, 0.0, 0.0, 1.2184696791468346e-07, 0.0, 0.0, 0.0, 1.2184696791468346e-07]",,0.129812762141,-0.0787132754922,9.84305095673,"[8.999999999999999e-08, 0.0, 0.0, 0.0, 8.999999999999999e-08, 0.0, 0.0, 0.0, 8.999999999999999e-08]"
1520440529822256290,,680,,1520440529,813526464,"""base_link""",,0.00287390938858,0.00551634079419,0.135002635661,-0.990825836224,"[1.0, 0.0, 0.0, 0.0, 1.0, 0.0, 0.0, 0.0, 1.0]",,0.00289509445429,-0.00197628699243,0.0521817877889,"[1.2184696791468346e-07, 0.0, 0.0, 0.0, 1.2184696791468346e-07, 0.0, 0.0, 0.0, 1.2184696791468346e-07]",,0.107553116977,-0.0506438650191,9.83360958099,"[8.999999999999999e-08, 0.0, 0.0, 0.0, 8.999999999999999e-08, 0.0, 0.0, 0.0, 8.999999999999999e-08]"
1520440529850672822,,681,,1520440529,829526464,"""base_link""",,0.00286342552465,0.00552270546223,0.134345271265,-0.990915061102,"[1.0, 0.0, 0.0, 0.0, 1.0, 0.0, 0.0, 0.0, 1.0]",,0.000679522869177,-5.97503385507e-05,0.0517708398402,"[1.2184696791468346e-07, 0.0, 0.0, 0.0, 1.2184696791468346e-07, 0.0, 0.0, 0.0, 1.2184696791468346e-07]",,0.136918336153,-0.0374860875309,9.79548931122,"[8.999999999999999e-08, 0.0, 0.0, 0.0, 8.999999999999999e-08, 0.0, 0.0, 0.0, 8.999999999999999e-08]"
1520440529876909115,,682,,1520440529,853526464,"""base_link""",,0.00285692931235,0.0055393426014,0.133364471953,-0.991047528647,"[1.0, 0.0, 0.0, 0.0, 1.0, 0.0, 0.0, 0.0, 1.0]",,0.000619021360762,-0.00112104299478,0.0517671443522,"[1.2184696791468346e-07, 0.0, 0.0, 0.0, 1.2184696791468346e-07, 0.0, 0.0, 0.0, 1.2184696791468346e-07]",,0.130649000406,-0.0671993643045,9.80615997314,"[8.999999999999999e-08, 0.0, 0.0, 0.0, 8.999999999999999e-08, 0.0, 0.0, 0.0, 8.999999999999999e-08]"
1520440529878332033,,683,,1520440529,869526464,"""base_link""",,0.00285495474896,0.00555471196008,0.132716000542,-0.991134435448,"[1.0, 0.0, 0.0, 0.0, 1.0, 0.0, 0.0, 0.0, 1.0]",,0.00162574881688,-0.00190550531261,0.0509705767035,"[1.2184696791468346e-07, 0.0, 0.0, 0.0, 1.2184696791468346e-07, 0.0, 0.0, 0.0, 1.2184696791468346e-07]",,0.0894482061267,-0.0673092901707,9.82810688019,"[8.999999999999999e-08, 0.0, 0.0, 0.0, 8.999999999999999e-08, 0.0, 0.0, 0.0, 8.999999999999999e-08]"
1520440529901470444,,684,,1520440529,895527872,"""base_link""",,0.0028436399665,0.00556568825067,0.13174910969,-0.991263446952,"[1.0, 0.0, 0.0, 0.0, 1.0, 0.0, 0.0, 0.0, 1.0]",,0.00092145067174,-0.00155966880266,0.0524320341647,"[1.2184696791468346e-07, 0.0, 0.0, 0.0, 1.2184696791468346e-07, 0.0, 0.0, 0.0, 1.2184696791468346e-07]",,0.121350355446,-0.0315677151084,9.84002971649,"[8.999999999999999e-08, 0.0, 0.0, 0.0, 8.999999999999999e-08, 0.0, 0.0, 0.0, 8.999999999999999e-08]"
1520440529943276035,,685,,1520440529,911527872,"""base_link""",,0.00284585629804,0.00557305440027,0.13109541207,-0.991350100872,"[1.0, 0.0, 0.0, 0.0, 1.0, 0.0, 0.0, 0.0, 1.0]",,-0.000395335664507,0.000588681607042,0.0515720881522,"[1.2184696791468346e-07, 0.0, 0.0, 0.0, 1.2184696791468346e-07, 0.0, 0.0, 0.0, 1.2184696791468346e-07]",,0.132363155484,-0.0583277642727,9.83096694946,"[8.999999999999999e-08, 0.0, 0.0, 0.0, 8.999999999999999e-08, 0.0, 0.0, 0.0, 8.999999999999999e-08]"
1520440529943287242,,686,,1520440529,931527872,"""base_link""",,0.00284292149444,0.00557203596118,0.130283410886,-0.991457069574,"[1.0, 0.0, 0.0, 0.0, 1.0, 0.0, 0.0, 0.0, 1.0]",,0.00124025077093,-0.000720494543202,0.0520624481142,"[1.2184696791468346e-07, 0.0, 0.0, 0.0, 1.2184696791468346e-07, 0.0, 0.0, 0.0, 1.2184696791468346e-07]",,0.0955509096384,-0.0779308974743,9.82694244385,"[8.999999999999999e-08, 0.0, 0.0, 0.0, 8.999999999999999e-08, 0.0, 0.0, 0.0, 8.999999999999999e-08]"
1520440529951524318,,687,,1520440529,951527872,"""base_link""",,0.0028439375463,0.00556808148373,0.129481061331,-0.991562225961,"[1.0, 0.0, 0.0, 0.0, 1.0, 0.0, 0.0, 0.0, 1.0]",,0.000430694839451,-2.31071026064e-05,0.0528166331351,"[1.2184696791468346e-07, 0.0, 0.0, 0.0, 1.2184696791468346e-07, 0.0, 0.0, 0.0, 1.2184696791468346e-07]",,0.099387049675,-0.0449353270233,9.83219909668,"[8.999999999999999e-08, 0.0, 0.0, 0.0, 8.999999999999999e-08, 0.0, 0.0, 0.0, 8.999999999999999e-08]"
1520440529977198710,,688,,1520440529,971527872,"""base_link""",,0.00284157674655,0.00556408732897,0.128658818464,-0.991669321103,"[1.0, 0.0, 0.0, 0.0, 1.0, 0.0, 0.0, 0.0, 1.0]",,0.000308213522658,0.000503194984049,0.052301120013,"[1.2184696791468346e-07, 0.0, 0.0, 0.0, 1.2184696791468346e-07, 0.0, 0.0, 0.0, 1.2184696791468346e-07]",,0.140571251512,-0.0477477274835,9.82064914703,"[8.999999999999999e-08, 0.0, 0.0, 0.0, 8.999999999999999e-08, 0.0, 0.0, 0.0, 8.999999999999999e-08]"
1520440529997086925,,689,,1520440529,985096930,"""base_link""",,0.0028321650754,0.0055810860914,0.127710261491,-0.991791799845,"[1.0, 0.0, 0.0, 0.0, 1.0, 0.0, 0.0, 0.0, 1.0]",,0.00090709910728,-0.000956864503678,0.0508626624942,"[1.2184696791468346e-07, 0.0, 0.0, 0.0, 1.2184696791468346e-07, 0.0, 0.0, 0.0, 1.2184696791468346e-07]",,0.137926518917,-0.0670182257891,9.85089302063,"[8.999999999999999e-08, 0.0, 0.0, 0.0, 8.999999999999999e-08, 0.0, 0.0, 0.0, 8.999999999999999e-08]"
1520440530011914624,,690,,1520440530,1096930,"""base_link""",,0.0028227180898,0.00558336745421,0.127063855275,-0.991874786989,"[1.0, 0.0, 0.0, 0.0, 1.0, 0.0, 0.0, 0.0, 1.0]",,0.00170436571352,0.000154699926497,0.0509801469743,"[1.2184696791468346e-07, 0.0, 0.0, 0.0, 1.2184696791468346e-07, 0.0, 0.0, 0.0, 1.2184696791468346e-07]",,0.0881207361817,-0.0494405664504,9.85779666901,"[8.999999999999999e-08, 0.0, 0.0, 0.0, 8.999999999999999e-08, 0.0, 0.0, 0.0, 8.999999999999999e-08]"
1520440530042765551,,691,,1520440530,21096930,"""base_link""",,0.00281471916125,0.00557787478143,0.126265088202,-0.99197695095,"[1.0, 0.0, 0.0, 0.0, 1.0, 0.0, 0.0, 0.0, 1.0]",,-0.000243087881245,0.000176029396243,0.0526281036437,"[1.2184696791468346e-07, 0.0, 0.0, 0.0, 1.2184696791468346e-07, 0.0, 0.0, 0.0, 1.2184696791468346e-07]",,0.106198146939,-0.0257613249123,9.8280544281,"[8.999999999999999e-08, 0.0, 0.0, 0.0, 8.999999999999999e-08, 0.0, 0.0, 0.0, 8.999999999999999e-08]"
1520440530063694444,,692,,1520440530,45096930,"""base_link""",,0.00282512589315,0.00556824183932,0.125313075188,-0.992097659524,"[1.0, 0.0, 0.0, 0.0, 1.0, 0.0, 0.0, 0.0, 1.0]",,-0.000129596330225,0.000615871220361,0.0529156029224,"[1.2184696791468346e-07, 0.0, 0.0, 0.0, 1.2184696791468346e-07, 0.0, 0.0, 0.0, 1.2184696791468346e-07]",,0.13282930851,-0.046347912401,9.76701450348,"[8.999999999999999e-08, 0.0, 0.0, 0.0, 8.999999999999999e-08, 0.0, 0.0, 0.0, 8.999999999999999e-08]"
1520440530077724411,,693,,1520440530,61096930,"""base_link""",,0.00282385095099,0.00557479238154,0.124652718366,-0.992180773109,"[1.0, 0.0, 0.0, 0.0, 1.0, 0.0, 0.0, 0.0, 1.0]",,0.000705371145159,-0.000948090048041,0.0523446798325,"[1.2184696791468346e-07, 0.0, 0.0, 0.0, 1.2184696791468346e-07, 0.0, 0.0, 0.0, 1.2184696791468346e-07]",,0.0945917442441,-0.062834367156,9.83210372925,"[8.999999999999999e-08, 0.0, 0.0, 0.0, 8.999999999999999e-08, 0.0, 0.0, 0.0, 8.999999999999999e-08]"
1520440530101858498,,694,,1520440530,87190208,"""base_link""",,0.00283317429486,0.00555146772288,0.12370968263,-0.992298910726,"[1.0, 0.0, 0.0, 0.0, 1.0, 0.0, 0.0, 0.0, 1.0]",,-0.000571312732063,0.00185967492871,0.0522897988558,"[1.2184696791468346e-07, 0.0, 0.0, 0.0, 1.2184696791468346e-07, 0.0, 0.0, 0.0, 1.2184696791468346e-07]",,0.111318074167,-0.0323023870587,9.81835269928,"[8.999999999999999e-08, 0.0, 0.0, 0.0, 8.999999999999999e-08, 0.0, 0.0, 0.0, 8.999999999999999e-08]"
1520440530123180568,,695,,1520440530,107190208,"""base_link""",,0.00284120755004,0.00554670940954,0.122898187209,-0.992399810281,"[1.0, 0.0, 0.0, 0.0, 1.0, 0.0, 0.0, 0.0, 1.0]",,0.000220721820369,-0.000244868919253,0.0521167479455,"[1.2184696791468346e-07, 0.0, 0.0, 0.0, 1.2184696791468346e-07, 0.0, 0.0, 0.0, 1.2184696791468346e-07]",,0.128119617701,-0.0334038063884,9.82678699493,"[8.999999999999999e-08, 0.0, 0.0, 0.0, 8.999999999999999e-08, 0.0, 0.0, 0.0, 8.999999999999999e-08]"
1520440530132964774,,696,,1520440530,123190208,"""base_link""",,0.00283846800488,0.00555350888159,0.122282042431,-0.992475801049,"[1.0, 0.0, 0.0, 0.0, 1.0, 0.0, 0.0, 0.0, 1.0]",,7.95237137936e-05,-0.000534466118552,0.0515121370554,"[1.2184696791468346e-07, 0.0, 0.0, 0.0, 1.2184696791468346e-07, 0.0, 0.0, 0.0, 1.2184696791468346e-07]",,0.119141198695,-0.0729119256139,9.87349891663,"[8.999999999999999e-08, 0.0, 0.0, 0.0, 8.999999999999999e-08, 0.0, 0.0, 0.0, 8.999999999999999e-08]"
1520440530162335070,,697,,1520440530,147190208,"""base_link""",,0.0028392573528,0.00554903102589,0.121335087038,-0.992592042057,"[1.0, 0.0, 0.0, 0.0, 1.0, 0.0, 0.0, 0.0, 1.0]",,0.00109282904305,0.000296492653433,0.0516908466816,"[1.2184696791468346e-07, 0.0, 0.0, 0.0, 1.2184696791468346e-07, 0.0, 0.0, 0.0, 1.2184696791468346e-07]",,0.101684525609,-0.0478940680623,9.84786510468,"[8.999999999999999e-08, 0.0, 0.0, 0.0, 8.999999999999999e-08, 0.0, 0.0, 0.0, 8.999999999999999e-08]"
1520440530172835464,,698,,1520440530,163190208,"""base_link""",,0.00283854406678,0.00554773377552,0.120702800017,-0.992669086496,"[1.0, 0.0, 0.0, 0.0, 1.0, 0.0, 0.0, 0.0, 1.0]",,0.000329235801473,-0.000252246041782,0.0523690246046,"[1.2184696791468346e-07, 0.0, 0.0, 0.0, 1.2184696791468346e-07, 0.0, 0.0, 0.0, 1.2184696791468346e-07]",,0.128207668662,-0.0204321332276,9.81500530243,"[8.999999999999999e-08, 0.0, 0.0, 0.0, 8.999999999999999e-08, 0.0, 0.0, 0.0, 8.999999999999999e-08]"
1520440530194324597,,699,,1520440530,183807424,"""base_link""",,0.00282318746739,0.00555629221995,0.119928899585,-0.992762989675,"[1.0, 0.0, 0.0, 0.0, 1.0, 0.0, 0.0, 0.0, 1.0]",,0.00251082750037,-0.000220878166147,0.0500556528568,"[1.2184696791468346e-07, 0.0, 0.0, 0.0, 1.2184696791468346e-07, 0.0, 0.0, 0.0, 1.2184696791468346e-07]",,0.138117611408,-0.0506582856178,9.83009815216,"[8.999999999999999e-08, 0.0, 0.0, 0.0, 8.999999999999999e-08, 0.0, 0.0, 0.0, 8.999999999999999e-08]"
1520440530213651441,,700,,1520440530,203807424,"""base_link""",,0.00281130230307,0.00556576381865,0.119149857237,-0.99285680856,"[1.0, 0.0, 0.0, 0.0, 1.0, 0.0, 0.0, 0.0, 1.0]",,0.00138736632653,-0.000757577130571,0.0510354414582,"[1.2184696791468346e-07, 0.0, 0.0, 0.0, 1.2184696791468346e-07, 0.0, 0.0, 0.0, 1.2184696791468346e-07]",,0.087463952601,-0.0622933506966,9.81220149994,"[8.999999999999999e-08, 0.0, 0.0, 0.0, 8.999999999999999e-08, 0.0, 0.0, 0.0, 8.999999999999999e-08]"
1520440530251255625,,701,,1520440530,223807424,"""base_link""",,0.00280840404869,0.00555516652043,0.118366558057,-0.992950501004,"[1.0, 0.0, 0.0, 0.0, 1.0, 0.0, 0.0, 0.0, 1.0]",,0.000394773378503,0.00134898722172,0.0530959591269,"[1.2184696791468346e-07, 0.0, 0.0, 0.0, 1.2184696791468346e-07, 0.0, 0.0, 0.0, 1.2184696791468346e-07]",,0.103620842099,-0.033825006336,9.83791923523,"[8.999999999999999e-08, 0.0, 0.0, 0.0, 8.999999999999999e-08, 0.0, 0.0, 0.0, 8.999999999999999e-08]"
1520440530267924336,,702,,1520440530,247807424,"""base_link""",,0.00280625299537,0.00556807819101,0.117428706384,-0.993061768684,"[1.0, 0.0, 0.0, 0.0, 1.0, 0.0, 0.0, 0.0, 1.0]",,0.00109365466051,-0.00239162053913,0.0508291497827,"[1.2184696791468346e-07, 0.0, 0.0, 0.0, 1.2184696791468346e-07, 0.0, 0.0, 0.0, 1.2184696791468346e-07]",,0.139749526978,-0.0366451404989,9.81634140015,"[8.999999999999999e-08, 0.0, 0.0, 0.0, 8.999999999999999e-08, 0.0, 0.0, 0.0, 8.999999999999999e-08]"
1520440530278258523,,703,,1520440530,263807424,"""base_link""",,0.00279807625981,0.00557929937783,0.116810327823,-0.993134682732,"[1.0, 0.0, 0.0, 0.0, 1.0, 0.0, 0.0, 0.0, 1.0]",,0.000996316433884,-0.000788650882896,0.052370287478,"[1.2184696791468346e-07, 0.0, 0.0, 0.0, 1.2184696791468346e-07, 0.0, 0.0, 0.0, 1.2184696791468346e-07]",,0.119048193097,-0.06039596349,9.86180400848,"[8.999999999999999e-08, 0.0, 0.0, 0.0, 8.999999999999999e-08, 0.0, 0.0, 0.0, 8.999999999999999e-08]"
1520440530301885055,,704,,1520440530,292800448,"""base_link""",,0.00278914046938,0.00560185123451,0.115882591393,-0.99324316872,"[1.0, 0.0, 0.0, 0.0, 1.0, 0.0, 0.0, 0.0, 1.0]",,0.00142841460183,-0.00140064558946,0.0510350391269,"[1.2184696791468346e-07, 0.0, 0.0, 0.0, 1.2184696791468346e-07, 0.0, 0.0, 0.0, 1.2184696791468346e-07]",,0.101553194225,-0.0547143779695,9.86445236206,"[8.999999999999999e-08, 0.0, 0.0, 0.0, 8.999999999999999e-08, 0.0, 0.0, 0.0, 8.999999999999999e-08]"
1520440530332669747,,705,,1520440530,308800448,"""base_link""",,0.00278643632099,0.00560145363826,0.115258227979,-0.99331591418,"[1.0, 0.0, 0.0, 0.0, 1.0, 0.0, 0.0, 0.0, 1.0]",,0.000806490657851,-2.93041230179e-05,0.0527094006538,"[1.2184696791468346e-07, 0.0, 0.0, 0.0, 1.2184696791468346e-07, 0.0, 0.0, 0.0, 1.2184696791468346e-07]",,0.13827008009,-0.0330494865775,9.82262516022,"[8.999999999999999e-08, 0.0, 0.0, 0.0, 8.999999999999999e-08, 0.0, 0.0, 0.0, 8.999999999999999e-08]"
1520440530332695474,,706,,1520440530,328800448,"""base_link""",,0.00277394982321,0.00560496878421,0.114476024618,-0.993406403464,"[1.0, 0.0, 0.0, 0.0, 1.0, 0.0, 0.0, 0.0, 1.0]",,0.00194790307432,-0.000274168560281,0.0523756444454,"[1.2184696791468346e-07, 0.0, 0.0, 0.0, 1.2184696791468346e-07, 0.0, 0.0, 0.0, 1.2184696791468346e-07]",,0.0988327115774,-0.0612972900271,9.84586524963,"[8.999999999999999e-08, 0.0, 0.0, 0.0, 8.999999999999999e-08, 0.0, 0.0, 0.0, 8.999999999999999e-08]"
1520440530376959794,,707,,1520440530,352800448,"""base_link""",,0.00276531399981,0.00561197405142,0.113556043209,-0.993511939173,"[1.0, 0.0, 0.0, 0.0, 1.0, 0.0, 0.0, 0.0, 1.0]",,6.90675806254e-05,0.000337852427037,0.0517671257257,"[1.2184696791468346e-07, 0.0, 0.0, 0.0, 1.2184696791468346e-07, 0.0, 0.0, 0.0, 1.2184696791468346e-07]",,0.102215841413,-0.0592968054116,9.84112548828,"[8.999999999999999e-08, 0.0, 0.0, 0.0, 8.999999999999999e-08, 0.0, 0.0, 0.0, 8.999999999999999e-08]"
1520440530377064810,,708,,1520440530,372800448,"""base_link""",,0.00276027037206,0.00560628472077,0.112779613965,-0.993600447555,"[1.0, 0.0, 0.0, 0.0, 1.0, 0.0, 0.0, 0.0, 1.0]",,0.00143919372931,-0.00137558183633,0.0516130514443,"[1.2184696791468346e-07, 0.0, 0.0, 0.0, 1.2184696791468346e-07, 0.0, 0.0, 0.0, 1.2184696791468346e-07]",,0.105264894664,-0.027666227892,9.81482219696,"[8.999999999999999e-08, 0.0, 0.0, 0.0, 8.999999999999999e-08, 0.0, 0.0, 0.0, 8.999999999999999e-08]"
1520440530392260469,,709,,1520440530,388001216,"""base_link""",,0.00274711578087,0.00561003529638,0.11215954953,-0.993670579911,"[1.0, 0.0, 0.0, 0.0, 1.0, 0.0, 0.0, 0.0, 1.0]",,0.00145581876859,0.000597176549491,0.0518645904958,"[1.2184696791468346e-07, 0.0, 0.0, 0.0, 1.2184696791468346e-07, 0.0, 0.0, 0.0, 1.2184696791468346e-07]",,0.125657767057,-0.0406819954514,9.82964134216,"[8.999999999999999e-08, 0.0, 0.0, 0.0, 8.999999999999999e-08, 0.0, 0.0, 0.0, 8.999999999999999e-08]"
1520440530421884350,,710,,1520440530,412001216,"""base_link""",,0.00274078157052,0.00560890227056,0.111239230946,-0.993774092571,"[1.0, 0.0, 0.0, 0.0, 1.0, 0.0, 0.0, 0.0, 1.0]",,0.00122860400006,-0.0017098269891,0.0516688302159,"[1.2184696791468346e-07, 0.0, 0.0, 0.0, 1.2184696791468346e-07, 0.0, 0.0, 0.0, 1.2184696791468346e-07]",,0.118794769049,-0.0895002633333,9.86286830902,"[8.999999999999999e-08, 0.0, 0.0, 0.0, 8.999999999999999e-08, 0.0, 0.0, 0.0, 8.999999999999999e-08]"
1520440530441780052,,711,,1520440530,432001216,"""base_link""",,0.00273503823923,0.0056257908091,0.110481051288,-0.993858597002,"[1.0, 0.0, 0.0, 0.0, 1.0, 0.0, 0.0, 0.0, 1.0]",,0.00095048075309,-0.000398386560846,0.051305886358,"[1.2184696791468346e-07, 0.0, 0.0, 0.0, 1.2184696791468346e-07, 0.0, 0.0, 0.0, 1.2184696791468346e-07]",,0.0941364169121,-0.0604291073978,9.84558200836,"[8.999999999999999e-08, 0.0, 0.0, 0.0, 8.999999999999999e-08, 0.0, 0.0, 0.0, 8.999999999999999e-08]"
1520440530462141090,,712,,1520440530,452001216,"""base_link""",,0.00273864475823,0.00562530842525,0.109713894352,-0.993943480755,"[1.0, 0.0, 0.0, 0.0, 1.0, 0.0, 0.0, 0.0, 1.0]",,-0.000198941910639,-0.000495030952152,0.0520652718842,"[1.2184696791468346e-07, 0.0, 0.0, 0.0, 1.2184696791468346e-07, 0.0, 0.0, 0.0, 1.2184696791468346e-07]",,0.102847903967,-0.0372159704566,9.8246421814,"[8.999999999999999e-08, 0.0, 0.0, 0.0, 8.999999999999999e-08, 0.0, 0.0, 0.0, 8.999999999999999e-08]"
1520440530502988805,,713,,1520440530,468001216,"""base_link""",,0.00273828799174,0.00561431978695,0.109094124944,-0.994011800796,"[1.0, 0.0, 0.0, 0.0, 1.0, 0.0, 0.0, 0.0, 1.0]",,2.0639563445e-05,0.0022804425098,0.0525104478002,"[1.2184696791468346e-07, 0.0, 0.0, 0.0, 1.2184696791468346e-07, 0.0, 0.0, 0.0, 1.2184696791468346e-07]",,0.124762274325,-0.0687835067511,9.81946372986,"[8.999999999999999e-08, 0.0, 0.0, 0.0, 8.999999999999999e-08, 0.0, 0.0, 0.0, 8.999999999999999e-08]"
1520440530503030196,,714,,1520440530,489934016,"""base_link""",,0.00274167077024,0.00560355670015,0.108333332182,-0.994095040822,"[1.0, 0.0, 0.0, 0.0, 1.0, 0.0, 0.0, 0.0, 1.0]",,0.000620201288257,0.000401296303608,0.0508595667779,"[1.2184696791468346e-07, 0.0, 0.0, 0.0, 1.2184696791468346e-07, 0.0, 0.0, 0.0, 1.2184696791468346e-07]",,0.087363563478,-0.0545318238437,9.83211231232,"[8.999999999999999e-08, 0.0, 0.0, 0.0, 8.999999999999999e-08, 0.0, 0.0, 0.0, 8.999999999999999e-08]"
1520440530547828423,,715,,1520440530,509934016,"""base_link""",,0.00274038693773,0.00559444409052,0.107574646762,-0.994177437911,"[1.0, 0.0, 0.0, 0.0, 1.0, 0.0, 0.0, 0.0, 1.0]",,4.08744672313e-05,0.000972140464,0.0520175397396,"[1.2184696791468346e-07, 0.0, 0.0, 0.0, 1.2184696791468346e-07, 0.0, 0.0, 0.0, 1.2184696791468346e-07]",,0.124913886189,-0.0295104831457,9.80782222748,"[8.999999999999999e-08, 0.0, 0.0, 0.0, 8.999999999999999e-08, 0.0, 0.0, 0.0, 8.999999999999999e-08]"
1520440530547855028,,716,,1520440530,533934016,"""base_link""",,0.00273886602918,0.00560485469138,0.106674516518,-0.994274417809,"[1.0, 0.0, 0.0, 0.0, 1.0, 0.0, 0.0, 0.0, 1.0]",,0.000795630272478,-0.00143129238859,0.0505010597408,"[1.2184696791468346e-07, 0.0, 0.0, 0.0, 1.2184696791468346e-07, 0.0, 0.0, 0.0, 1.2184696791468346e-07]",,0.133312001824,-0.0553890280426,9.80453968048,"[8.999999999999999e-08, 0.0, 0.0, 0.0, 8.999999999999999e-08, 0.0, 0.0, 0.0, 8.999999999999999e-08]"
1520440530548851742,,717,,1520440530,549934016,"""base_link""",,0.00272983606689,0.00560151126091,0.106040375035,-0.994342358529,"[1.0, 0.0, 0.0, 0.0, 1.0, 0.0, 0.0, 0.0, 1.0]",,0.0020951682236,0.00119053549133,0.0513867475092,"[1.2184696791468346e-07, 0.0, 0.0, 0.0, 1.2184696791468346e-07, 0.0, 0.0, 0.0, 1.2184696791468346e-07]",,0.0973261222243,-0.0677217468619,9.85093212128,"[8.999999999999999e-08, 0.0, 0.0, 0.0, 8.999999999999999e-08, 0.0, 0.0, 0.0, 8.999999999999999e-08]"
1520440530592350461,,718,,1520440530,569934016,"""base_link""",,0.00272070781683,0.0055832908161,0.105278486455,-0.994423406919,"[1.0, 0.0, 0.0, 0.0, 1.0, 0.0, 0.0, 0.0, 1.0]",,0.00115375372116,0.00103925156873,0.0514149218798,"[1.2184696791468346e-07, 0.0, 0.0, 0.0, 1.2184696791468346e-07, 0.0, 0.0, 0.0, 1.2184696791468346e-07]",,0.09573238343,-0.0142472805455,9.81762218475,"[8.999999999999999e-08, 0.0, 0.0, 0.0, 8.999999999999999e-08, 0.0, 0.0, 0.0, 8.999999999999999e-08]"
1520440530592370449,,719,,1520440530,593934016,"""base_link""",,0.0027028026502,0.00559236094961,0.104381095756,-0.994517984447,"[1.0, 0.0, 0.0, 0.0, 1.0, 0.0, 0.0, 0.0, 1.0]",,0.000818621949293,0.000245317496592,0.0520917698741,"[1.2184696791468346e-07, 0.0, 0.0, 0.0, 1.2184696791468346e-07, 0.0, 0.0, 0.0, 1.2184696791468346e-07]",,0.122649937868,-0.0420350171626,9.84757804871,"[8.999999999999999e-08, 0.0, 0.0, 0.0, 8.999999999999999e-08, 0.0, 0.0, 0.0, 8.999999999999999e-08]"
1520440530654730810,,720,,1520440530,595053098,"""base_link""",,0.0027006238557,0.00558859111157,0.103774181138,-0.994581541894,"[1.0, 0.0, 0.0, 0.0, 1.0, 0.0, 0.0, 0.0, 1.0]",,0.00111975823529,-0.000617154466454,0.051717326045,"[1.2184696791468346e-07, 0.0, 0.0, 0.0, 1.2184696791468346e-07, 0.0, 0.0, 0.0, 1.2184696791468346e-07]",,0.0960253551602,-0.071754693985,9.8202419281,"[8.999999999999999e-08, 0.0, 0.0, 0.0, 8.999999999999999e-08, 0.0, 0.0, 0.0, 8.999999999999999e-08]"
1520440530655300972,,721,,1520440530,615053098,"""base_link""",,0.00269841789623,0.00559215696544,0.103030879317,-0.994658839214,"[1.0, 0.0, 0.0, 0.0, 1.0, 0.0, 0.0, 0.0, 1.0]",,0.000354443152901,-0.000583377608564,0.0505914278328,"[1.2184696791468346e-07, 0.0, 0.0, 0.0, 1.2184696791468346e-07, 0.0, 0.0, 0.0, 1.2184696791468346e-07]",,0.120179019868,-0.0498896129429,9.79082870483,"[8.999999999999999e-08, 0.0, 0.0, 0.0, 8.999999999999999e-08, 0.0, 0.0, 0.0, 8.999999999999999e-08]"
1520440530655307691,,722,,1520440530,635053098,"""base_link""",,0.00269541509791,0.00559596845642,0.102272446778,-0.994737021618,"[1.0, 0.0, 0.0, 0.0, 1.0, 0.0, 0.0, 0.0, 1.0]",,0.000170363637153,0.000583614397328,0.0519011877477,"[1.2184696791468346e-07, 0.0, 0.0, 0.0, 1.2184696791468346e-07, 0.0, 0.0, 0.0, 1.2184696791468346e-07]",,0.122659705579,-0.000793136772698,9.79065036774,"[8.999999999999999e-08, 0.0, 0.0, 0.0, 8.999999999999999e-08, 0.0, 0.0, 0.0, 8.999999999999999e-08]"
1520440530702378007,,723,,1520440530,655053098,"""base_link""",,0.00267821671418,0.00560797421671,0.101532853881,-0.994812885946,"[1.0, 0.0, 0.0, 0.0, 1.0, 0.0, 0.0, 0.0, 1.0]",,0.00176657526754,-0.00135096895974,0.0518818795681,"[1.2184696791468346e-07, 0.0, 0.0, 0.0, 1.2184696791468346e-07, 0.0, 0.0, 0.0, 1.2184696791468346e-07]",,0.120971664786,-0.0894244238734,9.82922077179,"[8.999999999999999e-08, 0.0, 0.0, 0.0, 8.999999999999999e-08, 0.0, 0.0, 0.0, 8.999999999999999e-08]"
1520440530702393993,,724,,1520440530,689686575,"""base_link""",,0.00268111645028,0.00562858320245,0.100777203034,-0.99488946677,"[1.0, 0.0, 0.0, 0.0, 1.0, 0.0, 0.0, 0.0, 1.0]",,0.000458906986751,-0.00188806885853,0.0524201206863,"[1.2184696791468346e-07, 0.0, 0.0, 0.0, 1.2184696791468346e-07, 0.0, 0.0, 0.0, 1.2184696791468346e-07]",,0.105029195547,-0.0579650960863,9.84783935547,"[8.999999999999999e-08, 0.0, 0.0, 0.0, 8.999999999999999e-08, 0.0, 0.0, 0.0, 8.999999999999999e-08]"
1520440530749328118,,725,,1520440530,709686575,"""base_link""",,0.00267934052038,0.0056344421083,0.100022858739,-0.994965583978,"[1.0, 0.0, 0.0, 0.0, 1.0, 0.0, 0.0, 0.0, 1.0]",,0.000785050040577,-0.000259320891928,0.053218126297,"[1.2184696791468346e-07, 0.0, 0.0, 0.0, 1.2184696791468346e-07, 0.0, 0.0, 0.0, 1.2184696791468346e-07]",,0.113257795572,-0.0285933278501,9.84861183167,"[8.999999999999999e-08, 0.0, 0.0, 0.0, 8.999999999999999e-08, 0.0, 0.0, 0.0, 8.999999999999999e-08]"
1520440530749341532,,726,,1520440530,729686575,"""base_link""",,0.00265955323355,0.00563202854268,0.0992562497116,-0.995042501976,"[1.0, 0.0, 0.0, 0.0, 1.0, 0.0, 0.0, 0.0, 1.0]",,0.00150258257054,0.000902656989638,0.0535477288067,"[1.2184696791468346e-07, 0.0, 0.0, 0.0, 1.2184696791468346e-07, 0.0, 0.0, 0.0, 1.2184696791468346e-07]",,0.132086783648,-0.0647329539061,9.84718608856,"[8.999999999999999e-08, 0.0, 0.0, 0.0, 8.999999999999999e-08, 0.0, 0.0, 0.0, 8.999999999999999e-08]"
1520440530750020571,,727,,1520440530,749686575,"""base_link""",,0.00265952162341,0.00562790539552,0.0985123156886,-0.995116385402,"[1.0, 0.0, 0.0, 0.0, 1.0, 0.0, 0.0, 0.0, 1.0]",,0.000510643119924,0.00111653679051,0.0524413064122,"[1.2184696791468346e-07, 0.0, 0.0, 0.0, 1.2184696791468346e-07, 0.0, 0.0, 0.0, 1.2184696791468346e-07]",,0.108355268836,-0.0736288428307,9.83356380463,"[8.999999999999999e-08, 0.0, 0.0, 0.0, 8.999999999999999e-08, 0.0, 0.0, 0.0, 8.999999999999999e-08]"
1520440530804233694,,728,,1520440530,773686575,"""base_link""",,0.00266200334839,0.00561652410006,0.0976025338166,-0.995206073896,"[1.0, 0.0, 0.0, 0.0, 1.0, 0.0, 0.0, 0.0, 1.0]",,0.000753532454837,-0.000242084322963,0.051661465317,"[1.2184696791468346e-07, 0.0, 0.0, 0.0, 1.2184696791468346e-07, 0.0, 0.0, 0.0, 1.2184696791468346e-07]",,0.0882914587855,-0.0501012764871,9.80972290039,"[8.999999999999999e-08, 0.0, 0.0, 0.0, 8.999999999999999e-08, 0.0, 0.0, 0.0, 8.999999999999999e-08]"
1520440530804245066,,729,,1520440530,795986624,"""base_link""",,0.00266070519253,0.00562142976273,0.0968532471438,-0.995279240825,"[1.0, 0.0, 0.0, 0.0, 1.0, 0.0, 0.0, 0.0, 1.0]",,0.000155032612383,-0.00120390753727,0.0525613427162,"[1.2184696791468346e-07, 0.0, 0.0, 0.0, 1.2184696791468346e-07, 0.0, 0.0, 0.0, 1.2184696791468346e-07]",,0.146651402116,-0.0458441004157,9.81368160248,"[8.999999999999999e-08, 0.0, 0.0, 0.0, 8.999999999999999e-08, 0.0, 0.0, 0.0, 8.999999999999999e-08]"
1520440530867330589,,730,,1520440530,811986624,"""base_link""",,0.00265439222024,0.00563417144651,0.0962682488865,-0.995335970483,"[1.0, 0.0, 0.0, 0.0, 1.0, 0.0, 0.0, 0.0, 1.0]",,0.000898440193851,-0.000884204520844,0.0525899268687,"[1.2184696791468346e-07, 0.0, 0.0, 0.0, 1.2184696791468346e-07, 0.0, 0.0, 0.0, 1.2184696791468346e-07]",,0.106482811272,-0.0744953751564,9.82453155518,"[8.999999999999999e-08, 0.0, 0.0, 0.0, 8.999999999999999e-08, 0.0, 0.0, 0.0, 8.999999999999999e-08]"
1520440530867375220,,731,,1520440530,831986624,"""base_link""",,0.00265034941551,0.00563602393221,0.0955203109128,-0.9954079573,"[1.0, 0.0, 0.0, 0.0, 1.0, 0.0, 0.0, 0.0, 1.0]",,0.00194161967374,-0.000270738324616,0.0517183206975,"[1.2184696791468346e-07, 0.0, 0.0, 0.0, 1.2184696791468346e-07, 0.0, 0.0, 0.0, 1.2184696791468346e-07]",,0.108422242105,-0.0368037931621,9.84320068359,"[8.999999999999999e-08, 0.0, 0.0, 0.0, 8.999999999999999e-08, 0.0, 0.0, 0.0, 8.999999999999999e-08]"
1520440530878804761,,732,,1520440530,855986624,"""base_link""",,0.00264254467527,0.00563807760326,0.0946388938699,-0.99549220885,"[1.0, 0.0, 0.0, 0.0, 1.0, 0.0, 0.0, 0.0, 1.0]",,0.000113016692922,-0.000861402601004,0.0524140000343,"[1.2184696791468346e-07, 0.0, 0.0, 0.0, 1.2184696791468346e-07, 0.0, 0.0, 0.0, 1.2184696791468346e-07]",,0.128445327282,-0.0572550967336,9.80904102325,"[8.999999999999999e-08, 0.0, 0.0, 0.0, 8.999999999999999e-08, 0.0, 0.0, 0.0, 8.999999999999999e-08]"
1520440530878820206,,733,,1520440530,871986624,"""base_link""",,0.00264033888044,0.00564575722004,0.0940357303208,-0.99554931783,"[1.0, 0.0, 0.0, 0.0, 1.0, 0.0, 0.0, 0.0, 1.0]",,0.00115875329357,-0.000453110609669,0.0526858121157,"[1.2184696791468346e-07, 0.0, 0.0, 0.0, 1.2184696791468346e-07, 0.0, 0.0, 0.0, 1.2184696791468346e-07]",,0.136610463262,-0.066994227469,9.84090614319,"[8.999999999999999e-08, 0.0, 0.0, 0.0, 8.999999999999999e-08, 0.0, 0.0, 0.0, 8.999999999999999e-08]"
1520440530893674861,,734,,1520440530,889874112,"""base_link""",,0.00263698606571,0.00565639946392,0.093297865444,-0.995618649396,"[1.0, 0.0, 0.0, 0.0, 1.0, 0.0, 0.0, 0.0, 1.0]",,0.000847479095683,-0.000377587799449,0.052753765136,"[1.2184696791468346e-07, 0.0, 0.0, 0.0, 1.2184696791468346e-07, 0.0, 0.0, 0.0, 1.2184696791468346e-07]",,0.0872360616922,-0.0460444688797,9.86247158051,"[8.999999999999999e-08, 0.0, 0.0, 0.0, 8.999999999999999e-08, 0.0, 0.0, 0.0, 8.999999999999999e-08]"
1520440530947348131,,735,,1520440530,909874112,"""base_link""",,0.00263406196346,0.00566721951483,0.0925614335599,-0.995687390906,"[1.0, 0.0, 0.0, 0.0, 1.0, 0.0, 0.0, 0.0, 1.0]",,0.00106926925946,-0.00190341076814,0.0524619445205,"[1.2184696791468346e-07, 0.0, 0.0, 0.0, 1.2184696791468346e-07, 0.0, 0.0, 0.0, 1.2184696791468346e-07]",,0.103291504085,-0.0587485618889,9.82406139374,"[8.999999999999999e-08, 0.0, 0.0, 0.0, 8.999999999999999e-08, 0.0, 0.0, 0.0, 8.999999999999999e-08]"
1520440530947354008,,736,,1520440530,929874112,"""base_link""",,0.00262842432856,0.0056744666325,0.091811894006,-0.995756764618,"[1.0, 0.0, 0.0, 0.0, 1.0, 0.0, 0.0, 0.0, 1.0]",,0.00127103109844,-0.000257508712821,0.0523930229247,"[1.2184696791468346e-07, 0.0, 0.0, 0.0, 1.2184696791468346e-07, 0.0, 0.0, 0.0, 1.2184696791468346e-07]",,0.143626853824,-0.0473030284047,9.81415271759,"[8.999999999999999e-08, 0.0, 0.0, 0.0, 8.999999999999999e-08, 0.0, 0.0, 0.0, 8.999999999999999e-08]"
1520440530961765148,,737,,1520440530,949874112,"""base_link""",,0.00261701488033,0.00567711282897,0.0911050913565,-0.995821670765,"[1.0, 0.0, 0.0, 0.0, 1.0, 0.0, 0.0, 0.0, 1.0]",,0.00106714037247,0.00150939961895,0.0504052601755,"[1.2184696791468346e-07, 0.0, 0.0, 0.0, 1.2184696791468346e-07, 0.0, 0.0, 0.0, 1.2184696791468346e-07]",,0.121765226126,-0.087008073926,9.84864997864,"[8.999999999999999e-08, 0.0, 0.0, 0.0, 8.999999999999999e-08, 0.0, 0.0, 0.0, 8.999999999999999e-08]"
1520440530983088522,,738,,1520440530,969874112,"""base_link""",,0.00261894029983,0.00567542382694,0.0903753186745,-0.995888220639,"[1.0, 0.0, 0.0, 0.0, 1.0, 0.0, 0.0, 0.0, 1.0]",,0.000640153128188,-0.00161116756499,0.0513968952,"[1.2184696791468346e-07, 0.0, 0.0, 0.0, 1.2184696791468346e-07, 0.0, 0.0, 0.0, 1.2184696791468346e-07]",,0.0940374433994,-0.0231353640556,9.80365848541,"[8.999999999999999e-08, 0.0, 0.0, 0.0, 8.999999999999999e-08, 0.0, 0.0, 0.0, 8.999999999999999e-08]"
1520440530992768498,,739,,1520440530,985747392,"""base_link""",,0.00261793338528,0.00568171358554,0.0896354307489,-0.995955023394,"[1.0, 0.0, 0.0, 0.0, 1.0, 0.0, 0.0, 0.0, 1.0]",,-8.84838518687e-05,9.47780208662e-05,0.0522812157869,"[1.2184696791468346e-07, 0.0, 0.0, 0.0, 1.2184696791468346e-07, 0.0, 0.0, 0.0, 1.2184696791468346e-07]",,0.138213768601,-0.0313956327736,9.81736564636,"[8.999999999999999e-08, 0.0, 0.0, 0.0, 8.999999999999999e-08, 0.0, 0.0, 0.0, 8.999999999999999e-08]"
1520440531014394382,,740,,1520440531,5747392,"""base_link""",,0.00261358468662,0.00569062204637,0.0889143403177,-0.996019634512,"[1.0, 0.0, 0.0, 0.0, 1.0, 0.0, 0.0, 0.0, 1.0]",,0.000833716825582,5.82466600463e-05,0.0514713786542,"[1.2184696791468346e-07, 0.0, 0.0, 0.0, 1.2184696791468346e-07, 0.0, 0.0, 0.0, 1.2184696791468346e-07]",,0.141459301114,-0.0592165142298,9.83051300049,"[8.999999999999999e-08, 0.0, 0.0, 0.0, 8.999999999999999e-08, 0.0, 0.0, 0.0, 8.999999999999999e-08]"
1520440531043022383,,741,,1520440531,29747392,"""base_link""",,0.00259700237127,0.00567949412591,0.0880503299233,-0.99609642607,"[1.0, 0.0, 0.0, 0.0, 1.0, 0.0, 0.0, 0.0, 1.0]",,0.00220580678433,0.00194459781051,0.0523680709302,"[1.2184696791468346e-07, 0.0, 0.0, 0.0, 1.2184696791468346e-07, 0.0, 0.0, 0.0, 1.2184696791468346e-07]",,0.108836531639,-0.0382676161826,9.84701728821,"[8.999999999999999e-08, 0.0, 0.0, 0.0, 8.999999999999999e-08, 0.0, 0.0, 0.0, 8.999999999999999e-08]"
1520440531065754772,,742,,1520440531,45747392,"""base_link""",,0.00258683296235,0.0056667112831,0.0874515074996,-0.996149362512,"[1.0, 0.0, 0.0, 0.0, 1.0, 0.0, 0.0, 0.0, 1.0]",,0.000565217575058,-0.000105503248051,0.0528328493237,"[1.2184696791468346e-07, 0.0, 0.0, 0.0, 1.2184696791468346e-07, 0.0, 0.0, 0.0, 1.2184696791468346e-07]",,0.136400923133,-0.0060984888114,9.80617427826,"[8.999999999999999e-08, 0.0, 0.0, 0.0, 8.999999999999999e-08, 0.0, 0.0, 0.0, 8.999999999999999e-08]"
1520440531076435602,,743,,1520440531,69747392,"""base_link""",,0.0025704529848,0.00568620749326,0.0865906581188,-0.996224510343,"[1.0, 0.0, 0.0, 0.0, 1.0, 0.0, 0.0, 0.0, 1.0]",,0.00160118623171,-0.000480853545014,0.0521072410047,"[1.2184696791468346e-07, 0.0, 0.0, 0.0, 1.2184696791468346e-07, 0.0, 0.0, 0.0, 1.2184696791468346e-07]",,0.121200121939,-0.0574855096638,9.82060527802,"[8.999999999999999e-08, 0.0, 0.0, 0.0, 8.999999999999999e-08, 0.0, 0.0, 0.0, 8.999999999999999e-08]"
1520440531101870251,,744,,1520440531,86458048,"""base_link""",,0.00255824110008,0.00569850367168,0.0860165758952,-0.996274117184,"[1.0, 0.0, 0.0, 0.0, 1.0, 0.0, 0.0, 0.0, 1.0]",,0.00248423754238,-0.00200164830312,0.0506280511618,"[1.2184696791468346e-07, 0.0, 0.0, 0.0, 1.2184696791468346e-07, 0.0, 0.0, 0.0, 1.2184696791468346e-07]",,0.0949868634343,-0.0755423679948,9.8400478363,"[8.999999999999999e-08, 0.0, 0.0, 0.0, 8.999999999999999e-08, 0.0, 0.0, 0.0, 8.999999999999999e-08]"
1520440531113470621,,745,,1520440531,106458048,"""base_link""",,0.00254080366469,0.00571891509407,0.0853131871404,-0.996334597911,"[1.0, 0.0, 0.0, 0.0, 1.0, 0.0, 0.0, 0.0, 1.0]",,0.00215687276796,-0.00241691013798,0.0517461001873,"[1.2184696791468346e-07, 0.0, 0.0, 0.0, 1.2184696791468346e-07, 0.0, 0.0, 0.0, 1.2184696791468346e-07]",,0.116941161454,-0.0442729741335,9.8084821701,"[8.999999999999999e-08, 0.0, 0.0, 0.0, 8.999999999999999e-08, 0.0, 0.0, 0.0, 8.999999999999999e-08]"
1520440531132313697,,746,,1520440531,126458048,"""base_link""",,0.00253716059647,0.00572974749268,0.084585479654,-0.996396553779,"[1.0, 0.0, 0.0, 0.0, 1.0, 0.0, 0.0, 0.0, 1.0]",,0.000537594314665,-0.000997463008389,0.0527953058481,"[1.2184696791468346e-07, 0.0, 0.0, 0.0, 1.2184696791468346e-07, 0.0, 0.0, 0.0, 1.2184696791468346e-07]",,0.153182044625,-0.034188196063,9.79754543304,"[8.999999999999999e-08, 0.0, 0.0, 0.0, 8.999999999999999e-08, 0.0, 0.0, 0.0, 8.999999999999999e-08]"
1520440531150716795,,747,,1520440531,146458048,"""base_link""",,0.00252802971223,0.00572989648837,0.083855159063,-0.996458256765,"[1.0, 0.0, 0.0, 0.0, 1.0, 0.0, 0.0, 0.0, 1.0]",,0.00173737562727,0.000338485202519,0.0528619885445,"[1.2184696791468346e-07, 0.0, 0.0, 0.0, 1.2184696791468346e-07, 0.0, 0.0, 0.0, 1.2184696791468346e-07]",,0.0866352841258,-0.0461474880576,9.86871433258,"[8.999999999999999e-08, 0.0, 0.0, 0.0, 8.999999999999999e-08, 0.0, 0.0, 0.0, 8.999999999999999e-08]"
1520440531178807361,,748,,1520440531,166458048,"""base_link""",,0.00252571525756,0.00573642101809,0.083135417331,-0.996518568905,"[1.0, 0.0, 0.0, 0.0, 1.0, 0.0, 0.0, 0.0, 1.0]",,0.000651980226394,-0.00148993125185,0.0522515960038,"[1.2184696791468346e-07, 0.0, 0.0, 0.0, 1.2184696791468346e-07, 0.0, 0.0, 0.0, 1.2184696791468346e-07]",,0.106924086809,-0.0375715494156,9.84311389923,"[8.999999999999999e-08, 0.0, 0.0, 0.0, 8.999999999999999e-08, 0.0, 0.0, 0.0, 8.999999999999999e-08]"
1520440531195648957,,749,,1520440531,185077952,"""base_link""",,0.00252433017382,0.00575086306378,0.0824082999005,-0.996578923192,"[1.0, 0.0, 0.0, 0.0, 1.0, 0.0, 0.0, 0.0, 1.0]",,0.000504927476868,-0.00132093951106,0.0520813204348,"[1.2184696791468346e-07, 0.0, 0.0, 0.0, 1.2184696791468346e-07, 0.0, 0.0, 0.0, 1.2184696791468346e-07]",,0.137132629752,-0.0483382195234,9.81733798981,"[8.999999999999999e-08, 0.0, 0.0, 0.0, 8.999999999999999e-08, 0.0, 0.0, 0.0, 8.999999999999999e-08]"
1520440531212080829,,750,,1520440531,205077952,"""base_link""",,0.00252240870558,0.00577076411418,0.0816990527338,-0.99663725443,"[1.0, 0.0, 0.0, 0.0, 1.0, 0.0, 0.0, 0.0, 1.0]",,0.000953292066697,-0.00234385207295,0.0517350174487,"[1.2184696791468346e-07, 0.0, 0.0, 0.0, 1.2184696791468346e-07, 0.0, 0.0, 0.0, 1.2184696791468346e-07]",,0.100876860321,-0.0824435427785,9.88608837128,"[8.999999999999999e-08, 0.0, 0.0, 0.0, 8.999999999999999e-08, 0.0, 0.0, 0.0, 8.999999999999999e-08]"
1520440531232252410,,751,,1520440531,225077952,"""base_link""",,0.00252136277227,0.00580180609129,0.0809970969718,-0.996694279116,"[1.0, 0.0, 0.0, 0.0, 1.0, 0.0, 0.0, 0.0, 1.0]",,0.00162146682851,-0.00281782308593,0.0518625453115,"[1.2184696791468346e-07, 0.0, 0.0, 0.0, 1.2184696791468346e-07, 0.0, 0.0, 0.0, 1.2184696791468346e-07]",,0.111877776682,-0.0370960831642,9.87798500061,"[8.999999999999999e-08, 0.0, 0.0, 0.0, 8.999999999999999e-08, 0.0, 0.0, 0.0, 8.999999999999999e-08]"
1520440531263014315,,752,,1520440531,245077952,"""base_link""",,0.0025146839785,0.00581357872682,0.0802788303795,-0.99675227318,"[1.0, 0.0, 0.0, 0.0, 1.0, 0.0, 0.0, 0.0, 1.0]",,0.000465623830678,-0.00052515527932,0.0517397932708,"[1.2184696791468346e-07, 0.0, 0.0, 0.0, 1.2184696791468346e-07, 0.0, 0.0, 0.0, 1.2184696791468346e-07]",,0.124336883426,-0.0359327420592,9.80741977692,"[8.999999999999999e-08, 0.0, 0.0, 0.0, 8.999999999999999e-08, 0.0, 0.0, 0.0, 8.999999999999999e-08]"
1520440531285869884,,753,,1520440531,265077952,"""base_link""",,0.00250370702937,0.00582067289753,0.0795736293102,-0.996808834251,"[1.0, 0.0, 0.0, 0.0, 1.0, 0.0, 0.0, 0.0, 1.0]",,0.00103845680133,0.00010177626973,0.0521943122149,"[1.2184696791468346e-07, 0.0, 0.0, 0.0, 1.2184696791468346e-07, 0.0, 0.0, 0.0, 1.2184696791468346e-07]",,0.118611887097,-0.0304783433676,9.82832717896,"[8.999999999999999e-08, 0.0, 0.0, 0.0, 8.999999999999999e-08, 0.0, 0.0, 0.0, 8.999999999999999e-08]"
1520440531295494731,,754,,1520440531,283628736,"""base_link""",,0.00250083610459,0.00583738642787,0.0788474391104,-0.996866575433,"[1.0, 0.0, 0.0, 0.0, 1.0, 0.0, 0.0, 0.0, 1.0]",,0.000564285321161,-0.00215147063136,0.0513579659164,"[1.2184696791468346e-07, 0.0, 0.0, 0.0, 1.2184696791468346e-07, 0.0, 0.0, 0.0, 1.2184696791468346e-07]",,0.0777670145035,-0.0508051551878,9.8524055481,"[8.999999999999999e-08, 0.0, 0.0, 0.0, 8.999999999999999e-08, 0.0, 0.0, 0.0, 8.999999999999999e-08]"
1520440531314601361,,755,,1520440531,303628736,"""base_link""",,0.00249991381301,0.00584213486305,0.0781570315849,-0.996920818427,"[1.0, 0.0, 0.0, 0.0, 1.0, 0.0, 0.0, 0.0, 1.0]",,0.000673034694046,-0.000918641570024,0.0517186075449,"[1.2184696791468346e-07, 0.0, 0.0, 0.0, 1.2184696791468346e-07, 0.0, 0.0, 0.0, 1.2184696791468346e-07]",,0.118357032537,-0.0320651084185,9.82752227783,"[8.999999999999999e-08, 0.0, 0.0, 0.0, 8.999999999999999e-08, 0.0, 0.0, 0.0, 8.999999999999999e-08]"
1520440531332110744,,756,,1520440531,323628736,"""base_link""",,0.00248841546126,0.00584998685385,0.0774468571875,-0.99697628368,"[1.0, 0.0, 0.0, 0.0, 1.0, 0.0, 0.0, 0.0, 1.0]",,0.00154467998073,-0.00128765206318,0.0523028112948,"[1.2184696791468346e-07, 0.0, 0.0, 0.0, 1.2184696791468346e-07, 0.0, 0.0, 0.0, 1.2184696791468346e-07]",,0.140639320016,-0.0414936505258,9.8277053833,"[8.999999999999999e-08, 0.0, 0.0, 0.0, 8.999999999999999e-08, 0.0, 0.0, 0.0, 8.999999999999999e-08]"
1520440531350771519,,757,,1520440531,343628736,"""base_link""",,0.00247162817394,0.0058674313686,0.0767393380415,-0.997030863849,"[1.0, 0.0, 0.0, 0.0, 1.0, 0.0, 0.0, 0.0, 1.0]",,0.00207668426447,-0.000455633213278,0.0525821596384,"[1.2184696791468346e-07, 0.0, 0.0, 0.0, 1.2184696791468346e-07, 0.0, 0.0, 0.0, 1.2184696791468346e-07]",,0.0997702032328,-0.0668619424105,9.82708263397,"[8.999999999999999e-08, 0.0, 0.0, 0.0, 8.999999999999999e-08, 0.0, 0.0, 0.0, 8.999999999999999e-08]"
1520440531376885390,,758,,1520440531,363628736,"""base_link""",,0.00246135570279,0.00587223792032,0.0760515436207,-0.997083589556,"[1.0, 0.0, 0.0, 0.0, 1.0, 0.0, 0.0, 0.0, 1.0]",,0.000754675536882,-0.000777294801082,0.0506737232208,"[1.2184696791468346e-07, 0.0, 0.0, 0.0, 1.2184696791468346e-07, 0.0, 0.0, 0.0, 1.2184696791468346e-07]",,0.105189211667,-0.0568249896169,9.82691764832,"[8.999999999999999e-08, 0.0, 0.0, 0.0, 8.999999999999999e-08, 0.0, 0.0, 0.0, 8.999999999999999e-08]"
1520440531402103493,,759,,1520440531,387498496,"""base_link""",,0.00246881701207,0.00586987440408,0.0753171347854,-0.997139265543,"[1.0, 0.0, 0.0, 0.0, 1.0, 0.0, 0.0, 0.0, 1.0]",,0.000398305535782,0.00102595321368,0.0530443228781,"[1.2184696791468346e-07, 0.0, 0.0, 0.0, 1.2184696791468346e-07, 0.0, 0.0, 0.0, 1.2184696791468346e-07]",,0.125334352255,-0.046678122133,9.82043838501,"[8.999999999999999e-08, 0.0, 0.0, 0.0, 8.999999999999999e-08, 0.0, 0.0, 0.0, 8.999999999999999e-08]"
1520440531450018043,,760,,1520440531,407498496,"""base_link""",,0.00246081734266,0.00587795507447,0.0746090255836,-0.997192497013,"[1.0, 0.0, 0.0, 0.0, 1.0, 0.0, 0.0, 0.0, 1.0]",,0.00145902740769,-0.00172386132181,0.0519927218556,"[1.2184696791468346e-07, 0.0, 0.0, 0.0, 1.2184696791468346e-07, 0.0, 0.0, 0.0, 1.2184696791468346e-07]",,0.115552887321,-0.073869086802,9.79644012451,"[8.999999999999999e-08, 0.0, 0.0, 0.0, 8.999999999999999e-08, 0.0, 0.0, 0.0, 8.999999999999999e-08]"
1520440531450046486,,761,,1520440531,427498496,"""base_link""",,0.00245229199009,0.00587576985916,0.0739079127586,-0.997244716958,"[1.0, 0.0, 0.0, 0.0, 1.0, 0.0, 0.0, 0.0, 1.0]",,0.00149376527406,0.000197348592337,0.0518886558712,"[1.2184696791468346e-07, 0.0, 0.0, 0.0, 1.2184696791468346e-07, 0.0, 0.0, 0.0, 1.2184696791468346e-07]",,0.105705246329,-0.0385757833719,9.83498191833,"[8.999999999999999e-08, 0.0, 0.0, 0.0, 8.999999999999999e-08, 0.0, 0.0, 0.0, 8.999999999999999e-08]"
1520440531472199848,,762,,1520440531,447498496,"""base_link""",,0.00244526235674,0.005874358269,0.0732129955203,-0.99729605182,"[1.0, 0.0, 0.0, 0.0, 1.0, 0.0, 0.0, 0.0, 1.0]",,0.000334340205882,7.46494042687e-05,0.0518228970468,"[1.2184696791468346e-07, 0.0, 0.0, 0.0, 1.2184696791468346e-07, 0.0, 0.0, 0.0, 1.2184696791468346e-07]",,0.12842348218,-0.041329562664,9.83406448364,"[8.999999999999999e-08, 0.0, 0.0, 0.0, 8.999999999999999e-08, 0.0, 0.0, 0.0, 8.999999999999999e-08]"
1520440531476523528,,763,,1520440531,467498496,"""base_link""",,0.00243597539745,0.00587629389595,0.0725268869734,-0.997346164422,"[1.0, 0.0, 0.0, 0.0, 1.0, 0.0, 0.0, 0.0, 1.0]",,0.00182642554864,0.000656973570585,0.0511016994715,"[1.2184696791468346e-07, 0.0, 0.0, 0.0, 1.2184696791468346e-07, 0.0, 0.0, 0.0, 1.2184696791468346e-07]",,0.102792024612,-0.0606694072485,9.8391494751,"[8.999999999999999e-08, 0.0, 0.0, 0.0, 8.999999999999999e-08, 0.0, 0.0, 0.0, 8.999999999999999e-08]"
1520440531502081068,,764,,1520440531,490273536,"""base_link""",,0.00242799828319,0.00588700857973,0.0718339084902,-0.997396319172,"[1.0, 0.0, 0.0, 0.0, 1.0, 0.0, 0.0, 0.0, 1.0]",,0.0016154559562,-0.00147780845873,0.051720701158,"[1.2184696791468346e-07, 0.0, 0.0, 0.0, 1.2184696791468346e-07, 0.0, 0.0, 0.0, 1.2184696791468346e-07]",,0.100819021463,-0.0528961159289,9.853058815,"[8.999999999999999e-08, 0.0, 0.0, 0.0, 8.999999999999999e-08, 0.0, 0.0, 0.0, 8.999999999999999e-08]"
1520440531514176673,,765,,1520440531,510273536,"""base_link""",,0.00242165896912,0.00588655039739,0.0711430373494,-0.997445883866,"[1.0, 0.0, 0.0, 0.0, 1.0, 0.0, 0.0, 0.0, 1.0]",,-1.83680676855e-05,2.09021382034e-05,0.0527506992221,"[1.2184696791468346e-07, 0.0, 0.0, 0.0, 1.2184696791468346e-07, 0.0, 0.0, 0.0, 1.2184696791468346e-07]",,0.118516378105,-0.0272236801684,9.83811378479,"[8.999999999999999e-08, 0.0, 0.0, 0.0, 8.999999999999999e-08, 0.0, 0.0, 0.0, 8.999999999999999e-08]"
1520440531552833022,,766,,1520440531,530273536,"""base_link""",,0.00242116950592,0.00587698520305,0.0704554536628,-0.99749477421,"[1.0, 0.0, 0.0, 0.0, 1.0, 0.0, 0.0, 0.0, 1.0]",,0.00043110846309,0.00212715752423,0.0518664196134,"[1.2184696791468346e-07, 0.0, 0.0, 0.0, 1.2184696791468346e-07, 0.0, 0.0, 0.0, 1.2184696791468346e-07]",,0.118344582617,-0.0679375603795,9.85353946686,"[8.999999999999999e-08, 0.0, 0.0, 0.0, 8.999999999999999e-08, 0.0, 0.0, 0.0, 8.999999999999999e-08]"
1520440531552883061,,767,,1520440531,550273536,"""base_link""",,0.00242433628182,0.00587503673448,0.0697499154187,-0.99754425461,"[1.0, 0.0, 0.0, 0.0, 1.0, 0.0, 0.0, 0.0, 1.0]",,-0.00010728277266,-0.000834571081214,0.0518475398421,"[1.2184696791468346e-07, 0.0, 0.0, 0.0, 1.2184696791468346e-07, 0.0, 0.0, 0.0, 1.2184696791468346e-07]",,0.0860634967685,-0.054011374712,9.83059024811,"[8.999999999999999e-08, 0.0, 0.0, 0.0, 8.999999999999999e-08, 0.0, 0.0, 0.0, 8.999999999999999e-08]"
