rosbagTimestamp,header,seq,stamp,secs,nsecs,frame_id,pose,position,x,y,z,orientation,x,y,z,w
1520440529147849865,,0,,1520440529,122025344,"""map""",,,0.0098090628162,-0.0261869188398,0.10799126327,,0.0031410487091,0.00532248825778,0.163769166322,-0.986479358177
1520440529187031620,,1,,1520440529,162025344,"""map""",,,0.00980036705732,-0.0265638008714,0.108821898699,,0.00313788316797,0.00532225241653,0.163086555963,-0.986592396025
1520440529200075036,,2,,1520440529,177544652,"""map""",,,0.00979606527835,-0.0268579553813,0.109461709857,,0.00313166387364,0.0053177716797,0.161352592469,-0.986877603749
1520440529249502842,,3,,1520440529,217544652,"""map""",,,0.00896495953202,-0.0221672616899,0.0977734476328,,0.00310345157996,0.00531734453127,0.159433435722,-0.987189532575
1520440529267305668,,4,,1520440529,248544652,"""map""",,,0.00859716255218,-0.0200379602611,0.0924745872617,,0.00308156361847,0.00532470368382,0.158582701585,-0.987326551979
1520440529303570104,,5,,1520440529,295618510,"""map""",,,0.00842282734811,-0.0192027837038,0.0903278067708,,0.00306258749384,0.00533327217105,0.156860497061,-0.987601686606
1520440529347733390,,6,,1520440529,326618510,"""map""",,,0.00833340920508,-0.0189298577607,0.0895534455776,,0.00304618775995,0.00534852340331,0.155171841428,-0.98786830757
1520440529391938626,,7,,1520440529,365618510,"""map""",,,0.00831959024072,-0.0185888372362,0.0887802317739,,0.00304172184037,0.00536120532418,0.154321865934,-0.988001365171
1520440529392244509,,8,,1520440529,395618510,"""map""",,,0.00830383226275,-0.0185963641852,0.0887482464314,,0.00304069080663,0.00536373059541,0.152650153335,-0.988261074051
1520440529452812999,,9,,1520440529,408396830,"""map""",,,0.00830554403365,-0.0185027290136,0.0885693579912,,0.00302877205653,0.00539032369278,0.150965501653,-0.98851972926
1520440529479891536,,10,,1520440529,448396830,"""map""",,,0.00831170845777,-0.0183953996748,0.0883722230792,,0.00302139578182,0.0053930644727,0.15012113169,-0.988648277148
1520440529501169723,,11,,1520440529,489765879,"""map""",,,0.00830814987421,-0.0184163358063,0.0884013697505,,0.00299741998728,0.00539315222376,0.148246692749,-0.988931166796
1520440529542637067,,12,,1520440529,529765879,"""map""",,,0.00830479059368,-0.0184093322605,0.0884167551994,,0.00297837092884,0.00540754734816,0.146568236654,-0.989181266195
1520440529574081315,,13,,1520440529,559765879,"""map""",,,0.0083083473146,-0.0183874387294,0.0883696377277,,0.00297144155889,0.00542197622296,0.145738870969,-0.989303744936
1520440529601275982,,14,,1520440529,586857536,"""map""",,,0.0082978354767,-0.0184649694711,0.0885149687529,,0.00295668349415,0.00539900890702,0.144258631503,-0.989520927647
1520440529643793276,,15,,1520440529,616857536,"""map""",,,0.00828183628619,-0.0185942649841,0.0887536406517,,0.00293815913105,0.00540484048328,0.142558849102,-0.989767233829
1520440529672755419,,16,,1520440529,656857536,"""map""",,,0.00825461372733,-0.0188085567206,0.0891414731741,,0.00292691209635,0.00541618300693,0.141585214755,-0.989907034926
1520440529700836738,,17,,1520440529,686902592,"""map""",,,0.00828574411571,-0.0185649842024,0.0886928290129,,0.00291461970456,0.00545767460365,0.140097304562,-0.990118485665
1520440529743995055,,18,,1520440529,726902592,"""map""",,,0.00828260090202,-0.0185836162418,0.0886966139078,,0.00290535423029,0.00546229733914,0.13846040526,-0.990348607458
1520440529779022952,,19,,1520440529,756902592,"""map""",,,0.00829418003559,-0.0184739753604,0.0884901359677,,0.00289105813452,0.00548603630461,0.137473283921,-0.990486132625
1520440529800940715,,20,,1520440529,791526464,"""map""",,,0.0082891844213,-0.0185304507613,0.0885634347796,,0.00288361114859,0.00550346814238,0.135817123508,-0.990714526397
1520440529850787241,,21,,1520440529,821526464,"""map""",,,0.00828030239791,-0.0186703652143,0.0887687951326,,0.00286342552465,0.00552270546223,0.134345271265,-0.990915061102
1520440529877673783,,22,,1520440529,861526464,"""map""",,,0.00830461177975,-0.0185364857316,0.088557317853,,0.00285692931235,0.0055393426014,0.133364471953,-0.991047528647
1520440529901460112,,23,,1520440529,893527872,"""map""",,,0.00831524562091,-0.0185730159283,0.0885876715183,,0.0028436399665,0.00556568825067,0.13174910969,-0.991263446952
1520440529943511479,,24,,1520440529,933527872,"""map""",,,0.00831697136164,-0.0185385849327,0.0885149687529,,0.00284292149444,0.00557203596118,0.130283410886,-0.991457069574
1520440529977193385,,25,,1520440529,963527872,"""map""",,,0.00831514131278,-0.0184803046286,0.0884194374084,,0.0028439375463,0.00556808148373,0.129481061331,-0.991562225961
1520440530004118928,,26,,1520440529,993096930,"""map""",,,0.00832004100084,-0.0184330474585,0.088349558413,,0.0028321650754,0.0055810860914,0.127710261491,-0.991791799845
1520440530042758646,,27,,1520440530,23096930,"""map""",,,0.00832031667233,-0.0184214897454,0.0883365422487,,0.00281471916125,0.00557787478143,0.126265088202,-0.99197695095
1520440530073353398,,28,,1520440530,53096930,"""map""",,,0.00831520929933,-0.0184133257717,0.0883361548185,,0.00282512589315,0.00556824183932,0.125313075188,-0.992097659524
1520440530103181428,,29,,1520440530,85190208,"""map""",,,0.00831890571862,-0.0183838903904,0.088274911046,,0.00283317429486,0.00555146772288,0.12370968263,-0.992298910726
1520440530142699667,,30,,1520440530,115190208,"""map""",,,0.00831684656441,-0.0183813981712,0.0882680267096,,0.00283846800488,0.00555350888159,0.122282042431,-0.992475801049
1520440530172609987,,31,,1520440530,155190208,"""map""",,,0.00831558182836,-0.0183829627931,0.0882786214352,,0.0028392573528,0.00554903102589,0.121335087038,-0.992592042057
1520440530200378839,,32,,1520440530,185807424,"""map""",,,0.00831464119256,-0.0184359233826,0.0883728042245,,0.00282318746739,0.00555629221995,0.119928899585,-0.992762989675
1520440530251252508,,33,,1520440530,225807424,"""map""",,,0.00830555520952,-0.0186499617994,0.0886699780822,,0.00280840404869,0.00555516652043,0.118366558057,-0.992950501004
1520440530277867213,,34,,1520440530,255807424,"""map""",,,0.0082917874679,-0.0188583340496,0.0889501497149,,0.00280625299537,0.00556807819101,0.117428706384,-0.993061768684
1520440530301885060,,35,,1520440530,290800448,"""map""",,,0.00827481597662,-0.0190883539617,0.0892539471388,,0.00278914046938,0.00560185123451,0.115882591393,-0.99324316872
1520440530332892245,,36,,1520440530,320800448,"""map""",,,0.00825749989599,-0.0193360708654,0.0895762741566,,0.00277394982321,0.00560496878421,0.114476024618,-0.993406403464
1520440530376930650,,37,,1520440530,360800448,"""map""",,,0.00827400945127,-0.0190227851272,0.0891566202044,,0.00276531399981,0.00561197405142,0.113556043209,-0.993511939173
1520440530401654540,,38,,1520440530,390001216,"""map""",,,0.00828219670802,-0.0187625549734,0.088822118938,,0.00274711578087,0.00561003529638,0.11215954953,-0.993670579911
1520440530441765758,,39,,1520440530,430001216,"""map""",,,0.00828067306429,-0.018570818007,0.0885563194752,,0.00273503823923,0.0056257908091,0.110481051288,-0.993858597002
1520440530477674876,,40,,1520440530,461001216,"""map""",,,0.00824941229075,-0.0186650585383,0.0886887162924,,0.00273864475823,0.00562530842525,0.109713894352,-0.993943480755
1520440530503590969,,41,,1520440530,491934016,"""map""",,,0.0082679791376,-0.0185313541442,0.0884985774755,,0.00274167077024,0.00560355670015,0.108333332182,-0.994095040822
1520440530548069799,,42,,1520440530,531934016,"""map""",,,0.00827331375331,-0.0184916071594,0.0884458050132,,0.00273886602918,0.00560485469138,0.106674516518,-0.994274417809
1520440530592340722,,43,,1520440530,561934016,"""map""",,,0.00823951512575,-0.0186294969171,0.0886279344559,,0.00272983606689,0.00560151126091,0.106040375035,-0.994342358529
1520440530595357969,,44,,1520440530,591934016,"""map""",,,0.00819388777018,-0.0188284683973,0.0888897776604,,0.0027028026502,0.00559236094961,0.104381095756,-0.994517984447
1520440530655285261,,45,,1520440530,618053098,"""map""",,,0.00823760312051,-0.0186354331672,0.0886280164123,,0.00269841789623,0.00559215696544,0.103030879317,-0.994658839214
1520440530676255647,,46,,1520440530,648053098,"""map""",,,0.00823336280882,-0.0186499133706,0.0886432826519,,0.00269541509791,0.00559596845642,0.102272446778,-0.994737021618
1520440530702716293,,47,,1520440530,692686575,"""map""",,,0.00819992087781,-0.0187895856798,0.0888264775276,,0.00268111645028,0.00562858320245,0.100777203034,-0.99488946677
1520440530749270521,,48,,1520440530,722686575,"""map""",,,0.00815419107676,-0.0189935397357,0.0890911817551,,0.00265955323355,0.00563202854268,0.0992562497116,-0.995042501976
1520440530771869115,,49,,1520440530,762686575,"""map""",,,0.00808481872082,-0.0193059351295,0.0895035341382,,0.00265952162341,0.00562790539552,0.0985123156886,-0.995116385402
1520440530804185805,,50,,1520440530,794986624,"""map""",,,0.00816655252129,-0.0189621020108,0.0890410616994,,0.00266070519253,0.00562142976273,0.0968532471438,-0.995279240825
1520440530867850534,,51,,1520440530,824986624,"""map""",,,0.00823527853936,-0.0186687987298,0.0886453539133,,0.00265034941551,0.00563602393221,0.0955203109128,-0.9954079573
1520440530878762748,,52,,1520440530,864986624,"""map""",,,0.00823355745524,-0.0187135133892,0.0886753052473,,0.00264254467527,0.00563807760326,0.0946388938699,-0.99549220885
1520440530905831955,,53,,1520440530,892874112,"""map""",,,0.00820640381426,-0.0188870802522,0.0888758301735,,0.00263698606571,0.00565639946392,0.093297865444,-0.995618649396
1520440530947509603,,54,,1520440530,922874112,"""map""",,,0.00824122689664,-0.0187085159123,0.0886737257242,,0.00262842432856,0.0056744666325,0.091811894006,-0.995756764618
1520440530972825586,,55,,1520440530,962874112,"""map""",,,0.00826613325626,-0.0185640230775,0.0884886607528,,0.00261701488033,0.00567711282897,0.0911050913565,-0.995821670765
1520440531008658820,,56,,1520440530,988747392,"""map""",,,0.00828315038234,-0.0185041781515,0.0884172692895,,0.00261793338528,0.00568171358554,0.0896354307489,-0.995955023394
1520440531043010303,,57,,1520440531,28747392,"""map""",,,0.0082787387073,-0.0186081677675,0.0885564610362,,0.00259700237127,0.00567949412591,0.0880503299233,-0.99609642607
1520440531065930392,,58,,1520440531,58747392,"""map""",,,0.00829105358571,-0.0185368787497,0.0884810388088,,0.00258683296235,0.0056667112831,0.0874515074996,-0.996149362512
1520440531101856078,,59,,1520440531,89458048,"""map""",,,0.00830738991499,-0.0184568483382,0.0883815735579,,0.00255824110008,0.00569850367168,0.0860165758952,-0.996274117184
1520440531142722009,,60,,1520440531,119458048,"""map""",,,0.00830764137208,-0.0185228940099,0.0884613543749,,0.00253716059647,0.00572974749268,0.084585479654,-0.996396553779
1520440531173235855,,61,,1520440531,159458048,"""map""",,,0.00829715747386,-0.0187526028603,0.0887381061912,,0.00252802971223,0.00572989648837,0.083855159063,-0.996458256765
1520440531201329506,,62,,1520440531,188077952,"""map""",,,0.00831371359527,-0.0185310654342,0.0884559378028,,0.00252433017382,0.00575086306378,0.0824082999005,-0.996578923192
1520440531232239320,,63,,1520440531,218077952,"""map""",,,0.00832158792764,-0.0184559710324,0.0883638113737,,0.00252136277227,0.00580180609129,0.0809970969718,-0.996694279116
1520440531267356858,,64,,1520440531,258077952,"""map""",,,0.00832505896688,-0.0185231529176,0.0884594842792,,0.0025146839785,0.00581357872682,0.0802788303795,-0.99675227318
1520440531300538188,,65,,1520440531,286628736,"""map""",,,0.00832306686789,-0.0185550265014,0.0885081142187,,0.00250083610459,0.00583738642787,0.0788474391104,-0.996866575433
1520440531332099904,,66,,1520440531,316628736,"""map""",,,0.0083238221705,-0.0184557028115,0.0883814543486,,0.00248841546126,0.00584998685385,0.0774468571875,-0.99697628368
1520440531376850435,,67,,1520440531,356628736,"""map""",,,0.00832317210734,-0.0184442326427,0.0883649140596,,0.00247162817394,0.0058674313686,0.0767393380415,-0.997030863849
1520440531402075868,,68,,1520440531,389498496,"""map""",,,0.00831936392933,-0.0184303559363,0.0883574709296,,0.00246881701207,0.00586987440408,0.0753171347854,-0.997139265543
1520440531450381341,,69,,1520440531,429498496,"""map""",,,0.00830890890211,-0.0185593850911,0.0885431617498,,0.00245229199009,0.00587576985916,0.0739079127586,-0.997244716958
1520440531472299337,,70,,1520440531,459498496,"""map""",,,0.00829354859889,-0.0187507364899,0.0887954831123,,0.00244526235674,0.005874358269,0.0732129955203,-0.99729605182
1520440531513694513,,71,,1520440531,492273536,"""map""",,,0.00828910246491,-0.0187664404511,0.0888034999371,,0.00242799828319,0.00588700857973,0.0718339084902,-0.997396319172
1520440531552815318,,72,,1520440531,522273536,"""map""",,,0.00829102192074,-0.0186273753643,0.0886055454612,,0.00242116950592,0.00587698520305,0.0704554536628,-0.99749477421
1520440531576945890,,73,,1520440531,562273536,"""map""",,,0.00830019731075,-0.0184620302171,0.0884022712708,,0.00242433628182,0.00587503673448,0.0697499154187,-0.99754425461
1520440531603098139,,74,,1520440531,590037120,"""map""",,,0.0082789529115,-0.0185401551425,0.0885102450848,,0.00242070029296,0.0058723171103,0.0683791313178,-0.997639169313
1520440531647826145,,75,,1520440531,621037120,"""map""",,,0.00828193221241,-0.0185074582696,0.0884552896023,,0.00239134336661,0.00587111691293,0.0670235622291,-0.997731344471
1520440531701122811,,76,,1520440531,661037120,"""map""",,,0.00828038714826,-0.0184999350458,0.0884425789118,,0.00238515354214,0.00587723693168,0.0663310052144,-0.997777621711
1520440531701653458,,77,,1520440531,690037120,"""map""",,,0.00824703741819,-0.0186546761543,0.0886468440294,,0.00238626039082,0.0058755545151,0.0649774170276,-0.997866635855
1520440531751198078,,78,,1520440531,715071245,"""map""",,,0.00818752031773,-0.0189565569162,0.089050039649,,0.00237831192325,0.00588533834622,0.0635000435468,-0.997961676998
1520440531776394845,,79,,1520440531,746071245,"""map""",,,0.00822677090764,-0.0187618676573,0.0887916833162,,0.00237283398539,0.00587837769541,0.0629668437662,-0.997995605211
1520440531808637125,,80,,1520440531,785491477,"""map""",,,0.00826441776007,-0.018590465188,0.0885474830866,,0.00237277175294,0.00589262168384,0.0614722322244,-0.998088665453
1520440531835303251,,81,,1520440531,816491477,"""map""",,,0.00828362256289,-0.0185142718256,0.0884317308664,,0.0023682650036,0.00591565987564,0.0602651886298,-0.99816212741
1520440531875029871,,82,,1520440531,856491477,"""map""",,,0.00829805247486,-0.01844625175,0.088344655931,,0.00235249253336,0.00591875997391,0.0594588351241,-0.998210427698
1520440531901570468,,83,,1520440531,886379712,"""map""",,,0.00830155983567,-0.0184308905154,0.0883058458567,,0.00233495549311,0.00592329273576,0.0582501899494,-0.998281782312
1520440531943554742,,84,,1520440531,916379712,"""map""",,,0.00829728506505,-0.0184533186257,0.0883165299892,,0.00233391877942,0.00593637356996,0.0569252194728,-0.998358110255
1520440531972896460,,85,,1520440531,956379712,"""map""",,,0.008286498487,-0.0184973217547,0.0883582606912,,0.0023442584221,0.00594258644348,0.0562594257068,-0.998395747391
1520440532001107321,,86,,1520440531,986081472,"""map""",,,0.00829188525677,-0.0184385124594,0.0882918983698,,0.00232419504049,0.00596157771464,0.054943980418,-0.998468956467
1520440532033016862,,87,,1520440532,16081472,"""map""",,,0.00828927382827,-0.0184277482331,0.0882930085063,,0.00232305394749,0.00598274514612,0.0536363322961,-0.99853993176
1520440532072464378,,88,,1520440532,56081472,"""map""",,,0.00827191770077,-0.0184729658067,0.0883245915174,,0.00231924179797,0.00600110059256,0.0529944779401,-0.998574112854
1520440532106996780,,89,,1520440532,86087616,"""map""",,,0.00820974446833,-0.0186452399939,0.0885007977486,,0.00230722187897,0.00597652190052,0.0516804656441,-0.998643191538
1520440532142372121,,90,,1520440532,116087616,"""map""",,,0.00811971630901,-0.0188900977373,0.0887612700462,,0.00228894117734,0.00596390566947,0.0503619857821,-0.998710668643
1520440532173502000,,91,,1520440532,156087616,"""map""",,,0.00822210032493,-0.0185884330422,0.0884536653757,,0.00228436248201,0.00596561047657,0.0497027247777,-0.998743711772
1520440532203254206,,92,,1520440532,188990656,"""map""",,,0.00822262279689,-0.0185869596899,0.0884517207742,,0.00227650555212,0.00595980326646,0.0484035903192,-0.998807522101
1520440532232402703,,93,,1520440532,218990656,"""map""",,,0.00821230188012,-0.0186140500009,0.0884872823954,,0.00228577868198,0.0059755798526,0.0472429504049,-0.998862987353
1520440532276311741,,94,,1520440532,258990656,"""map""",,,0.00824727769941,-0.0185076091439,0.0883892178535,,0.00227543113676,0.00596862216524,0.046458639701,-0.998899865846
1520440532312661292,,95,,1520440532,287153344,"""map""",,,0.00820568948984,-0.0186087191105,0.0885064303875,,0.00228720261984,0.00596339002912,0.0452875895151,-0.998953603078
1520440532333624229,,96,,1520440532,317153344,"""map""",,,0.00818594358861,-0.0186539832503,0.0885553136468,,0.00227413627362,0.00601316759748,0.0440310233736,-0.999009489799
1520440532378439300,,97,,1520440532,357153344,"""map""",,,0.00823806785047,-0.0185262486339,0.0884066522121,,0.00226432972272,0.00600412989729,0.0432661423668,-0.99904303869
1520440532401652765,,98,,1520440532,391185088,"""map""",,,0.00820509530604,-0.018632248044,0.0885273814201,,0.00225292027448,0.00600331083256,0.0419890085632,-0.999097576712
1520440532452431762,,99,,1520440532,431185088,"""map""",,,0.00808558706194,-0.0189533904195,0.088896907866,,0.00225196999475,0.00599542081081,0.0407022231313,-0.999150808182
1520440532477042983,,100,,1520440532,461185088,"""map""",,,0.00796547532082,-0.0192563738674,0.089244119823,,0.00224797888576,0.0060091669396,0.0400740665011,-0.999176180585
1520440532551634013,,101,,1520440532,494081984,"""map""",,,0.00807260349393,-0.0189682394266,0.0889123603702,,0.0022320809628,0.00604101217637,0.0388062050042,-0.999226082453
1520440532551639552,,102,,1520440532,524081984,"""map""",,,0.00812449399382,-0.0188242997974,0.0887306332588,,0.00222327507027,0.00603598468296,0.0375371633956,-0.999274551329
1520440532577837435,,103,,1520440532,564081984,"""map""",,,0.00803965516388,-0.0190193839371,0.0889112427831,,0.00223260269468,0.0060390376953,0.0369129264223,-0.999297774243
1520440532647995746,,104,,1520440532,597402304,"""map""",,,0.00792456418276,-0.0192905627191,0.0891722217202,,0.0022065026002,0.0060513643314,0.0356581725952,-0.999343334986
1520440532648003118,,105,,1520440532,627402304,"""map""",,,0.00778973847628,-0.019615041092,0.0894827023149,,0.00220084751387,0.00604641553406,0.0344367990723,-0.999386198331
1520440532694419799,,106,,1520440532,667402304,"""map""",,,0.00759828044102,-0.020084772259,0.0899438783526,,0.00218560467805,0.00605055004112,0.0338196006227,-0.999407271755
1520440532704931255,,107,,1520440532,697402304,"""map""",,,0.00744983693585,-0.0204512253404,0.0903190374374,,0.00217773902245,0.00604582827699,0.0325772379691,-0.999448617814
1520440532751655119,,108,,1520440532,709367355,"""map""",,,0.00729478383437,-0.020833928138,0.0907176062465,,0.00216525746375,0.00605409515084,0.0313525769919,-0.999487772236
1520440532777294437,,109,,1520440532,749367355,"""map""",,,0.00707852607593,-0.0213680900633,0.0912712365389,,0.00216761785191,0.00603874826499,0.0307349992207,-0.999507033346
1520440532824035203,,110,,1520440532,795765421,"""map""",,,0.00690949428827,-0.0217812079936,0.091704621911,,0.0021641539078,0.00604670743391,0.029500475881,-0.999544164719
1520440532832079870,,111,,1520440532,826765421,"""map""",,,0.00673614162952,-0.0222030617297,0.0921486020088,,0.00215348499286,0.006042153434,0.0282877846088,-0.999579273044
1520440532871969330,,112,,1520440532,866765421,"""map""",,,0.00649756239727,-0.0227683652192,0.0927455723286,,0.00215428792325,0.00604489742433,0.0276846210597,-0.99959617393
1520440532953394913,,113,,1520440532,896329216,"""map""",,,0.00630979193375,-0.0231936611235,0.0931982696056,,0.00213577985912,0.00606392112881,0.0264770295562,-0.999628795591
1520440532953403562,,114,,1520440532,926329216,"""map""",,,0.00611508172005,-0.0236206073314,0.093660518527,,0.0021280016253,0.00607633485742,0.025394529899,-0.999656781098
1520440532981549965,,115,,1520440532,966329216,"""map""",,,0.00584923569113,-0.0241979621351,0.0942932516336,,0.00213288736701,0.00607251529927,0.0246754203697,-0.999674819949
1520440533002579483,,116,,1520440532,991607296,"""map""",,,0.00563959404826,-0.0246407985687,0.0947795510292,,0.00213784176198,0.00608273640394,0.0234479777006,-0.999704280597
1520440533044368890,,117,,1520440533,21607296,"""map""",,,0.00541737303138,-0.0250908620656,0.0952742323279,,0.00213533665867,0.00609626949358,0.0222433786233,-0.999731802489
1520440533091209472,,118,,1520440533,61607296,"""map""",,,0.00510767195374,-0.0257070865482,0.0959546118975,,0.00213098104529,0.0060958835865,0.0217588163059,-0.999742465641
1520440533100880522,,119,,1520440533,91607296,"""map""",,,0.00486625405028,-0.0261801052839,0.0964767485857,,0.00211796935827,0.00611824858117,0.020444508982,-0.999770113974
1520440533144726278,,120,,1520440533,110092020,"""map""",,,0.00461905682459,-0.0266631394625,0.0970064401627,,0.00210835016328,0.00613741930571,0.0192571058189,-0.999793505475
1520440533177368894,,121,,1520440533,150092020,"""map""",,,0.00428880285472,-0.0273229051381,0.0977362692356,,0.00211230143033,0.00614505973909,0.0186646054225,-0.999804716537
1520440533200533259,,122,,1520440533,193672545,"""map""",,,0.00403974298388,-0.0278320983052,0.0983080565929,,0.00210257620967,0.00614679681487,0.0174810376226,-0.999826127136
1520440533243886264,,123,,1520440533,223672545,"""map""",,,0.00378388538957,-0.0283528827131,0.0988950356841,,0.00208671055538,0.00616290415499,0.0163083858565,-0.999845894008
1520440533267704694,,124,,1520440533,263672545,"""map""",,,0.00342839583755,-0.0290662106127,0.0996991619468,,0.00208096063865,0.00615546144959,0.0157180349494,-0.999855377048
1520440533302370039,,125,,1520440533,296082944,"""map""",,,0.00315061607398,-0.0296155698597,0.100318536162,,0.00207574397833,0.00614062147838,0.0145597552586,-0.999872994431
1520440533351445886,,126,,1520440533,326082944,"""map""",,,0.00286229047924,-0.0301831848919,0.100965060294,,0.00205946541663,0.00616020461641,0.0135328894415,-0.99988732436
1520440533371819539,,127,,1520440533,356082944,"""map""",,,0.00256927264854,-0.0307465754449,0.101615458727,,0.00205404658315,0.00615669819618,0.0128397845178,-0.999896554519
1520440533400711481,,128,,1520440533,397912320,"""map""",,,0.00215735146776,-0.0315123870969,0.102502778172,,0.00203528744893,0.00612995058781,0.011796945045,-0.999909577896
1520440533446736534,,129,,1520440533,427912320,"""map""",,,0.00183142861351,-0.0320999883115,0.103174194694,,0.00202233931145,0.00612277426367,0.010544425001,-0.999923654943
1520440533477045898,,130,,1520440533,457912320,"""map""",,,0.00149884191342,-0.0326865762472,0.103837653995,,0.00201726769556,0.00611055842768,0.0100962775608,-0.999928417537
1520440533502522674,,131,,1520440533,497947136,"""map""",,,0.00103320600465,-0.0334830507636,0.104744948447,,0.00199807326342,0.00611572717889,0.00894845028844,-0.999939291424
1520440533536204245,,132,,1520440533,537947136,"""map""",,,0.000550406053662,-0.0342997685075,0.105669483542,,0.00199468966174,0.00612677492155,0.00769432866415,-0.999949659549
1520440533573345528,,133,,1520440533,567947136,"""map""",,,0.000182350704563,-0.0349201820791,0.106368437409,,0.00198091949608,0.00614125104693,0.00713643083041,-0.999953747793
1520440533601098897,,134,,1520440533,595980544,"""map""",,,-0.000190248421859,-0.0355474948883,0.107076779008,,0.00195888657247,0.00613450491699,0.00600145834686,-0.999961292079
1520440533634223348,,135,,1520440533,625980544,"""map""",,,-0.000571708660573,-0.0361855775118,0.107798434794,,0.00195272605324,0.00612077541645,0.00486762382822,-0.999967529812
1520440533677740585,,136,,1520440533,665980544,"""map""",,,-0.00109287560917,-0.0370545573533,0.10877558589,,0.00195479273054,0.00611365045878,0.0043007908626,-0.999970185064
1520440533700477607,,137,,1520440533,696964608,"""map""",,,-0.001491606934,-0.0377133302391,0.109511531889,,0.00193336649106,0.00611368980682,0.00330178411234,-0.999974020427
1520440533749306265,,138,,1520440533,726964608,"""map""",,,-0.00189936091192,-0.0383780896664,0.110254146159,,0.00190057262093,0.0060981662664,0.0020719390728,-0.999977476469
1520440533782815618,,139,,1520440533,756964608,"""map""",,,-0.00231434660964,-0.0390479043126,0.111006170511,,0.00189882188035,0.00610633057194,0.00151678078421,-0.999978487993
1520440533801769856,,140,,1520440533,793234432,"""map""",,,-0.00287432828918,-0.0399507284164,0.112029254436,,0.0018971373235,0.00612631081231,0.000384969314299,-0.999979415224
1520440533851258702,,141,,1520440533,823234432,"""map""",,,-0.00330146332271,-0.0406412556767,0.112811461091,,0.00187741589112,0.00613913991787,-0.00061757777123,-0.999979288783
1520440533877092451,,142,,1520440533,863234432,"""map""",,,-0.0038812069688,-0.041578348726,0.1138651371,,0.00186651253434,0.00614463464861,-0.00126862014018,-0.999978572287
1520440533900407350,,143,,1520440533,895857152,"""map""",,,-0.00432349322364,-0.0422951467335,0.114660166204,,0.00185202932961,0.00613469507172,-0.00225953469552,-0.99997692856
1520440533944072774,,144,,1520440533,925857152,"""map""",,,-0.00477375462651,-0.0430260784924,0.11546254158,,0.00184553887958,0.00613618321767,-0.00335956744165,-0.999973893987
1520440533978797646,,145,,1520440533,965857152,"""map""",,,-0.00538157206029,-0.0440195277333,0.116544120014,,0.00184364589339,0.00614739921845,-0.00400517286714,-0.999971449469
1520440534000966259,,146,,1520440533,989864960,"""map""",,,-0.00584508385509,-0.0447808727622,0.11737216264,,0.00182050266374,0.00614611571521,-0.00509369952363,-0.999966518288
1520440534042158628,,147,,1520440534,19864960,"""map""",,,-0.00631306413561,-0.0455573238432,0.118211872876,,0.00180397994668,0.00616209315743,-0.00606299274569,-0.999961039198
1520440534077528536,,148,,1520440534,59864960,"""map""",,,-0.00694294413552,-0.0466166697443,0.119346790016,,0.00179152094313,0.00618890382143,-0.00671647963185,-0.999956698072
1520440534144253935,,149,,1520440534,93659200,"""map""",,,-0.00742389913648,-0.0474291443825,0.120205134153,,0.00178674007464,0.00619087204633,-0.00767856574281,-0.999949743842
1520440534144260451,,150,,1520440534,123659200,"""map""",,,-0.0079113021493,-0.0482544600964,0.12107270211,,0.0017598805137,0.00620765060794,-0.00873320633309,-0.999941019445
1520440534173139782,,151,,1520440534,163659200,"""map""",,,-0.00856929365546,-0.0493732914329,0.122249424458,,0.00174686355832,0.006214759102,-0.00926632181991,-0.999936256851
1520440534200844554,,152,,1520440534,196812608,"""map""",,,-0.00907019153237,-0.0502295419574,0.123139485717,,0.00175357429149,0.00622293937724,-0.0104343374327,-0.999924666467
1520440534248551557,,153,,1520440534,226812608,"""map""",,,-0.00958169624209,-0.0511133149266,0.124050736427,,0.00174433820477,0.00624615372969,-0.0115049095317,-0.999912823203
1520440534267960196,,154,,1520440534,266812608,"""map""",,,-0.0102638127282,-0.0522878952324,0.12526461482,,0.00174011150148,0.00625783383972,-0.0119123009694,-0.999908018462
1520440534302503438,,155,,1520440534,296194112,"""map""",,,-0.0107808019966,-0.053168810904,0.1261703372,,0.001731206498,0.00623760219998,-0.0125330819011,-0.99990055847
1520440534349362248,,156,,1520440534,326194112,"""map""",,,-0.0113181872293,-0.0540773272514,0.127112850547,,0.00172754795399,0.00617697428767,-0.0140163980876,-0.999881255213
1520440534394604874,,157,,1520440534,366194112,"""map""",,,-0.0120351742953,-0.0552899986506,0.128371044993,,0.00172611924168,0.00617857158738,-0.0146421944943,-0.999872235788
1520440534396656313,,158,,1520440534,396194112,"""map""",,,-0.0125780114904,-0.0562136396766,0.129319444299,,0.00172741064746,0.00618087846879,-0.015580720517,-0.999858074447
1520440534436918734,,159,,1520440534,426417600,"""map""",,,-0.0131349731237,-0.0571622513235,0.130284816027,,0.0017221167728,0.00617397478207,-0.0166085135647,-0.999841552882
1520440534461571096,,160,,1520440534,456417600,"""map""",,,-0.00122699758504,-0.0355656519532,0.106843389571,,0.00171811479782,0.006157579658,-0.0171318509827,-0.999832828485
1520440534500950822,,161,,1520440534,491831104,"""map""",,,0.00497026275843,-0.0243167299777,0.0946090966463,,0.00171938694117,0.00616910566862,-0.0182884026527,-0.999812302969
1520440534543247670,,162,,1520440534,521831104,"""map""",,,0.00673646340147,-0.0211159121245,0.0911291688681,,0.00171412714619,0.00617816328978,-0.0192059395448,-0.999795022761
1520440534574211246,,163,,1520440534,561831104,"""map""",,,0.00767348334193,-0.0194202885032,0.089294180274,,0.0017087196726,0.00618854606713,-0.0197202153903,-0.999784991811
1520440534600389053,,164,,1520440534,589791552,"""map""",,,0.0078998291865,-0.0190000496805,0.088817358017,,0.00170952704817,0.00618598564608,-0.0207596409683,-0.999763918387
1520440534643494667,,165,,1520440534,619791552,"""map""",,,0.00799083057791,-0.0188305545598,0.0886005908251,,0.001706920529,0.0061796767897,-0.0218025647347,-0.999741791292
1520440534662759543,,166,,1520440534,649791552,"""map""",,,0.00812136381865,-0.0186168476939,0.0884023234248,,0.00169852359262,0.00618270724689,-0.0223007404841,-0.999730748817
1520440534700367817,,167,,1520440534,689350720,"""map""",,,0.00804289523512,-0.0187407042831,0.0884626805782,,0.00166522313712,0.0061972036225,-0.0233198512811,-0.999707483757
1520440534742676520,,168,,1520440534,719350720,"""map""",,,0.00810345262289,-0.0186269320548,0.0884002372622,,0.0016465624553,0.00621823572309,-0.0243357167707,-0.999683165025
1520440534766710630,,169,,1520440534,759350720,"""map""",,,0.00808854028583,-0.0186378117651,0.0883874893188,,0.00164219762231,0.00621622255253,-0.0248268961433,-0.999671111027
1520440534803196340,,170,,1520440534,787145792,"""map""",,,0.00810380838811,-0.0186180900782,0.0883581340313,,0.00164140934453,0.00621597032998,-0.0258359338435,-0.99964552789
1520440534844224523,,171,,1520440534,817145792,"""map""",,,0.0081409951672,-0.0185629483312,0.0883198902011,,0.00162943914564,0.00620098037526,-0.0268295036503,-0.999619565431
1520440534877632516,,172,,1520440534,857145792,"""map""",,,0.00814106687903,-0.0185651853681,0.088329307735,,0.00161567210807,0.00619847872931,-0.0273199243795,-0.999606247027
1520440534901253302,,173,,1520440534,887173440,"""map""",,,0.0081078633666,-0.018623907119,0.0883764997125,,0.00160893058794,0.0061824543658,-0.0283145057107,-0.999578682988
1520440534931625889,,174,,1520440534,917173440,"""map""",,,0.00815843418241,-0.0185378268361,0.088327050209,,0.00158907349539,0.00619866575595,-0.0293200452225,-0.999549601663
1520440534977208283,,175,,1520440534,957173440,"""map""",,,0.00812267139554,-0.0186013523489,0.0883708447218,,0.00158761580712,0.00619690579575,-0.0298147227835,-0.999535061
1520440535001465649,,176,,1520440534,997414285,"""map""",,,0.00813221558928,-0.0185856241733,0.0883631110191,,0.00157274883558,0.006177944653,-0.0308055951919,-0.999505136737
1520440535048401022,,177,,1520440535,28414285,"""map""",,,0.00816014967859,-0.018544498831,0.0883372873068,,0.00156160494542,0.00619893444211,-0.0317811682944,-0.999474495978
1520440535076713207,,178,,1520440535,68414285,"""map""",,,0.00801515579224,-0.0187912676483,0.0885316580534,,0.0015576966484,0.00619736101464,-0.032270956821,-0.999458775204
1520440535147743974,,179,,1520440535,97488512,"""map""",,,0.00781507603824,-0.0191263761371,0.0887905955315,,0.00153870323697,0.00619314665906,-0.0333358812423,-0.99942391976
1520440535147748917,,180,,1520440535,127488512,"""map""",,,0.00793756451458,-0.0189282149076,0.0886234119534,,0.00152867574439,0.00619651890085,-0.0342092482371,-0.999394332673
1520440535177917665,,181,,1520440535,167488512,"""map""",,,0.00804173573852,-0.0187385268509,0.088477358222,,0.0015256084087,0.00619898103413,-0.0347727937486,-0.999374902975
1520440535202263322,,182,,1520440535,198457472,"""map""",,,0.00790561083704,-0.0189490951598,0.0886502116919,,0.00153363425526,0.00620594563621,-0.0357274198674,-0.999341185497
1520440535251587198,,183,,1520440535,228457472,"""map""",,,0.00768545083702,-0.0192906521261,0.0889285057783,,0.00152315598896,0.00622924642263,-0.0366917397613,-0.999306119319
1520440535276760174,,184,,1520440535,268457472,"""map""",,,0.00732935126871,-0.0198397152126,0.0893645882607,,0.0015207559235,0.00623106894456,-0.0371663132755,-0.99928858623
1520440535347651220,,185,,1520440535,296909184,"""map""",,,0.00703938212246,-0.0202904921025,0.0897172316909,,0.00150475724322,0.0062173936093,-0.0381130579336,-0.999253056436
1520440535347658558,,186,,1520440535,336909184,"""map""",,,0.0066345827654,-0.020927503705,0.0902086645365,,0.00151504914143,0.00619633648402,-0.0390761977158,-0.999215882916
1520440535376856741,,187,,1520440535,366909184,"""map""",,,0.00631946697831,-0.0214294474572,0.0905851572752,,0.00151666339865,0.00618261686165,-0.0395364834484,-0.999197886212
1520440535401163367,,188,,1520440535,397996928,"""map""",,,0.00599629431963,-0.0219513587654,0.0909653156996,,0.0015248477898,0.00618779565566,-0.0404914888888,-0.999159574726
1520440535449662682,,189,,1520440535,427996928,"""map""",,,0.00566221913323,-0.0224896464497,0.091350466013,,0.00152108371403,0.00618039476785,-0.0414244936743,-0.999121431829
1520440535497622266,,190,,1520440535,467996928,"""map""",,,0.00519941421226,-0.0232331119478,0.0918791741133,,0.0015174674815,0.00618952301791,-0.0418962012028,-0.999101707103
1520440535503499141,,191,,1520440535,497996928,"""map""",,,0.00484052952379,-0.0238080602139,0.09229375422,,0.00151416208197,0.00620461504703,-0.0428085118857,-0.999062932003
1520440535542061245,,192,,1520440535,512577848,"""map""",,,0.00447331881151,-0.0243964809924,0.0927217751741,,0.00151394492692,0.00619332150263,-0.0437419381396,-0.999022597469
1520440535572350053,,193,,1520440535,552577848,"""map""",,,0.00397783983499,-0.0252026561648,0.0933175683022,,0.00151676185106,0.00618733895505,-0.0441957754044,-0.999002619863
1520440535601602434,,194,,1520440535,586418304,"""map""",,,0.00360501511022,-0.025824662298,0.093782864511,,0.00150577617621,0.0061783766582,-0.0450985187527,-0.998962369622
1520440535642885040,,195,,1520440535,616418304,"""map""",,,0.00322781037539,-0.0264583081007,0.0942633226514,,0.00149457795612,0.00618220247252,-0.0460042545272,-0.998921065711
1520440535675457686,,196,,1520440535,656418304,"""map""",,,0.00271440809593,-0.0273245312274,0.094927072525,,0.00149054898082,0.00618818073956,-0.046456953827,-0.998900034433
1520440535712650024,,197,,1520440535,688744576,"""map""",,,0.00232148729265,-0.027993939817,0.0954486578703,,0.00148139982197,0.00619566048809,-0.0473578848608,-0.998857718997
1520440535742606327,,198,,1520440535,718744576,"""map""",,,0.00191850634292,-0.0286788605154,0.0959892570972,,0.00146505524119,0.00619641600327,-0.0482643371317,-0.99881434989
1520440535772563759,,199,,1520440535,758744576,"""map""",,,0.00136894243769,-0.0296105667949,0.0967229157686,,0.00146177931154,0.00620316377957,-0.0487162356414,-0.998792349235
1520440535802604668,,200,,1520440535,793863040,"""map""",,,0.000945891661104,-0.0303345993161,0.0972852185369,,0.00144174062534,0.00620797757529,-0.0496149750391,-0.998748095044
1520440535842243638,,201,,1520440535,833863040,"""map""",,,0.000376669544494,-0.0313277728856,0.0980426520109,,0.00143873222939,0.0062063748426,-0.0505006067668,-0.998703798707
1520440535877120646,,202,,1520440535,864863040,"""map""",,,-5.75787416892e-05,-0.0321008786559,0.0986238121986,,0.00144411747711,0.00620612953477,-0.0509395661941,-0.99868141873
1520440535903429969,,203,,1520440535,898154112,"""map""",,,-0.000482236617245,-0.0328708663583,0.0991934910417,,0.00143816127131,0.0062077169563,-0.0518350602844,-0.998635352225
1520440535948747762,,204,,1520440535,929154112,"""map""",,,-0.00091645878274,-0.033674441278,0.0997784212232,,0.00143671774174,0.00621591385979,-0.0527175731454,-0.998589117132
1520440535977368699,,205,,1520440535,969154112,"""map""",,,-0.00149623816833,-0.0347581766546,0.100564569235,,0.0014305211672,0.00621905412928,-0.0531608315512,-0.998565641337
1520440536001415653,,206,,1520440535,992516736,"""map""",,,-0.00193318771198,-0.0355838574469,0.101164236665,,0.00142630137862,0.00622803321901,-0.0540320069099,-0.998518774042
1520440536052208916,,207,,1520440536,23516736,"""map""",,,-0.0023826751858,-0.0364365279675,0.101791992784,,0.00141758735306,0.00621766328328,-0.0548766719009,-0.99847279183
1520440536076391972,,208,,1520440536,63516736,"""map""",,,-0.00299704284407,-0.0375922359526,0.102654978633,,0.00142328326914,0.00620672469436,-0.0553075812801,-0.998449105301
1520440536102278669,,209,,1520440536,95301056,"""map""",,,-0.00346670229919,-0.0384727790952,0.10330414772,,0.00143194658678,0.00620140217302,-0.0561779558487,-0.998400509985
1520440536134390219,,210,,1520440536,125301056,"""map""",,,-0.00394372502342,-0.0393781065941,0.103969521821,,0.0014347625231,0.00620878313986,-0.057049510529,-0.998351071731
1520440536171709945,,211,,1520440536,165301056,"""map""",,,-0.00459008198231,-0.0406140759587,0.104881688952,,0.00142525363431,0.00623779745843,-0.057546674754,-0.998322327581
1520440536200702456,,212,,1520440536,192731840,"""map""",,,-0.00508156837896,-0.0415522232652,0.105581730604,,0.00141612225616,0.00622720477002,-0.0583072567823,-0.998278326271
1520440536241977261,,213,,1520440536,222731840,"""map""",,,-0.00558446533978,-0.0425051823258,0.106291793287,,0.00140771066716,0.00625857914747,-0.0590917360736,-0.998232006884
1520440536267789316,,214,,1520440536,262731840,"""map""",,,-0.00625940784812,-0.0438028536737,0.107245199382,,0.0014093081315,0.00625291582934,-0.0595958545286,-0.998202040475
1520440536302528662,,215,,1520440536,291915968,"""map""",,,-0.00676870718598,-0.0447988547385,0.107969217002,,0.00142560381535,0.00622308310458,-0.0604333124086,-0.998151885725
1520440536346710207,,216,,1520440536,331915968,"""map""",,,-0.00745260342956,-0.046150483191,0.108953163028,,0.00141760892039,0.00622931902716,-0.0612647011423,-0.99810114092
1520440536371725346,,217,,1520440536,361915968,"""map""",,,-0.00797006580979,-0.0471809282899,0.109714448452,,0.00141998000989,0.00623363150587,-0.061590580575,-0.99808107902
1520440536412491650,,218,,1520440536,391386304,"""map""",,,-0.00435107015073,-0.0408243089914,0.10496738553,,0.00141809196279,0.00623375794642,-0.0625132593826,-0.998023675012
1520440536441870702,,219,,1520440536,431386304,"""map""",,,0.00398107152432,-0.0260298475623,0.0939240902662,,0.0014024459331,0.00624894760477,-0.0633326784113,-0.997972002976
1520440536482197978,,220,,1520440536,461386304,"""map""",,,0.00623620161787,-0.022069118917,0.0909694135189,,0.00140811863549,0.00625131309664,-0.06374647617,-0.997945619049
1520440536500971193,,221,,1520440536,493768896,"""map""",,,0.00735354982316,-0.0200622249395,0.0894584208727,,0.00140765650188,0.00625022962629,-0.0645698991494,-0.99789264046
1520440536543033074,,222,,1520440536,533768896,"""map""",,,0.00791254453361,-0.0190713983029,0.0887136161327,,0.00140118432645,0.00626609791475,-0.065400487093,-0.99783848176
1520440536572365837,,223,,1520440536,564768896,"""map""",,,0.00797657854855,-0.0190154723823,0.08866520226,,0.00140209097761,0.00626963841466,-0.065805012545,-0.997811760658
1520440536601418236,,224,,1520440536,592164544,"""map""",,,0.00800704862922,-0.0189996678382,0.088644862175,,0.00141175725853,0.00627455494332,-0.0666167608473,-0.997757981279
1520440536642967804,,225,,1520440536,622164544,"""map""",,,0.00812335591763,-0.0187627673149,0.088466309011,,0.00140529792472,0.00628858161207,-0.0674227771782,-0.997703696138
1520440536679221992,,226,,1520440536,662164544,"""map""",,,0.00809032842517,-0.0188745371997,0.0885509029031,,0.00139545498923,0.006294199326,-0.067829873588,-0.997676089953
1520440536701477284,,227,,1520440536,693644480,"""map""",,,0.00806837342679,-0.0189430229366,0.0886043608189,,0.00137988782025,0.00630378032541,-0.0685458642505,-0.997627115315
1520440536744634076,,228,,1520440536,723644480,"""map""",,,0.008151140064,-0.0187385007739,0.0884559229016,,0.00136586493813,0.00631065470689,-0.0694145107983,-0.997567098202
1520440536773006099,,229,,1520440536,764644480,"""map""",,,0.00810196250677,-0.0188625082374,0.0885497406125,,0.00135850833743,0.00630482922217,-0.0698130513978,-0.997539196989
1520440536812747901,,230,,1520440536,794688960,"""map""",,,0.0080739883706,-0.0189327150583,0.0885998979211,,0.00135183481202,0.00631265585901,-0.0706090789256,-0.997483183827
1520440536842667654,,231,,1520440536,824688960,"""map""",,,0.00815401319414,-0.0187122207135,0.088439822197,,0.00136293606143,0.00630757370641,-0.0714064551526,-0.997426412022
1520440536875963362,,232,,1520440536,865688960,"""map""",,,0.00816887523979,-0.0186737924814,0.0883998051286,,0.00136077504763,0.00629858951296,-0.0717966085293,-0.997398468661
1520440536912368663,,233,,1520440536,892415936,"""map""",,,0.00820958055556,-0.018568366766,0.0883292853832,,0.00136062703975,0.00627963775447,-0.0725795283872,-0.997341907591
1520440536942561289,,234,,1520440536,923415936,"""map""",,,0.00820716097951,-0.0185746736825,0.0883284509182,,0.00137053286624,0.00627327950725,-0.0733497198969,-0.997285599401
1520440536973617266,,235,,1520440536,963415936,"""map""",,,0.00811957847327,-0.0188038498163,0.0884660631418,,0.00136890231004,0.00627272764695,-0.0737460688603,-0.997256433782
1520440537000610795,,236,,1520440536,994617856,"""map""",,,0.00818589422852,-0.0186210982502,0.0883423537016,,0.0013730035606,0.00626178872876,-0.0744363499452,-0.997205183214
1520440537041834955,,237,,1520440537,34617856,"""map""",,,0.0082202507183,-0.0185395628214,0.0882802978158,,0.00138383908729,0.00621059891171,-0.0753133837159,-0.997139644865
1520440537077038015,,238,,1520440537,64617856,"""map""",,,0.0081629389897,-0.0186806544662,0.088361762464,,0.00139278508516,0.00621048465423,-0.0756939697579,-0.99711081642
1520440537104783565,,239,,1520440537,100125440,"""map""",,,0.00802125222981,-0.0190263055265,0.0885804444551,,0.0013911765902,0.00619126536204,-0.0764640348271,-0.997052190154
1520440537149298198,,240,,1520440537,130125440,"""map""",,,0.00784038100392,-0.0194657705724,0.0888663381338,,0.00138395202768,0.00620273885373,-0.0771484153532,-0.996999338006
1520440537176081317,,241,,1520440537,170125440,"""map""",,,0.00757251959294,-0.0201195329428,0.0892937108874,,0.00138178887361,0.00620608014393,-0.0775997659539,-0.996964398269
1520440537223377630,,242,,1520440537,200055808,"""map""",,,0.00763492099941,-0.0199723150581,0.0892024189234,,0.00139225495683,0.0061823404376,-0.0783422248373,-0.996906404205
1520440537251068939,,243,,1520440537,230055808,"""map""",,,0.00791863817722,-0.0192919634283,0.0887677818537,,0.00139935357272,0.00620269390807,-0.0790865803288,-0.996847440764
1520440537276112187,,244,,1520440537,270055808,"""map""",,,0.00808180309832,-0.018874719739,0.0885023847222,,0.00139305673477,0.0062008215014,-0.0793888153795,-0.996823543501
1520440537323500093,,245,,1520440537,300634880,"""map""",,,0.00814303383231,-0.0187203716487,0.0884017571807,,0.00139263905292,0.00619142752863,-0.0802203305538,-0.996756993627
1520440537334062860,,246,,1520440537,330634880,"""map""",,,0.00805930886418,-0.0189169663936,0.0885322242975,,0.0013929128428,0.00617636612182,-0.0808896225081,-0.996702961367
1520440537382984613,,247,,1520440537,370634880,"""map""",,,0.00811421405524,-0.0187802687287,0.088457763195,,0.00139441070228,0.00616529236665,-0.0813333866761,-0.996667010105
1520440537400224815,,248,,1520440537,397324032,"""map""",,,0.00819081440568,-0.0185976624489,0.0883420705795,,0.0013718524248,0.00619407652391,-0.0819995597636,-0.996612219202
1520440537442287852,,249,,1520440537,427324032,"""map""",,,0.00820269901305,-0.0185673665255,0.0883252769709,,0.00137224063678,0.00622168238041,-0.0827973153123,-0.99654604865
1520440537475743741,,250,,1520440537,467324032,"""map""",,,0.00812215544283,-0.0187627654523,0.0884648114443,,0.00137484320468,0.00622998069976,-0.0831611269086,-0.996515702919
1520440537500896670,,251,,1520440537,497830144,"""map""",,,0.0081854891032,-0.0185903087258,0.0883421823382,,0.00136608406881,0.00623873851853,-0.0838840296543,-0.996455095751
1520440537543084395,,252,,1520440537,527830144,"""map""",,,0.00819120556116,-0.018561873585,0.0883227959275,,0.00137628311225,0.00624127638443,-0.0845958899256,-0.996394825758
1520440537571969101,,253,,1520440537,567830144,"""map""",,,0.00811424478889,-0.0187490843236,0.0884581953287,,0.00138698133241,0.00622792159572,-0.0848949218158,-0.996369495502
1520440537602003326,,254,,1520440537,596678144,"""map""",,,0.00816281698644,-0.0186674557626,0.088402710855,,0.00139814432037,0.00621776947358,-0.0856670520805,-0.996303409243
1520440537653760663,,255,,1520440537,626678144,"""map""",,,0.00818022433668,-0.0186175331473,0.0883777365088,,0.00137273306344,0.00624237006222,-0.0863717052408,-0.996242591341
1520440537677761930,,256,,1520440537,666678144,"""map""",,,0.00803159549832,-0.0189682580531,0.0886498093605,,0.00136640692026,0.0062484327876,-0.0866470506021,-0.99621852549
1520440537733218131,,257,,1520440537,699815680,"""map""",,,0.00786872394383,-0.019361782819,0.0889485999942,,0.00135100093004,0.00625841895652,-0.0874225104678,-0.996150711211
1520440537752827580,,258,,1520440537,729815680,"""map""",,,0.0076797939837,-0.0198157094419,0.0892932862043,,0.00134373751339,0.00622523522803,-0.0881267843065,-0.996088923931
1520440537778387572,,259,,1520440537,769815680,"""map""",,,0.00783349014819,-0.0194393545389,0.0890058353543,,0.0013519413316,0.00619508080428,-0.0884691431569,-0.996058788935
1520440537814727750,,260,,1520440537,799698432,"""map""",,,0.00804204773158,-0.0189289543778,0.088618978858,,0.00133626731376,0.00621589739618,-0.0891597192698,-0.995997128095
1520440537842909261,,261,,1520440537,829698432,"""map""",,,0.00811448227614,-0.0187543854117,0.0884788483381,,0.00133171051504,0.00621384438368,-0.0897791515023,-0.995941452108
1520440537874264349,,262,,1520440537,869698432,"""map""",,,0.00819228775799,-0.0185695663095,0.0883364677429,,0.00133396026772,0.0062293529422,-0.0901912212402,-0.995904152147
1520440537912988054,,263,,1520440537,895718656,"""map""",,,0.00815489143133,-0.0186683498323,0.0883950665593,,0.00132484107264,0.00624009940076,-0.0907917716847,-0.995849487685
1520440537943069446,,264,,1520440537,925718656,"""map""",,,0.00817149691284,-0.018635854125,0.0883735045791,,0.00131362309622,0.00622552284735,-0.091484708021,-0.995786140972
1520440537971498621,,265,,1520440537,965718656,"""map""",,,0.00815718341619,-0.018668230623,0.088404558599,,0.0013099522045,0.00622492373648,-0.091816909481,-0.995755626653
1520440538012522224,,266,,1520440537,992888320,"""map""",,,0.00819714274257,-0.0185683965683,0.0883385837078,,0.00131731061619,0.00622628972242,-0.0924861592885,-0.995693712933
1520440538041395236,,267,,1520440538,22888320,"""map""",,,0.00812269654125,-0.0187291316688,0.0884583964944,,0.00130851904701,0.00622302400021,-0.0931513629985,-0.995631630625
1520440538072076997,,268,,1520440538,62888320,"""map""",,,0.00819477252662,-0.018556740135,0.0883280262351,,0.00130045138288,0.00622489805324,-0.0935457310601,-0.995594667839
1520440538111320969,,269,,1520440538,95734528,"""map""",,,0.00819999910891,-0.0185454525054,0.088312253356,,0.001292968177,0.00623517480493,-0.0942741971897,-0.995525968476
1520440538142422853,,270,,1520440538,126734528,"""map""",,,0.00819334667176,-0.0185567438602,0.0883141011,,0.00127761190689,0.00624263315075,-0.094804109516,-0.995475687285
1520440538171921787,,271,,1520440538,166734528,"""map""",,,0.00821290258318,-0.0185242779553,0.0883024036884,,0.00127783235466,0.00623278609936,-0.0951984354307,-0.995438008003
1520440538208154235,,272,,1520440538,194241600,"""map""",,,0.00821780972183,-0.0185097102076,0.0882937386632,,0.00127940265404,0.00623608112681,-0.0957962041831,-0.995380561848
1520440538242380201,,273,,1520440538,224241600,"""map""",,,0.00819175131619,-0.0185686256737,0.0883391797543,,0.0012781013701,0.00626159709231,-0.0964222956178,-0.995319996827
1520440538271908028,,274,,1520440538,264241600,"""map""",,,0.00812439154834,-0.0187374725938,0.0884601101279,,0.00129104555631,0.00624889064067,-0.0968111002953,-0.995282359691
1520440538311632146,,275,,1520440538,294957632,"""map""",,,0.00814991816878,-0.018680665642,0.0884308815002,,0.00129274608286,0.0062273942662,-0.0973883435325,-0.995226220089
1520440538342037392,,276,,1520440538,324957632,"""map""",,,0.00811406038702,-0.0187821630388,0.088519692421,,0.00130229366114,0.00623348053454,-0.0980356769788,-0.995162536201
1520440538376650702,,277,,1520440538,364957632,"""map""",,,0.0081905387342,-0.0185966920108,0.0883706137538,,0.00129507831824,0.00625646604278,-0.0984101938746,-0.995125446974
1520440538402744050,,278,,1520440538,393945152,"""map""",,,0.0082123670727,-0.0185557063669,0.0883304774761,,0.00129543673109,0.00622709281745,-0.0989810729377,-0.995069012344
1520440538442980673,,279,,1520440538,423945152,"""map""",,,0.00822271592915,-0.0185377933085,0.0883237272501,,0.00129749665831,0.00624494530052,-0.0996066164633,-0.995006550715
1520440538476390851,,280,,1520440538,463945152,"""map""",,,0.00822774972767,-0.0185360237956,0.0883212909102,,0.00130371792828,0.00625323308315,-0.0999872025054,-0.994968197083
1520440538506188868,,281,,1520440538,492810816,"""map""",,,0.00822384096682,-0.0185555014759,0.0883339717984,,0.00131982510376,0.00625445616494,-0.100546996947,-0.994911888893
1520440538542751115,,282,,1520440538,532810816,"""map""",,,0.00823550950736,-0.0185352824628,0.0883033573627,,0.00130563989042,0.00626892784514,-0.10124132413,-0.994841335069
1520440538571709758,,283,,1520440538,562810816,"""map""",,,0.00819915439934,-0.0186417922378,0.0883819907904,,0.00129772122199,0.00627079580664,-0.101499304989,-0.994815077582
1520440538612105013,,284,,1520440538,596591680,"""map""",,,0.00819753762335,-0.0186327714473,0.0883831083775,,0.00130998414391,0.00624419768787,-0.102115534061,-0.994752152337
1520440538643373519,,285,,1520440538,626591680,"""map""",,,0.00813930109143,-0.0187836550176,0.0884973928332,,0.00130239293673,0.00625307832519,-0.102716632415,-0.99469019647
1520440538677444487,,286,,1520440538,666591680,"""map""",,,0.0081587228924,-0.018717687577,0.0884461924434,,0.00130315684835,0.00624499403281,-0.10301760306,-0.994659049949
1520440538712810839,,287,,1520440538,698604864,"""map""",,,0.0081765204668,-0.0186677407473,0.088401928544,,0.00130739524081,0.00623993245972,-0.10362409621,-0.994596166851
1520440538745207097,,288,,1520440538,728604864,"""map""",,,0.00819210056216,-0.0186163783073,0.0883567035198,,0.00130546833958,0.00624221563353,-0.104227891962,-0.994533115165
1520440538778119262,,289,,1520440538,768604864,"""map""",,,0.00806606933475,-0.0189736187458,0.088583573699,,0.0012954021575,0.00626127292378,-0.104523425664,-0.994501842204
1520440538812005890,,290,,1520440538,795278912,"""map""",,,0.00817137770355,-0.0186812039465,0.0883899703622,,0.00130859741381,0.00625933812001,-0.105111879963,-0.994439802043
1520440538842352278,,291,,1520440538,825278912,"""map""",,,0.00815928168595,-0.0187155269086,0.0883956924081,,0.00130527555067,0.00627215224369,-0.105715212099,-0.99437578098
1520440538874538412,,292,,1520440538,865278912,"""map""",,,0.00817572046071,-0.0186698939651,0.0883794277906,,0.00130308045719,0.00628392850121,-0.106013274612,-0.99434408655
1520440538943649115,,293,,1520440538,894849856,"""map""",,,0.00810777302831,-0.018880520016,0.0885309726,,0.00130780600794,0.00630353617003,-0.106611759861,-0.994279939046
1520440538943655223,,294,,1520440538,924849856,"""map""",,,0.00814720150083,-0.0187768284231,0.0884670615196,,0.00130430485607,0.00629367677093,-0.107200719922,-0.99421663448
1520440538994452628,,295,,1520440538,965849856,"""map""",,,0.00810259860009,-0.0189227033406,0.0885771587491,,0.0012998850346,0.00628679201737,-0.107478678388,-0.994186668071
1520440539022797203,,296,,1520440538,990613568,"""map""",,,0.00798861775547,-0.0192593112588,0.0888161957264,,0.00130608111524,0.0062952228688,-0.108066247603,-0.994122899889
1520440539050920188,,297,,1520440539,20613568,"""map""",,,0.00783888809383,-0.019682565704,0.0891149640083,,0.00130495269923,0.00631663379711,-0.10864121491,-0.994060185378
1520440539080058442,,298,,1520440539,60613568,"""map""",,,0.00802894216031,-0.0191337931901,0.088728249073,,0.00129937120525,0.00631780106725,-0.108927729186,-0.994028828123
1520440539152488872,,299,,1520440539,95714880,"""map""",,,0.00813402608037,-0.0188219957054,0.0885198190808,,0.00130867907333,0.00631091730151,-0.109486849279,-0.993967378018
1520440539152516690,,300,,1520440539,125714880,"""map""",,,0.00811977218837,-0.0188581086695,0.088563606143,,0.00131053979083,0.00631438091635,-0.110064598278,-0.993903567689
1520440539177398498,,301,,1520440539,166714880,"""map""",,,0.00798001885414,-0.0192605368793,0.0888794958591,,0.00131065701176,0.00631433547678,-0.110340786576,-0.99387292693
1520440539252474233,,302,,1520440539,196123008,"""map""",,,0.0078358668834,-0.019681327045,0.0892018228769,,0.00132272335814,0.0062980834215,-0.110902140452,-0.993810507448
1520440539252482269,,303,,1520440539,226123008,"""map""",,,0.00804876256734,-0.0190632957965,0.0887268707156,,0.00132627949848,0.00628082428704,-0.111464210823,-0.993747708643
1520440539276717284,,304,,1520440539,266123008,"""map""",,,0.00803403649479,-0.0191115997732,0.0887664481997,,0.00132816359432,0.00628372319996,-0.111738123192,-0.993716983591
1520440539351293309,,305,,1520440539,299597952,"""map""",,,0.00793031509966,-0.0194096695632,0.0890053287148,,0.0013090253031,0.00629056448958,-0.112276802063,-0.993656249982
1520440539351704020,,306,,1520440539,329597952,"""map""",,,0.00779110379517,-0.0198067370802,0.0893302038312,,0.0012908682432,0.00629655691534,-0.112813078563,-0.99359555852
1520440539373312437,,307,,1520440539,369597952,"""map""",,,0.00758286658674,-0.0204015374184,0.0898299366236,,0.00128301032549,0.00630137630868,-0.113088592512,-0.993564074824
1520440539411670754,,308,,1520440539,398195328,"""map""",,,0.00741487136111,-0.0208760648966,0.0902365446091,,0.00129416919755,0.00630298727318,-0.113675108056,-0.993497145629
1520440539443385346,,309,,1520440539,428195328,"""map""",,,0.00723764766008,-0.0213751420379,0.0906658619642,,0.00128950176335,0.00629060499007,-0.114152716143,-0.99344243902
1520440539517179620,,310,,1520440539,458195328,"""map""",,,0.00705259293318,-0.0218935701996,0.0911079868674,,0.00127816705991,0.00628019718803,-0.114480997946,-0.993404801884
1520440539520319834,,311,,1520440539,498195328,"""map""",,,0.0067956824787,-0.0226032994688,0.0917001739144,,0.00128303913682,0.00627373275051,-0.114978035731,-0.993347440023
1520440539560948784,,312,,1520440539,524112640,"""map""",,,0.00659642415121,-0.0231557954103,0.0921567082405,,0.00127648480796,0.00624740265935,-0.115496104792,-0.993287507204
1520440539572543216,,313,,1520440539,554112640,"""map""",,,0.00639144005254,-0.0237251743674,0.0926310494542,,0.00127324246408,0.00624488866569,-0.115754844295,-0.993257456502
1520440539612058719,,314,,1520440539,594341504,"""map""",,,0.00610666582361,-0.0245092399418,0.0932905524969,,0.00125127424247,0.00627340545388,-0.11626271382,-0.993197945151
1520440539643098608,,315,,1520440539,624341504,"""map""",,,0.00588391814381,-0.0251144468784,0.0938008949161,,0.00124936215849,0.00630597739452,-0.116770878373,-0.993138138773
1520440539672703050,,316,,1520440539,654341504,"""map""",,,0.00565129565075,-0.0257360562682,0.0943217426538,,0.00124621283402,0.00630451690744,-0.117034338323,-0.99310716084
1520440539709370258,,317,,1520440539,696992128,"""map""",,,0.00533261243254,-0.0265869479626,0.0950331091881,,0.00124180519563,0.00632000719136,-0.117553376762,-0.993045752881
1520440539741438720,,318,,1520440539,726992128,"""map""",,,0.00508985901251,-0.0272385515273,0.0955787226558,,0.00123076436768,0.0063358270768,-0.118054755672,-0.992986157238
1520440539771784589,,319,,1520440539,756992128,"""map""",,,0.0048379204236,-0.0278969220817,0.0961295962334,,0.00122342488914,0.00634104801766,-0.118315307489,-0.992955052863
1520440539813345918,,320,,1520440539,795408256,"""map""",,,0.0044875992462,-0.0287895314395,0.0968771204352,,0.0012201932466,0.00631375348807,-0.118804000198,-0.992896848066
1520440539842490762,,321,,1520440539,825408256,"""map""",,,0.00421419693157,-0.029479611665,0.097455881536,,0.00123286117339,0.00631039738062,-0.119308202947,-0.992836535925
1520440539875695862,,322,,1520440539,865408256,"""map""",,,0.00384323345497,-0.0304098334163,0.098228380084,,0.00122215159333,0.00632223438888,-0.11954072711,-0.992808508271
1520440539911944644,,323,,1520440539,897904256,"""map""",,,0.00355499610305,-0.0311325956136,0.0988123863935,,0.00124040002629,0.00632375480351,-0.120036205461,-0.992748575453
1520440539942251996,,324,,1520440539,927904256,"""map""",,,0.00326559785753,-0.0318619124591,0.099387139082,,0.00123530816015,0.00631675710957,-0.120526541896,-0.99268923269
1520440539972460379,,325,,1520440539,957904256,"""map""",,,0.00297262775712,-0.0326090492308,0.0999658033252,,0.00123174724536,0.00631992816601,-0.120775039715,-0.99265913984
1520440540006215605,,326,,1520440539,998824320,"""map""",,,0.00258090323769,-0.0336296781898,0.100743696094,,0.00122975926413,0.00631861222945,-0.121258084746,-0.992600176399
1520440540043123159,,327,,1520440540,28824320,"""map""",,,0.00228085787967,-0.0344104394317,0.101330138743,,0.00123566097537,0.00632001048408,-0.121715209465,-0.99254412109
1520440540077080140,,328,,1520440540,58824320,"""map""",,,0.00197707605548,-0.0352018661797,0.101923592389,,0.00123331869719,0.00631411832173,-0.121946595663,-0.992515798408
1520440540105327259,,329,,1520440540,96521088,"""map""",,,0.00156684615649,-0.0362689420581,0.102729827166,,0.00123145040642,0.00632438173789,-0.122419019688,-0.992457677904
1520440540148036644,,330,,1520440540,126521088,"""map""",,,0.00125660758931,-0.0370859354734,0.103346705437,,0.00121771530826,0.00634742799685,-0.122890432189,-0.992399220225
1520440540179529410,,331,,1520440540,156521088,"""map""",,,0.000941785227042,-0.0379147194326,0.103968009353,,0.00121832759001,0.00635344462411,-0.123133661652,-0.992369085229
1520440540202141711,,332,,1520440540,199491968,"""map""",,,0.000511201855261,-0.0390493348241,0.104814447463,,0.00124036347707,0.00632863494759,-0.123601533817,-0.992310964724
1520440540251288899,,333,,1520440540,230491968,"""map""",,,0.000179071939783,-0.0399206094444,0.105465620756,,0.00124994233621,0.00631070903681,-0.124064306214,-0.992253392129
1520440540268736190,,334,,1520440540,259491968,"""map""",,,-0.000155917266966,-0.0407857298851,0.106114111841,,0.00124840496405,0.0063082608976,-0.124295818853,-0.992224352951
1520440540321076781,,335,,1520440540,312072385,"""map""",,,-0.000630965107121,-0.0419650264084,0.107018113136,,0.00124033944019,0.00632468466836,-0.124756483907,-0.992166527475
1520440540350888582,,336,,1520440540,342072385,"""map""",,,-0.00100067013409,-0.0428589656949,0.10771997273,,0.00122572370338,0.00633727538081,-0.125214873031,-0.992108701998
1520440540377304458,,337,,1520440540,372072385,"""map""",,,-0.00137519557029,-0.043761048466,0.108440406621,,0.00122041846882,0.00634175875182,-0.125447607929,-0.992079199205
1520440540411965376,,338,,1520440540,395360360,"""map""",,,-0.00188226625323,-0.0449799709022,0.109422974288,,0.00121963891676,0.00637200421934,-0.12589440667,-0.992022511693
1520440540443344637,,339,,1520440540,425360360,"""map""",,,-0.0022712321952,-0.0459028705955,0.110177487135,,0.00121954820226,0.00636237349982,-0.126326454014,-0.991967678643
