rosbagTimestamp,header,seq,stamp,secs,nsecs,frame_id,type_mask,orientation,x,y,z,w,body_rate,x,y,z,thrust
1520440529187479814,,128,,1520440529,173025344,'',0,,6.60924282495e-17,6.60924282495e-17,-0.0828055760946,-0.996565689082,,0.0355831347406,0.0922941491008,1.47398197651,0.0
1520440529302761263,,129,,1520440529,259544652,'',0,,6.60924282495e-17,6.60924282495e-17,-0.0828055760946,-0.996565689082,,0.0350737832487,0.0919765681028,1.44661021233,0.0
1520440529392184061,,130,,1520440529,376618510,'',0,,6.60924282495e-17,6.60924282495e-17,-0.0828055760946,-0.996565689082,,0.035021789372,0.0922034606338,1.42091822624,0.0
1520440529480234678,,131,,1520440529,458396830,'',0,,6.60924282495e-17,6.60924282495e-17,-0.0828055760946,-0.996565689082,,0.0347505249083,0.092593409121,1.39541471004,0.0
1520440529583700421,,132,,1520440529,580765879,'',0,,6.60924282495e-17,6.60924282495e-17,-0.0828055760946,-0.996565689082,,0.0344314910471,0.0924051180482,1.36903619766,0.0
1520440529685193917,,133,,1520440529,667857536,'',0,,6.60924282495e-17,6.60924282495e-17,-0.0828055760946,-0.996565689082,,0.0339906290174,0.0927152186632,1.34486436844,0.0
1520440529779663501,,134,,1520440529,767902592,'',0,,6.60924282495e-17,6.60924282495e-17,-0.0828055760946,-0.996565689082,,0.0337520316243,0.0933909639716,1.32100558281,0.0
1520440529901195881,,135,,1520440529,872526464,'',0,,6.60924282495e-17,6.60924282495e-17,-0.0828055760946,-0.996565689082,,0.0334799923003,0.0941522791982,1.2960704565,0.0
1520440529977213830,,136,,1520440529,975527872,'',0,,6.60924282495e-17,6.60924282495e-17,-0.0828055760946,-0.996565689082,,0.0336334444582,0.0941357016563,1.27151656151,0.0
1520440530081561782,,137,,1520440530,64096930,'',0,,6.60924282495e-17,6.60924282495e-17,-0.0828055760946,-0.996565689082,,0.0337261296809,0.094128228724,1.24641442299,0.0
1520440530177944888,,138,,1520440530,166190208,'',0,,6.60924282495e-17,6.60924282495e-17,-0.0828055760946,-0.996565689082,,0.034370623529,0.0935973748565,1.22340369225,0.0
1520440530278411020,,139,,1520440530,266807424,'',0,,6.60924282495e-17,6.60924282495e-17,-0.0828055760946,-0.996565689082,,0.0340352356434,0.0938878878951,1.1998821497,0.0
1520440530377249709,,140,,1520440530,371800448,'',0,,6.60924282495e-17,6.60924282495e-17,-0.0828055760946,-0.996565689082,,0.0337923690677,0.0940710157156,1.17641615868,0.0
1520440530502808397,,141,,1520440530,471001216,'',0,,6.60924282495e-17,6.60924282495e-17,-0.0828055760946,-0.996565689082,,0.0338003523648,0.0940105170012,1.15233385563,0.0
1520440530592396301,,142,,1520440530,572934016,'',0,,6.60924282495e-17,6.60924282495e-17,-0.0828055760946,-0.996565689082,,0.0338846333325,0.0934197902679,1.13025867939,0.0
1520440530702458250,,143,,1520440530,659053098,'',0,,6.60924282495e-17,6.60924282495e-17,-0.0828055760946,-0.996565689082,,0.0335197597742,0.0936153978109,1.10766339302,0.0
1520440530804256778,,144,,1520440530,773686575,'',0,,6.60924282495e-17,6.60924282495e-17,-0.0828055760946,-0.996565689082,,0.033621083945,0.0935927331448,1.08475995064,0.0
1520440530893711434,,145,,1520440530,875986624,'',0,,6.60924282495e-17,6.60924282495e-17,-0.0828055760946,-0.996565689082,,0.0335633829236,0.0939226076007,1.06162142754,0.0
1520440530983308505,,146,,1520440530,973874112,'',0,,6.60924282495e-17,6.60924282495e-17,-0.0828055760946,-0.996565689082,,0.0335113033652,0.0942713841796,1.0395232439,0.0
1520440531091275117,,147,,1520440531,69747392,'',0,,6.60924282495e-17,6.60924282495e-17,-0.0828055760946,-0.996565689082,,0.0330948643386,0.094199500978,1.01760840416,0.0
1520440531184810892,,148,,1520440531,170458048,'',0,,6.60924282495e-17,6.60924282495e-17,-0.0828055760946,-0.996565689082,,0.0326412171125,0.0948252975941,0.996801614761,0.0
1520440531295357311,,149,,1520440531,269077952,'',0,,6.60924282495e-17,6.60924282495e-17,-0.0828055760946,-0.996565689082,,0.0325250737369,0.0960252135992,0.974479317665,0.0
1520440531402238247,,150,,1520440531,368628736,'',0,,6.60924282495e-17,6.60924282495e-17,-0.0828055760946,-0.996565689082,,0.0321222245693,0.0966794490814,0.954162359238,0.0
1520440531501648471,,151,,1520440531,470498496,'',0,,6.60924282495e-17,6.60924282495e-17,-0.0828055760946,-0.996565689082,,0.0320360064507,0.0965772867203,0.932112574577,0.0
1520440531593782737,,152,,1520440531,573273536,'',0,,6.60924282495e-17,6.60924282495e-17,-0.0828055760946,-0.996565689082,,0.0322969071567,0.0964287742972,0.912198543549,0.0
1520440531701409047,,153,,1520440531,671037120,'',0,,6.60924282495e-17,6.60924282495e-17,-0.0828055760946,-0.996565689082,,0.0319629311562,0.0962782353163,0.890814304352,0.0
1520440531783129048,,154,,1520440531,756071245,'',0,,6.60924282495e-17,6.60924282495e-17,-0.0828055760946,-0.996565689082,,0.0319720283151,0.0962899848819,0.872225224972,0.0
1520440531881722191,,155,,1520440531,867491477,'',0,,6.60924282495e-17,6.60924282495e-17,-0.0828055760946,-0.996565689082,,0.0318494327366,0.0967337712646,0.850318729877,0.0
1520440531977612416,,156,,1520440531,967379712,'',0,,6.60924282495e-17,6.60924282495e-17,-0.0828055760946,-0.996565689082,,0.0320290587842,0.0971143618226,0.831155180931,0.0
1520440532082288683,,157,,1520440532,67081472,'',0,,6.60924282495e-17,6.60924282495e-17,-0.0828055760946,-0.996565689082,,0.0319456532598,0.0977283865213,0.811591923237,0.0
1520440532177109100,,158,,1520440532,167087616,'',0,,6.60924282495e-17,6.60924282495e-17,-0.0828055760946,-0.996565689082,,0.0317373797297,0.0971599668264,0.791849970818,0.0
1520440532282417973,,159,,1520440532,269990656,'',0,,6.60924282495e-17,6.60924282495e-17,-0.0828055760946,-0.996565689082,,0.032007753849,0.0970392748713,0.773153543472,0.0
1520440532401522683,,160,,1520440532,368153344,'',0,,6.60924282495e-17,6.60924282495e-17,-0.0828055760946,-0.996565689082,,0.0319482311606,0.0973901748657,0.753967165947,0.0
1520440532503108607,,161,,1520440532,473185088,'',0,,6.60924282495e-17,6.60924282495e-17,-0.0828055760946,-0.996565689082,,0.0320973135531,0.0977719128132,0.73406457901,0.0
1520440532578138199,,162,,1520440532,575081984,'',0,,6.60924282495e-17,6.60924282495e-17,-0.0828055760946,-0.996565689082,,0.0320214740932,0.09774171561,0.715145528316,0.0
1520440532694744575,,163,,1520440532,678402304,'',0,,6.60924282495e-17,6.60924282495e-17,-0.0828055760946,-0.996565689082,,0.0315867215395,0.0980440378189,0.696579933167,0.0
1520440532802267016,,164,,1520440532,760367355,'',0,,6.60924282495e-17,6.60924282495e-17,-0.0828055760946,-0.996565689082,,0.0317017771304,0.0977987200022,0.678093135357,0.0
1520440532900961160,,165,,1520440532,877765421,'',0,,6.60924282495e-17,6.60924282495e-17,-0.0828055760946,-0.996565689082,,0.0316336601973,0.0977708548307,0.659910798073,0.0
1520440532981929229,,166,,1520440532,977329216,'',0,,6.60924282495e-17,6.60924282495e-17,-0.0828055760946,-0.996565689082,,0.0317938290536,0.0979859307408,0.641851067543,0.0
1520440533091383139,,167,,1520440533,72607296,'',0,,6.60924282495e-17,6.60924282495e-17,-0.0828055760946,-0.996565689082,,0.0319853909314,0.0984322950244,0.623645544052,0.0
1520440533177561016,,168,,1520440533,161092020,'',0,,6.60924282495e-17,6.60924282495e-17,-0.0828055760946,-0.996565689082,,0.0320469923317,0.0987852290273,0.606591820717,0.0
1520440533302133910,,169,,1520440533,274672545,'',0,,6.60924282495e-17,6.60924282495e-17,-0.0828055760946,-0.996565689082,,0.0317693054676,0.0987746790051,0.588183164597,0.0
1520440533400525428,,170,,1520440533,367082944,'',0,,6.60924282495e-17,6.60924282495e-17,-0.0828055760946,-0.996565689082,,0.0315737240016,0.0985781103373,0.571695685387,0.0
1520440533502535411,,171,,1520440533,478912320,'',0,,6.60924282495e-17,6.60924282495e-17,-0.0828055760946,-0.996565689082,,0.031029233709,0.0980843380094,0.553863883018,0.0
1520440533578240375,,172,,1520440533,568947136,'',0,,6.60924282495e-17,6.60924282495e-17,-0.0828055760946,-0.996565689082,,0.0309681408107,0.0983506441116,0.537519514561,0.0
1520440533700336699,,173,,1520440533,676980544,'',0,,6.60924282495e-17,6.60924282495e-17,-0.0828055760946,-0.996565689082,,0.0307568572462,0.0979335308075,0.519928514957,0.0
1520440533783561221,,174,,1520440533,767964608,'',0,,6.60924282495e-17,6.60924282495e-17,-0.0828055760946,-0.996565689082,,0.0303590558469,0.0978208184242,0.503903567791,0.0
1520440533877317904,,175,,1520440533,874234432,'',0,,6.60924282495e-17,6.60924282495e-17,-0.0828055760946,-0.996565689082,,0.0298795886338,0.0981844216585,0.487169325352,0.0
1520440533983136463,,176,,1520440533,976857152,'',0,,6.60924282495e-17,6.60924282495e-17,-0.0828055760946,-0.996565689082,,0.0298111923039,0.0980944335461,0.470065623522,0.0
1520440534077600436,,177,,1520440534,71864960,'',0,,6.60924282495e-17,6.60924282495e-17,-0.0828055760946,-0.996565689082,,0.0292723365128,0.0988861098886,0.454567670822,0.0
1520440534174608765,,178,,1520440534,174659200,'',0,,6.60924282495e-17,6.60924282495e-17,-0.0828055760946,-0.996565689082,,0.028979331255,0.0991904959083,0.438638985157,0.0
1520440534301482716,,179,,1520440534,277812608,'',0,,6.60924282495e-17,6.60924282495e-17,-0.0828055760946,-0.996565689082,,0.0289481785148,0.0994473174214,0.422200918198,0.0
1520440534394719568,,180,,1520440534,367194112,'',0,,6.60924282495e-17,6.60924282495e-17,-0.0828055760946,-0.996565689082,,0.0291494205594,0.0985149592161,0.407085120678,0.0
1520440534479347321,,181,,1520440534,477417600,'',0,,6.60924282495e-17,6.60924282495e-17,-0.0828055760946,-0.996565689082,,0.0291558913887,0.0981045514345,0.391408056021,0.0
1520440534576121266,,182,,1520440534,572831104,'',0,,6.60924282495e-17,6.60924282495e-17,-0.0828055760946,-0.996565689082,,0.0293328128755,0.098436370492,0.375894010067,0.0
1520440534676888631,,183,,1520440534,660791552,'',0,,6.60924282495e-17,6.60924282495e-17,-0.0828055760946,-0.996565689082,,0.0291155558079,0.0984615385532,0.360523641109,0.0
1520440534779641359,,184,,1520440534,770350720,'',0,,6.60924282495e-17,6.60924282495e-17,-0.0828055760946,-0.996565689082,,0.0288059040904,0.0987783446908,0.344775140285,0.0
1520440534883792024,,185,,1520440534,868145792,'',0,,6.60924282495e-17,6.60924282495e-17,-0.0828055760946,-0.996565689082,,0.0284881144762,0.0982978343964,0.330447733402,0.0
1520440534977961279,,186,,1520440534,969173440,'',0,,6.60924282495e-17,6.60924282495e-17,-0.0828055760946,-0.996565689082,,0.0283279810101,0.0981265977025,0.315507948399,0.0
1520440535094444949,,187,,1520440535,79414285,'',0,,6.60924282495e-17,6.60924282495e-17,-0.0828055760946,-0.996565689082,,0.0278843324631,0.098436422646,0.300874173641,0.0
1520440535202003258,,188,,1520440535,178488512,'',0,,6.60924282495e-17,6.60924282495e-17,-0.0828055760946,-0.996565689082,,0.0279223360121,0.0982345789671,0.285812646151,0.0
1520440535301738514,,189,,1520440535,279457472,'',0,,6.60924282495e-17,6.60924282495e-17,-0.0828055760946,-0.996565689082,,0.0279526691884,0.0986697524786,0.272050619125,0.0
1520440535401063801,,190,,1520440535,377909184,'',0,,6.60924282495e-17,6.60924282495e-17,-0.0828055760946,-0.996565689082,,0.0283069983125,0.0978969410062,0.257260203362,0.0
1520440535497863541,,191,,1520440535,478996928,'',0,,6.60924282495e-17,6.60924282495e-17,-0.0828055760946,-0.996565689082,,0.0282707214355,0.098139539361,0.243760347366,0.0
1520440535576969792,,192,,1520440535,563577848,'',0,,6.60924282495e-17,6.60924282495e-17,-0.0828055760946,-0.996565689082,,0.0286442283541,0.0978230088949,0.229995191097,0.0
1520440535677294327,,193,,1520440535,667418304,'',0,,6.60924282495e-17,6.60924282495e-17,-0.0828055760946,-0.996565689082,,0.0283564832062,0.0979649797082,0.21581299603,0.0
1520440535793509464,,194,,1520440535,774863040,'',0,,6.60924282495e-17,6.60924282495e-17,-0.0828055760946,-0.996565689082,,0.0279873777181,0.0981307402253,0.201701104641,0.0
1520440535903475257,,195,,1520440535,879154112,'',0,,6.60924282495e-17,6.60924282495e-17,-0.0828055760946,-0.996565689082,,0.0282055698335,0.0980051159859,0.188371837139,0.0
1520440535983495174,,196,,1520440535,979154112,'',0,,6.60924282495e-17,6.60924282495e-17,-0.0828055760946,-0.996565689082,,0.0281462874264,0.0982234030962,0.175668895245,0.0
1520440536092913898,,197,,1520440536,74516736,'',0,,6.60924282495e-17,6.60924282495e-17,-0.0828055760946,-0.996565689082,,0.028314596042,0.0977227017283,0.162805005908,0.0
1520440536181877021,,198,,1520440536,176301056,'',0,,6.60924282495e-17,6.60924282495e-17,-0.0828055760946,-0.996565689082,,0.0283755287528,0.0982672050595,0.149896413088,0.0
1520440536281320867,,199,,1520440536,273731840,'',0,,6.60924282495e-17,6.60924282495e-17,-0.0828055760946,-0.996565689082,,0.0286924615502,0.0981380715966,0.137038052082,0.0
1520440536382522882,,200,,1520440536,372915968,'',0,,6.60924282495e-17,6.60924282495e-17,-0.0828055760946,-0.996565689082,,0.0288629215211,0.0981394052505,0.124625757337,0.0
1520440536482307739,,201,,1520440536,472386304,'',0,,6.60924282495e-17,6.60924282495e-17,-0.0828055760946,-0.996565689082,,0.0290529485792,0.0983851104975,0.112108439207,0.0
1520440536582250788,,202,,1520440536,574768896,'',0,,6.60924282495e-17,6.60924282495e-17,-0.0828055760946,-0.996565689082,,0.0290142390877,0.0988295301795,0.0998607873917,0.0
1520440536693203244,,203,,1520440536,673164544,'',0,,6.60924282495e-17,6.60924282495e-17,-0.0828055760946,-0.996565689082,,0.0290062688291,0.0988854765892,0.0876867175102,0.0
1520440536782716835,,204,,1520440536,774644480,'',0,,6.60924282495e-17,6.60924282495e-17,-0.0828055760946,-0.996565689082,,0.0286412518471,0.0989931821823,0.0757306516171,0.0
1520440536882348861,,205,,1520440536,875688960,'',0,,6.60924282495e-17,6.60924282495e-17,-0.0828055760946,-0.996565689082,,0.0289704166353,0.098823800683,0.0639033466578,0.0
1520440536992431343,,206,,1520440536,973415936,'',0,,6.60924282495e-17,6.60924282495e-17,-0.0828055760946,-0.996565689082,,0.0292264539748,0.0984223037958,0.0521952733397,0.0
1520440537104655677,,207,,1520440537,75617856,'',0,,6.60924282495e-17,6.60924282495e-17,-0.0828055760946,-0.996565689082,,0.0297796968371,0.0972542315722,0.0404539331794,0.0
1520440537201666600,,208,,1520440537,181125440,'',0,,6.60924282495e-17,6.60924282495e-17,-0.0828055760946,-0.996565689082,,0.0298802442849,0.0970234870911,0.0290644839406,0.0
1520440537302568492,,209,,1520440537,281055808,'',0,,6.60924282495e-17,6.60924282495e-17,-0.0828055760946,-0.996565689082,,0.0301168542355,0.0971254184842,0.0182554461062,0.0
1520440537383142060,,210,,1520440537,381634880,'',0,,6.60924282495e-17,6.60924282495e-17,-0.0828055760946,-0.996565689082,,0.0301114916801,0.0967026278377,0.00662070745602,0.0
1520440537492226009,,211,,1520440537,478324032,'',0,,6.60924282495e-17,6.60924282495e-17,-0.0828055760946,-0.996565689082,,0.0301828030497,0.0976953580976,-0.00436420086771,0.0
1520440537593279726,,212,,1520440537,578830144,'',0,,6.60924282495e-17,6.60924282495e-17,-0.0828055760946,-0.996565689082,,0.0306969508529,0.0970271080732,-0.0151007547975,0.0
1520440537701731063,,213,,1520440537,677678144,'',0,,0.00142411842706,-0.000729725637193,-0.0828065454721,-0.996564382529,,0.00879405811429,0.111456111073,-0.0256411619484,0.497578144073
1520440537800803917,,214,,1520440537,781815680,'',0,,0.00266979697569,5.2856346254e-05,1.26440545645e-07,-0.999996400404,,-0.011980435811,0.103578113019,-0.533496260643,0.568076789379
1520440537882575509,,215,,1520440537,880698432,'',0,,0.00262546738141,0.000149243389984,4.21468485223e-07,-0.999996526844,,-0.0115405870602,0.102715618908,-0.543803870678,0.581116080284
1520440537981812064,,216,,1520440537,977718656,'',0,,0.00256918314635,0.000115590695491,3.37174788201e-07,-0.999996695432,,-0.0107224993408,0.103066205978,-0.554002404213,0.58194565773
1520440538092584584,,217,,1520440538,74888320,'',0,,0.00272648596866,9.20627935367e-05,2.52881091178e-07,-0.999996273963,,-0.0131969684735,0.104186318815,-0.564030706882,0.582797586918
1520440538182919951,,218,,1520440538,177734528,'',0,,0.00275960441892,0.000141279199659,3.79321636712e-07,-0.999996147523,,-0.0139621701092,0.103685624897,-0.573929190636,0.583558857441
1520440538292198066,,219,,1520440538,275241600,'',0,,0.00289116728827,0.000100585594241,2.9502793969e-07,-0.999995810348,,-0.0154919177294,0.104681879282,-0.583592772484,0.584215223789
1520440538383548284,,220,,1520440538,375957632,'',0,,0.00280173702641,0.000232734650523,7.16496424802e-07,-0.999996063229,,-0.0141877923161,0.102530062199,-0.592826962471,0.585165917873
1520440538483581342,,221,,1520440538,474945152,'',0,,0.00291471264166,0.000237131093658,7.58643273313e-07,-0.999995768201,,-0.0154871651903,0.103119850159,-0.602663516998,0.585949242115
1520440538593714357,,222,,1520440538,577591680,'',0,,0.00309628859135,0.000202222225517,6.32202727779e-07,-0.999995220292,,-0.0181723870337,0.104393184185,-0.61217045784,0.586754083633
1520440538693397954,,223,,1520440538,677591680,'',0,,0.00316527096393,0.000192198354924,6.32202727779e-07,-0.999994967411,,-0.0191377662122,0.104527391493,-0.621290266514,0.587519288063
1520440538782838930,,224,,1520440538,779604864,'',0,,0.00318858508587,0.000222049518927,7.16496424802e-07,-0.999994883117,,-0.0201974660158,0.105076029897,-0.629891097546,0.588410973549
1520440538883331621,,225,,1520440538,876849856,'',0,,0.00320658705854,0.000246533215917,8.42936970336e-07,-0.99999484097,,-0.0194875951856,0.104983024299,-0.639330506325,0.589182078838
1520440538994631249,,226,,1520440538,975849856,'',0,,0.00331248397887,0.000189676788003,6.74349576291e-07,-0.999994503795,,-0.0205601677299,0.105675466359,-0.647737145424,0.589837193489
1520440539103362893,,227,,1520440539,72613568,'',0,,0.00330094364492,0.000262856558636,8.85083818847e-07,-0.999994545942,,-0.020732652396,0.105485841632,-0.656766653061,0.590581953526
1520440539182234461,,228,,1520440539,176714880,'',0,,0.00352530992342,0.000172359536985,6.32202727779e-07,-0.999993787299,,-0.0226726271212,0.107168599963,-0.664943158627,0.591133773327
1520440539301004221,,229,,1520440539,277123008,'',0,,0.00340383826084,0.000224149288091,7.58643273313e-07,-0.999994166621,,-0.021405396983,0.105980783701,-0.673330485821,0.591989278793
1520440539381614685,,230,,1520440539,381597952,'',0,,0.00372044341122,0.000117356417954,4.21468485223e-07,-0.999993070803,,-0.0265191420913,0.109433352947,-0.681764781475,0.59220790863
1520440539517473541,,231,,1520440539,479195328,'',0,,0.00407657275661,-2.18784949158e-06,4.21468486222e-08,-0.999991679957,,-0.0316943712533,0.112289249897,-0.689901828766,0.592510044575
1520440539582324939,,232,,1520440539,575112640,'',0,,0.0044471546844,-0.000101837322714,-4.63615333568e-07,-0.999990078376,,-0.0368332713842,0.11456092447,-0.697418570518,0.592635214329
1520440539695479486,,233,,1520440539,675341504,'',0,,0.00478884149019,-0.000221430651725,-1.01152436421e-06,-0.999988518943,,-0.0421098358929,0.119297891855,-0.70546579361,0.592810332775
1520440539782761175,,234,,1520440539,777992128,'',0,,0.00505043792391,-0.000367633294762,-1.85446133444e-06,-0.999987170244,,-0.0452112741768,0.122429028153,-0.712791800499,0.593049526215
1520440539892847300,,235,,1520440539,876408256,'',0,,0.00547457845336,-0.000486245063184,-2.61310460759e-06,-0.999984894314,,-0.0508288741112,0.126225054264,-0.720136404037,0.593280076981
1520440539993344558,,236,,1520440539,968904256,'',0,,0.00582352670016,-0.000518250984816,-3.0345730927e-06,-0.999982871265,,-0.0565707087517,0.128531008959,-0.72755920887,0.593622863293
1520440540092498828,,237,,1520440540,77521088,'',0,,0.00618524889942,-0.000680335745752,-4.1725380025e-06,-0.999980637482,,-0.0615178160369,0.13258343935,-0.734853506088,0.593864619732
1520440540201962378,,238,,1520440540,177521088,'',0,,0.00664611316335,-0.000809842145241,-5.39479660933e-06,-0.999977560762,,-0.0674974918365,0.13656026125,-0.741745829582,0.594026625156
1520440540319790252,,239,,1520440540,294072385,'',0,,0.00702578415781,-0.00108469195182,-7.58643273185e-06,-0.99997477907,,-0.0724227949977,0.142470955849,-0.748932719231,0.594020426273
1520440540382421931,,240,,1520440540,384072385,'',0,,0.00738738666661,-0.0011591315181,-8.55581024761e-06,-0.999972039525,,-0.0777201130986,0.145916208625,-0.755287051201,0.593906879425
1520440540484332999,,241,,1520440540,466360360,'',0,,0.00784823743038,-0.00136106958166,-1.06631526732e-05,-0.999968246309,,-0.0838270783424,0.150779440999,-0.761866927147,0.593875408173
1520440540607522369,,242,,1520440540,567432832,'',0,,0.00390844140463,0.000209694894685,8.85083818847e-07,-0.999992354306,,-0.0289109554142,0.11059653759,-0.769060134888,0.60127478838
1520440540702290307,,243,,1520440540,672418432,'',0,,0.00424728461523,3.61842218996e-05,1.685873941e-07,-0.99999096346,,-0.0334661900997,0.114490069449,-0.775319814682,0.602634191513
1520440540803005647,,244,,1520440540,783396096,'',0,,0.00446246749057,-1.67402013923e-06,5.55111512313e-17,-0.999990036229,,-0.0358320362866,0.115196794271,-0.781796514988,0.60372120142
1520440540892030743,,245,,1520440540,874338432,'',0,,0.00444824391702,7.4263734893e-05,2.95027939634e-07,-0.999990078376,,-0.0360698662698,0.114198297262,-0.785398244858,0.604643821716
1520440540993978360,,246,,1520440540,972899776,'',0,,0.00452362750685,6.49446715606e-05,2.95027939634e-07,-0.999989741202,,-0.0374150946736,0.114508450031,-0.785398244858,0.605583488941
1520440541092639004,,247,,1520440541,80369152,'',0,,0.00454795183607,0.000109294680723,4.63615333679e-07,-0.999989656908,,-0.0376591309905,0.114831134677,-0.785398244858,0.606487214565
1520440541182226764,,248,,1520440541,171405248,'',0,,0.00466081204139,5.55846138325e-05,2.95027939634e-07,-0.999989151146,,-0.039260674268,0.115653656423,-0.785398244858,0.607255220413
1520440541278540488,,249,,1520440541,269014720,'',0,,0.00479623381692,0.000108646837563,5.47909030701e-07,-0.999988476796,,-0.0411290228367,0.114918127656,-0.785398244858,0.607837975025
1520440541401221466,,250,,1520440541,382863104,'',0,,0.00466858122022,0.000115990925916,5.47909030701e-07,-0.999989066852,,-0.0390550866723,0.113958366215,-0.785398244858,0.60894715786
1520440541492213287,,251,,1520440541,483863104,'',0,,0.00479495558203,0.000105126917168,5.0576218219e-07,-0.999988518943,,-0.0399976037443,0.114452108741,-0.785398244858,0.609495997429
1520440541592730897,,252,,1520440541,584032320,'',0,,0.0046608107243,0.000167999149162,7.16496424746e-07,-0.999989066852,,-0.0388972535729,0.112934112549,-0.785398244858,0.610367596149
1520440541696369912,,253,,1520440541,683135296,'',0,,0.00467292991888,0.000158013638787,7.16496424746e-07,-0.999989066852,,-0.0385804027319,0.112822026014,-0.785398244858,0.61119055748
1520440541806870766,,254,,1520440541,786806080,'',0,,0.00478049707273,0.000128491253131,5.90055879213e-07,-0.999988518943,,-0.0396731309593,0.113519132137,-0.785398244858,0.611911177635
1520440541901566168,,255,,1520440541,886754624,'',0,,0.0048022140596,0.000208371549496,1.01152436432e-06,-0.999988434649,,-0.0396933034062,0.112290903926,-0.785398244858,0.612903594971
1520440542001276219,,256,,1520440541,985370176,'',0,,0.00475970731652,0.000289701796232,1.39084600093e-06,-0.999988645383,,-0.0397283770144,0.111804462969,-0.785398244858,0.613881349564
1520440542106220328,,257,,1520440542,87671616,'',0,,0.00483011873067,0.000233495516384,1.13796490986e-06,-0.999988308209,,-0.0410203300416,0.112556830049,-0.785398244858,0.614672243595
1520440542202067777,,258,,1520440542,188083264,'',0,,0.0047809886762,0.000267940028329,1.26440545539e-06,-0.999988518943,,-0.0404309034348,0.111425682902,-0.785398244858,0.615471661091
1520440542296444976,,259,,1520440542,288083264,'',0,,0.00490916530969,0.00028577621242,1.39084600093e-06,-0.99998788674,,-0.0415826253593,0.110863693058,-0.785398244858,0.61594671011
1520440542401053693,,260,,1520440542,387169572,'',0,,0.00486085646022,0.000270709043349,1.34869915241e-06,-0.999988181768,,-0.0411567054689,0.110584236681,-0.785398244858,0.616802036762
1520440542505003773,,261,,1520440542,486169572,'',0,,0.00478615479323,0.000412941156911,1.98090188008e-06,-0.999988476796,,-0.0407527983189,0.109041512012,-0.785398244858,0.617468178272
1520440542592849945,,262,,1520440542,584286848,'',0,,0.004947151474,0.000370040933483,1.81231448604e-06,-0.999987718153,,-0.0425647348166,0.109626226127,-0.785398244858,0.617874264717
1520440542707685281,,263,,1520440542,684286848,'',0,,0.00488571157631,0.000409017878005,2.02304872859e-06,-0.999988013181,,-0.0422006361187,0.109142541885,-0.785398244858,0.618898868561
1520440542801713541,,264,,1520440542,786513024,'',0,,0.00275420303687,0.000591438822619,1.64372709199e-06,-0.999996063229,,-0.0100564844906,0.0961376279593,-0.785398244858,0.402489453554
1520440542893013774,,265,,1520440542,886513024,'',0,,0.0034591172277,0.000895322951057,3.1610136384e-06,-0.999993618712,,-0.0226134620607,0.0901483744383,-0.785398244858,0.421035021544
1520440542993317499,,266,,1520440542,971846004,'',0,,0.00298225823475,0.000725262722221,2.19163612264e-06,-0.999995262439,,-0.00978068914264,0.0987716689706,-0.785398244858,0.440983861685
1520440543100858190,,267,,1520440543,86980426,'',0,,0.00295670703711,0.000899979519273,2.65525145626e-06,-0.999995220292,,-0.0154621517286,0.0927888900042,-0.785398244858,0.461619824171
1520440543224163493,,268,,1520440543,185980426,'',0,,0.00299620143298,0.00129001353475,3.83536321452e-06,-0.999994630236,,-0.0151593554765,0.0872176364064,-0.785398244858,0.484029859304
1520440543306814899,,269,,1520440543,267616259,'',0,,0.00240061777239,0.00112219462098,2.73954515329e-06,-0.999996484697,,-0.00775335682556,0.0882328599691,-0.785398244858,0.50372928381
1520440543392887125,,270,,1520440543,387124553,'',0,,0.0027613143709,0.00155916302122,4.34112539666e-06,-0.999994967411,,-0.0158581715077,0.0832459107041,-0.785398244858,0.523456394672
1520440543501291135,,271,,1520440543,485144192,'',0,,0.00313428932596,0.00136707740089,4.25683169963e-06,-0.999994124474,,-0.0198292788118,0.0884741470218,-0.785398244858,0.545150816441
1520440543610293452,,272,,1520440543,588882048,'',0,,0.00326017973987,0.00115580899642,3.7510695175e-06,-0.99999404018,,-0.0242730360478,0.0927403569221,-0.785398244858,0.566449344158
1520440543692936934,,273,,1520440543,678882048,'',0,,0.00291990633524,0.00121940184074,3.58248212351e-06,-0.999994967411,,-0.0185663532466,0.0921171009541,-0.785398244858,0.577956974506
1520440543801776983,,274,,1520440543,783262336,'',0,,0.00315818807079,0.00131399196346,4.17253800261e-06,-0.999994124474,,-0.0225711036474,0.0937459915876,-0.785398244858,0.576355516911
1520440543893240294,,275,,1520440543,883180672,'',0,,0.00243054306381,0.00151505226951,3.62462897202e-06,-0.999995852495,,-0.0142241716385,0.0864019095898,-0.785398244858,0.574557244778
1520440544000024795,,276,,1520440543,973180672,'',0,,0.00340641991994,0.00141293983983,4.84688757879e-06,-0.999993197243,,-0.0294342767447,0.0947662740946,-0.785398244858,0.572474718094
1520440544101521728,,277,,1520440544,74398464,'',0,,0.00418362665732,0.00157238622451,6.57490836781e-06,-0.999990036229,,-0.0487597957253,0.104532383382,-0.785398244858,0.571460187435
1520440544208549324,,278,,1520440544,187613888,'',0,,0.00587902850202,0.0034388474747,2.02304872853e-05,-0.999976802119,,-0.0897831246257,0.0938539728522,-0.785398244858,0.565021276474
1520440544301793779,,279,,1520440544,287646656,'',0,,0.0055163499315,-0.00239937546933,-1.32341104323e-05,-0.999981859741,,-0.045823417604,0.346311122179,-0.785398244858,0.512179613113
1520440544403516062,,280,,1520440544,387998144,'',0,,0.00409983859901,-0.00515428631807,-2.10312774069e-05,-0.999978361552,,-0.0146043663844,0.45360776782,-0.677514493465,0.490166753531
1520440544495076024,,281,,1520440544,484075200,'',0,,0.00339722367516,-0.0134440300554,-4.56450369372e-05,-0.999903845924,,0.00991694722325,0.54000800848,-0.487071633339,0.484892457724
1520440544621257608,,282,,1520440544,573075200,'',0,,0.0069479106112,-0.0186865797356,-0.000129854440262,-0.999801260495,,-0.0401314720511,0.550754308701,-0.313930183649,0.471919357777
1520440544764747543,,283,,1520440544,686341842,'',0,,0.000696344304196,-0.0192688614969,-1.33605509779e-05,-0.999814157431,,0.0718054249883,0.445239722729,-0.140718102455,0.464107215405
1520440544814783958,,284,,1520440544,817584101,'',0,,0.00802980177323,-0.0216230692094,-0.000173602869016,-0.999733994125,,-0.0731649026275,0.409465789795,0.02046251297,0.474185228348
1520440544911667039,,285,,1520440544,880902097,'',0,,0.00844340163928,-0.0176836799995,-0.000149368431123,-0.999807961844,,-0.0255317818373,0.326986253262,0.146831333637,0.476479142904
1520440545003232374,,286,,1520440544,988028032,'',0,,0.00376313207722,-0.0246202178764,-9.26387730268e-05,-0.999689782081,,0.075980566442,0.498202115297,0.254435032606,0.490136295557
1520440545092428648,,287,,1520440545,88028032,'',0,,0.00411046688998,-0.0228056775099,-9.36924442396e-05,-0.999731465314,,0.00518860062584,0.425222784281,0.330722212791,0.518097639084
1520440545202538999,,288,,1520440545,185784512,'',0,,6.00829667304e-05,-0.0177586510112,-1.01152436416e-06,-0.999842353672,,0.0648723989725,0.254496991634,0.380086541176,0.54222869873
1520440545301918103,,289,,1520440545,286784512,'',0,,0.0031336405773,-0.0267643880864,-8.38300816881e-05,-0.999636887786,,0.019889369607,0.484935075045,0.401554942131,0.512629628181
1520440545401165818,,290,,1520440545,382311104,'',0,,-0.00887662086332,-0.0282104721421,0.000250563014397,-0.999562625039,,0.20854409039,0.453718274832,0.405458927155,0.500304460526
1520440545498177782,,291,,1520440545,484819456,'',0,,-0.00641277800256,-0.0273175397899,0.000175330889805,-0.999606247027,,0.0155422966927,0.376109033823,0.395046234131,0.498495340347
1520440545610297909,,292,,1520440545,594111947,'',0,,-0.0032944683414,-0.0206716653489,6.81514540422e-05,-0.99978086142,,0.0274974051863,0.238988012075,0.373107522726,0.506262600422
1520440545701220948,,293,,1520440545,688357888,'',0,,0.00219779351372,-0.0221158699185,-4.8511022636e-05,-0.9997530445,,-0.0410609729588,0.299737125635,0.343746840954,0.498217999935
1520440545800838836,,294,,1520440545,784704512,'',0,,-0.00348475016717,-0.0235603477841,8.21442077478e-05,-0.999716376742,,0.075027897954,0.323489785194,0.31061527133,0.506681144238
1520440545902088739,,295,,1520440545,885670912,'',0,,-0.00114842918203,-0.0244234204112,2.81540948054e-05,-0.999701077436,,-0.014795630239,0.318427801132,0.275833696127,0.504139244556
1520440546002830194,,296,,1520440545,985670912,'',0,,9.35370277359e-05,-0.0264989959668,-2.40237036508e-06,-0.999648857491,,-0.00638085976243,0.348621159792,0.244032338262,0.503332793713
1520440546094987429,,297,,1520440546,82267648,'',0,,-0.00199080112106,-0.0249086794686,4.96911343944e-05,-0.999687801179,,0.0560168884695,0.329286038876,0.212248682976,0.503464400768
1520440546208101849,,298,,1520440546,193103851,'',0,,-0.00263880496564,-0.025317515753,6.68870485869e-05,-0.999676000061,,0.0326713994145,0.315833389759,0.180973857641,0.504313826561
1520440546301615398,,299,,1520440546,291633152,'',0,,0.00120848646552,-0.0222154675314,-2.68475425014e-05,-0.999752454444,,0.00507880933583,0.320635825396,0.156929776073,0.508742451668
1520440546392776396,,300,,1520440546,386335488,'',0,,-0.00290670943257,-0.0245967486672,7.15653487716e-05,-0.999693238122,,0.032198805362,0.382067203522,0.134499117732,0.511295855045
1520440546493169081,,301,,1520440546,483800576,'',0,,8.43529660276e-05,-0.0233523162082,-1.93875503141e-06,-0.999727292776,,-0.0195947997272,0.337702691555,0.116220086813,0.511695921421
1520440546592235301,,302,,1520440546,584948544,'',0,,0.00101505350428,-0.0161446394231,-1.63529772221e-05,-0.999869159068,,-0.0151849016547,0.273253977299,0.104747794569,0.520460247993
1520440546698534021,,303,,1520440546,684948544,'',0,,0.00143461418595,-0.0194971070964,-2.79855074111e-05,-0.999808889075,,-0.000556371582206,0.404977828264,0.0989342778921,0.509597361088
1520440546805141818,,304,,1520440546,781845056,'',0,,-0.00237890181449,-0.022068003611,5.25571200932e-05,-0.999753634556,,0.0689927786589,0.45472189784,0.0935284271836,0.503308057785
1520440546900955124,,305,,1520440546,882056256,'',0,,-0.00520696061793,-0.0238606302503,0.000124333203107,-0.999701751786,,0.0747947990894,0.433276414871,0.0891539305449,0.498489052057
1520440546994106884,,306,,1520440546,982350144,'',0,,0.00628486165878,-0.0108112527477,-6.7898572951e-05,-0.999921800482,,-0.119293496013,0.175453171134,0.0886924415827,0.538130044937
1520440547092519142,,307,,1520440547,83047744,'',0,,0.00739603539337,-0.00687777852281,-5.07869524555e-05,-0.999949027346,,-0.00851746462286,0.253387123346,0.0856639221311,0.54615020752
1520440547201431199,,308,,1520440547,187794240,'',0,,0.0131564543418,-0.0132051112887,-0.00017377145641,-0.999826211429,,-0.0706551223993,0.501623868942,0.0824966281652,0.5222209692
1520440547301403906,,309,,1520440547,281916224,'',0,,0.00648376251507,-0.0207080854944,-0.000134195565659,-0.99976455059,,0.0792322307825,0.525966703892,0.0771296396852,0.5028886199
1520440547406084726,,310,,1520440547,382224192,'',0,,0.0098435034832,-0.0170215273262,-0.000167575869679,-0.999806613145,,0.031177714467,0.37434387207,0.0742193311453,0.506721258163
1520440547503156011,,311,,1520440547,484039232,'',0,,0.0038859940919,-0.0176031851165,-6.84043351331e-05,-0.999837506785,,0.10496211797,0.339799523354,0.0708127692342,0.508169353008
1520440547603843861,,312,,1520440547,582746944,'',0,,0.00608116528138,-0.0178709466793,-0.00010869672231,-0.999821828157,,0.0171545241028,0.321873813868,0.0690004006028,0.506126046181
1520440547697808010,,313,,1520440547,679738944,'',0,,0.00788806356805,-0.0158719799356,-0.000125218286926,-0.999842901581,,0.0156721062958,0.269780814648,0.0667993351817,0.51323133707
1520440547802938955,,314,,1520440547,786207360,'',0,,0.00684595573829,-0.0156749651508,-0.000107348023157,-0.999853691175,,0.0386012122035,0.306554079056,0.0649929046631,0.510196745396
1520440547910456900,,315,,1520440547,887981440,'',0,,0.00591560488717,-0.0164870809209,-9.75278074541e-05,-0.999846568357,,0.0294920969754,0.31903013587,0.0601175576448,0.512198269367
1520440548008405822,,316,,1520440547,992320896,'',0,,0.00473384248706,-0.0112558078276,-5.32314696692e-05,-0.999925425111,,0.0470179691911,0.268021374941,0.0552864670753,0.521925866604
1520440548101132129,,317,,1520440548,98433280,'',0,,0.0047623148235,-0.00919979944034,-4.37905756028e-05,-0.999946329948,,0.0341190099716,0.284200876951,0.0534626767039,0.528913259506
1520440548212825023,,318,,1520440548,192285056,'',0,,0.00552528209993,-0.00849007417029,-4.69515892411e-05,-0.999948648024,,0.00233911117539,0.309017211199,0.0476589202881,0.527699530125
1520440548332979113,,319,,1520440548,302285056,'',0,,0.00255298607954,-0.0113701726425,-2.89548849269e-05,-0.999932168606,,0.0457268059254,0.349046975374,0.0429959520698,0.530722022057
1520440548407609870,,320,,1520440548,396346624,'',0,,-0.000580538593923,-0.0120616364733,6.99637685286e-06,-0.999927068838,,0.0487441457808,0.328681141138,0.0367640405893,0.524934470654
1520440548502232803,,321,,1520440548,492726336,'',0,,0.00340280286423,-0.0146146890659,-4.96489875457e-05,-0.9998874508,,-0.0447524376214,0.332232326269,0.0320972055197,0.514550983906
1520440548620485100,,322,,1520440548,591562752,'',0,,0.000275562022465,-0.0138367096088,-3.75106951739e-06,-0.999904267393,,0.0440997630358,0.303440362215,0.0257975533605,0.520749092102
1520440548736070281,,323,,1520440548,695758912,'',0,,0.00528508935054,-0.0148821460518,-7.86038724727e-05,-0.999875354655,,-0.0352937169373,0.308121055365,0.0210070665926,0.519215404987
1520440548846153498,,324,,1520440548,810768320,'',0,,0.000978933655106,-0.0152504993003,-1.49199843728e-05,-0.999883236115,,0.0619079470634,0.322566181421,0.0147896409035,0.52105987072
1520440548924059017,,325,,1520440548,900478784,'',0,,0.00205285972131,-0.0190685210623,-3.9112275418e-05,-0.999816138333,,0.00907239317894,0.346632421017,0.0114347990602,0.514699697495
1520440549012671219,,326,,1520440549,8183488,'',0,,0.00232660918233,-0.00506855851691,-1.17589707345e-05,-0.999984430699,,0.0119829634205,0.0873307809234,0.00715964194387,0.53898614645
1520440549115363197,,327,,1520440549,93531712,'',0,,-0.00491138546902,-0.00556126674169,2.73111578351e-05,-0.99997250314,,0.102168530226,0.24601881206,0.00318504008465,0.552742242813
1520440549209341521,,328,,1520440549,193550208,'',0,,0.00492918769691,-0.00823692406379,-4.05874151159e-05,-0.99995391638,,-0.0872255265713,0.359509974718,-0.000121932396723,0.540864765644
1520440549333905894,,329,,1520440549,297831488,'',0,,0.00694712826032,-0.0176447965683,-0.00012256303547,-0.99982018443,,-0.0366928949952,0.466510504484,-0.00195885100402,0.519398391247
1520440549450968077,,330,,1520440549,400512576,'',0,,0.00615733056354,-0.0157170155225,-9.67691641809e-05,-0.999857526538,,0.026331461966,0.336104393005,-0.00237273843959,0.51744478941
1520440549512079204,,331,,1520440549,500512576,'',0,,0.0099562719862,-0.0146921217169,-0.00014633385803,-0.999842437966,,-0.0339086428285,0.2960896492,-0.00223281234503,0.524001598358
1520440549612036743,,332,,1520440549,596634176,'',0,,0.000900051218306,-0.016727018649,-1.49621312213e-05,-0.999859760321,,0.111661590636,0.340009242296,-0.00346796144731,0.526518702507
1520440549745456807,,333,,1520440549,692745344,'',0,,0.00129085523695,-0.0155661969764,-2.00197530426e-05,-0.999878052053,,0.010640213266,0.300663203001,-0.00430383812636,0.530005991459
1520440549819071572,,334,,1520440549,817614920,'',0,,0.00445579116635,-0.0215250883233,-9.59262272107e-05,-0.99975839715,,-0.0158887095749,0.394304096699,-0.00449838768691,0.523086071014
1520440549948520451,,335,,1520440549,905162916,'',0,,0.00250501967321,-0.0198154007549,-4.95646938488e-05,-0.999800543999,,0.0392914488912,0.315197050571,-0.00400915089995,0.520179092884
1520440550050734500,,336,,1520440550,9232640,'',0,,0.00224612277807,-0.0153443886494,-3.44339752333e-05,-0.999879737927,,0.0357493273914,0.236319109797,-0.00479243090376,0.534330666065
1520440550112221279,,337,,1520440550,110192192,'',0,,0.00082471175096,-0.0186417559037,-1.52993060094e-05,-0.999825958548,,0.0320374555886,0.355147391558,-0.00591202825308,0.527190923691
1520440550212836633,,338,,1520440550,195485312,'',0,,0.00305827806089,-0.0212941130568,-6.49904404038e-05,-0.999768680981,,-0.0363580435514,0.377089858055,-0.00771148037165,0.523646473885
1520440550322056440,,339,,1520440550,305213184,'',0,,0.00870640192526,-0.0191366833823,-0.000166648639012,-0.999778964812,,-0.0795911923051,0.299110233784,-0.00889825448394,0.525060117245
1520440550414414227,,340,,1520440550,405329295,'',0,,0.00537898693139,-0.018185226509,-9.77806885452e-05,-0.99982018443,,0.0251243468374,0.303039938211,-0.0105833914131,0.528258740902
1520440550522058030,,341,,1520440550,511553088,'',0,,0.00208076093502,-0.0204147638436,-4.24418764504e-05,-0.999789459377,,0.0557513944805,0.361291080713,-0.0115007096902,0.529914319515
1520440550650133040,,342,,1520440550,596861056,'',0,,0.00390420712808,-0.0134694877397,-5.2557120093e-05,-0.999901654288,,0.00154368835501,0.217996552587,-0.0139997452497,0.53910690546
1520440550724018716,,343,,1520440550,709120256,'',0,,0.00806173031588,-0.016266842564,-0.000131118845717,-0.999835230855,,-0.0311270579696,0.333528608084,-0.0156291425228,0.528133809566
1520440550833282981,,344,,1520440550,799498880,'',0,,0.00743858290447,-0.0194861489158,-0.000144943012029,-0.999782463001,,-0.0103582721204,0.377090096474,-0.0162281282246,0.520219683647
1520440550950908637,,345,,1520440550,904990272,'',0,,0.00593126540484,-0.0211654677042,-0.000125471168017,-0.999758439297,,0.019232051447,0.35849621892,-0.0173004455864,0.527202069759
1520440551034781658,,346,,1520440551,6421691,'',0,,0.00699119279044,-0.0179316743611,-0.000125344727471,-0.999814789633,,0.00126633746549,0.299113929272,-0.0171709302813,0.526178777218
1520440551126776557,,347,,1520440551,101202368,'',0,,0.00587686106741,-0.0204277641708,-0.00011999207771,-0.999774117925,,0.0421974100173,0.345342218876,-0.0166177712381,0.523020863533
1520440551247177529,,348,,1520440551,213596992,'',0,,0.00838385769123,-0.0192642088799,-0.000161548870342,-0.99977925984,,-0.0146345347166,0.317914128304,-0.015216672793,0.522356629372
1520440551323017896,,349,,1520440551,312726592,'',0,,0.00611716066565,-0.0246199274582,-0.000150632836578,-0.99967814955,,0.0365493409336,0.387533009052,-0.0115693584085,0.512722492218
1520440551421749942,,350,,1520440551,410504000,'',0,,-0.000994744650198,-0.0211977996054,2.11577179526e-05,-0.999774834421,,0.113866910338,0.322499066591,-0.00740135461092,0.519381701946
1520440551548822067,,351,,1520440551,505956928,'',0,,-0.000488036798154,-0.0267748418219,1.31498167355e-05,-0.999641397499,,0.030308354646,0.367132216692,-0.000939546502195,0.513383984566
1520440551650624005,,352,,1520440551,611615808,'',0,,0.00551722200906,-0.0247107137455,-0.000136260761236,-0.999679456103,,-0.0514264926314,0.337379813194,0.00570796290413,0.508948087692
1520440551745711892,,353,,1520440551,711621440,'',0,,0.00664443617976,-0.0210908585628,-0.000140138271299,-0.999755489018,,-0.0267690494657,0.258735775948,0.0130546614528,0.515782654285
1520440551822020738,,354,,1520440551,808729984,'',0,,0.00640057253865,-0.0240390404943,-0.000153920290762,-0.999690540724,,0.00844962242991,0.350955247879,0.0215717405081,0.515556573868
1520440551972857296,,355,,1520440551,908233344,'',0,,0.00567303034693,-0.0232168140903,-0.000131666754748,-0.99971439584,,0.0251531042159,0.331171005964,0.0292041711509,0.514414489269
1520440552016573277,,356,,1520440552,10525760,'',0,,0.0031445822943,-0.0228891203675,-7.19868172566e-05,-0.999733109041,,0.0732981860638,0.335985422134,0.0349768027663,0.511980116367
1520440552122383002,,357,,1520440552,111822976,'',0,,0.00439264399203,-0.0236902200051,-0.000104102715822,-0.999709675393,,0.0245299693197,0.35133215785,0.0425497256219,0.508572936058
1520440552253084373,,358,,1520440552,215028608,'',0,,0.00699407984956,-0.0241659018497,-0.000169008862529,-0.999683544347,,-0.000491855258588,0.335736721754,0.047958523035,0.504206597805
1520440552326937181,,359,,1520440552,312025216,'',0,,0.00637113164787,-0.020819849717,-0.000132551838567,-0.999762991157,,0.0117733711377,0.286962389946,0.0535092949867,0.510470032692
1520440552453526474,,360,,1520440552,411474816,'',0,,0.00384814819757,-0.02357753843,-9.07421648439e-05,-0.999714606574,,0.0384058207273,0.354251772165,0.0571545511484,0.505590796471
1520440552545316658,,361,,1520440552,509366912,'',0,,0.00531343870379,-0.0210762625823,-0.000112026323342,-0.999763707653,,0.0129641639069,0.32130998373,0.0651813969016,0.498207181692
1520440552629132005,,362,,1520440552,612877248,'',0,,0.00679340750855,-0.012874669596,-8.745471066e-05,-0.999894067855,,0.0143726477399,0.227020293474,0.0722860470414,0.510502398014
1520440552851752658,,363,,1520440552,820755392,'',0,,0.0048602757886,-0.0157969983872,-7.67072642898e-05,-0.999863427097,,0.0218005683273,0.368125110865,0.0811337009072,0.500162243843
1520440552931761155,,364,,1520440552,906035563,'',0,,0.00894077659856,-0.0178497570219,-0.000159610115311,-0.999800670439,,-0.0353598035872,0.401899576187,0.082623116672,0.490337729454
1520440553060144642,,365,,1520440553,6187456,'',0,,0.00778298818199,-0.0164424513596,-0.000127999978928,-0.999834472212,,0.0293773375452,0.403014600277,0.0846654549241,0.489053547382
1520440553223947335,,366,,1520440553,215523869,'',0,,0.00266868321229,0.00164736019966,4.42541909368e-06,-0.999995051704,,0.0109267365187,0.356837362051,0.0768190845847,0.549212157726
1520440553320564754,,367,,1520440553,308080130,'',0,,0.00252482321786,0.00144359002412,3.62462897202e-06,-0.999995768201,,0.0408039614558,0.420566320419,0.070728123188,0.544782340527
1520440553449074058,,368,,1520440553,413892544,'',0,,-0.00814839757194,-0.00524721694979,4.28211980872e-05,-0.999953031296,,0.186421647668,0.543600976467,0.0673502758145,0.532295167446
1520440553537081474,,369,,1520440553,500443661,'',0,,-0.00434762029183,-0.0106644259691,4.64458270591e-05,-0.99993372804,,0.0281073991209,0.521538436413,0.0653012990952,0.518846154213
1520440553623070676,,370,,1520440553,604363200,'',0,,-0.000263333509496,-0.0105166581304,2.7816920018e-06,-0.99994468622,,-0.0368920229375,0.447878032923,0.0679021626711,0.511277556419
1520440553723543954,,371,,1520440553,710310656,'',0,,-0.00201624958575,-0.0128989405831,2.60888992283e-05,-0.999914804105,,0.0493334159255,0.418108910322,0.0654544681311,0.505572259426
1520440553825974498,,372,,1520440553,806897600,'',0,,-0.00066000647679,-0.0153733711932,1.02416841882e-05,-0.999881676682,,0.0281189549714,0.360040217638,0.0637974888086,0.501168906689
1520440553926255177,,373,,1520440553,906890240,'',0,,0.000892547103638,-0.0151141647821,-1.33605509779e-05,-0.999885469898,,-0.0116125885397,0.318028241396,0.0596854612231,0.501846671104
1520440554022063319,,374,,1520440554,10809792,'',0,,-0.00185359732408,-0.0174068104369,3.23266328079e-05,-0.999846779091,,0.0530983582139,0.340965002775,0.052641235292,0.514810144901
1520440554139171152,,375,,1520440554,117920064,'',0,,0.000995082483531,-0.0166009317418,-1.64372709192e-05,-0.999861741223,,-0.0113343438134,0.259762436152,0.0444079823792,0.525607824326
1520440554245820741,,376,,1520440554,220222592,'',0,,0.0044877921489,-0.0149253478886,-6.69713422837e-05,-0.999878557815,,-0.0210444629192,0.307675898075,0.0364863499999,0.526949465275
1520440554332682489,,377,,1520440554,318172544,'',0,,0.000965260295487,-0.0184252613723,-1.7743823223e-05,-0.999829836058,,0.0766928270459,0.337290674448,0.0259008351713,0.522881805897
1520440554444288245,,378,,1520440554,416744832,'',0,,-0.00107620002039,-0.0227666277963,2.44873189849e-05,-0.999740231858,,0.0902518704534,0.36365622282,0.0185245350003,0.522490382195
1520440554552460295,,379,,1520440554,528318087,'',0,,2.41975594014e-05,-0.0229110558265,-4.63615333512e-07,-0.99973753446,,0.0472676455975,0.332706779242,0.0113740218803,0.530307590961
1520440554636270940,,380,,1520440554,631163008,'',0,,-0.000419026602073,-0.0238447850109,1.00309499457e-05,-0.999715575952,,0.0574083924294,0.35532283783,0.00461305677891,0.531722903252
1520440554749607998,,381,,1520440554,727170780,'',0,,-0.000496418752651,-0.0256709315657,1.27704950989e-05,-0.999670352384,,0.0412115380168,0.340564280748,-0.00320838089101,0.526552796364
1520440554853387531,,382,,1520440554,827316480,'',0,,-0.00174815644582,-0.0310635944909,5.43694345791e-05,-0.999515884184,,0.00999713968486,0.363297104836,-0.00842452049255,0.518889546394
1520440554972258540,,383,,1520440554,928672256,'',0,,-0.00306402188609,-0.0271088015957,8.31978789606e-05,-0.999627826213,,0.0763474777341,0.298968970776,-0.0142664015293,0.520547986031
1520440555043845931,,384,,1520440555,25407808,'',0,,-0.00254237297625,-0.0250847703188,6.38524754941e-05,-0.999682153501,,0.0343624763191,0.281532019377,-0.0167787447572,0.529182136059
1520440555146652285,,385,,1520440555,126131520,'',0,,-0.00394675074966,-0.0247802145573,9.78228353939e-05,-0.999685103781,,0.0817128643394,0.317474544048,-0.018882535398,0.527892410755
1520440555242746801,,386,,1520440555,227277056,'',0,,0.000548701918229,-0.0291841400753,-1.6015802434e-05,-0.999573878247,,0.00562608102337,0.376856356859,-0.0173863675445,0.523778378963
1520440555344241015,,387,,1520440555,327159104,'',0,,0.000795600790984,-0.0283008633027,-2.25064171048e-05,-0.999599166356,,0.0181505139917,0.313096642494,-0.0150656886399,0.529068529606
1520440555452054167,,388,,1520440555,428500288,'',0,,0.00205330226322,-0.0251471963869,-5.16298894258e-05,-0.999681647739,,0.0156069174409,0.286658912897,-0.012113686651,0.530197620392
1520440555546294298,,389,,1520440555,532794944,'',0,,-0.00172914294879,-0.0260946680781,4.51814216038e-05,-0.999658003357,,0.0849398821592,0.349505990744,-0.0124210417271,0.529500842094
1520440555645837573,,390,,1520440555,634308928,'',0,,0.00593953738241,-0.0251254163444,-0.000149199843728,-0.999666685608,,-0.0617037117481,0.330340266228,-0.010659603402,0.524052202702
1520440555751005196,,391,,1520440555,744681152,'',0,,0.00407130917499,-0.0250815790121,-0.000102079667093,-0.999677138026,,0.0490012019873,0.320920467377,-0.0128127299249,0.517131924629
1520440555852210083,,392,,1520440555,831613824,'',0,,0.00413667169304,-0.025128295501,-0.000103976275276,-0.999675662886,,0.0304138511419,0.354600220919,-0.0142687633634,0.524967193604
1520440555952154309,,393,,1520440555,939839680,'',0,,0.0111682800185,-0.0247974249595,-0.000276989088414,-0.999630102143,,-0.0664796605706,0.345464795828,-0.0160305388272,0.524139583111
1520440556055638083,,394,,1520440556,39435968,'',0,,0.00823897032621,-0.0180321086547,-0.000148567641001,-0.999803452131,,-0.00694570224732,0.279461503029,-0.0197483580559,0.536977827549
1520440556169191474,,395,,1520440556,139643584,'',0,,0.00962117325968,-0.0192320771763,-0.000185066811811,-0.999768723128,,0.0219320934266,0.348859339952,-0.0208830796182,0.534187614918
1520440556251757208,,396,,1520440556,242157312,'',0,,0.0141791313503,-0.0200368393092,-0.00028415405266,-0.999698632919,,-0.0296161193401,0.361658960581,-0.0214783400297,0.525165498257
1520440556378151370,,397,,1520440556,338208960,'',0,,0.0124858439274,-0.0150733797213,-0.000188185678601,-0.999808425459,,0.0106675764546,0.278032422066,-0.0230143740773,0.531689703465
1520440556452454167,,398,,1520440556,451718777,'',0,,0.0108042247607,-0.0185838955247,-0.000200871880003,-0.999768849568,,0.0701655447483,0.355471432209,-0.0209663063288,0.526510477066
1520440556547822382,,399,,1520440556,548990720,'',0,,0.00846534072029,-0.0112629299864,-9.54204650286e-05,-0.999900684911,,0.0752847716212,0.225047826767,-0.0184283722192,0.541378617287
1520440556651967628,,400,,1520440556,631824997,'',0,,0.00792509797091,-0.0108356852428,-8.58109835681e-05,-0.999909872924,,0.0368624590337,0.313710361719,0.00392484711483,0.544740498066
1520440556780205897,,401,,1520440556,747057382,'',0,,0.00520357405279,-0.0136269239996,-7.08909991952e-05,-0.99989360424,,0.0721373930573,0.406904399395,0.010984336026,0.538267195225
1520440556849159270,,402,,1520440556,846844928,'',0,,0.00763556706697,-0.018376137574,-0.000140349005541,-0.999801976991,,-0.000388580694562,0.393179893494,0.0156019087881,0.531800568104
1520440556976495316,,403,,1520440556,948532288,'',0,,0.00597225058084,-0.0186510367715,-0.000111394120614,-0.999808172578,,0.061015907675,0.381683051586,0.0203756485134,0.533812403679
1520440557078818934,,404,,1520440557,64411840,'',0,,0.00775275440362,-0.0177865973352,-0.000137904488328,-0.99981175506,,-0.0214649569243,0.318941086531,0.0258890241385,0.530266880989
1520440557177363767,,405,,1520440557,150604544,'',0,,0.00873371209528,-0.0174567584037,-0.000152445151064,-0.999809436984,,-0.00666689453647,0.323358386755,0.0320883318782,0.532187640667
1520440557262981168,,406,,1520440557,250700800,'',0,,0.00182544322928,-0.0190154028623,-3.46868563244e-05,-0.999817529179,,0.10823572427,0.345682471991,0.0358647927642,0.541714847088
1520440557377967396,,407,,1520440557,350623552,'',0,,0.00148009392821,-0.0201601962201,-2.97978218971e-05,-0.999795697111,,0.0806000679731,0.376496881247,0.040196865797,0.536618888378
1520440557452052254,,408,,1520440557,447533120,'',0,,0.00393123741669,-0.0155245684024,-6.10286366437e-05,-0.999871772173,,-0.0105646885931,0.276705741882,0.0436214283109,0.538649618626
1520440557563212341,,409,,1520440557,542629696,'',0,,0.000646267921265,-0.0175467774867,-1.13375022494e-05,-0.999845851861,,0.0682311207056,0.36685359478,0.0461639538407,0.537979543209
1520440557689872392,,410,,1520440557,656416719,'',0,,0.00732216178436,-0.0141515087009,-0.00010359695364,-0.999873036578,,-0.0503486432135,0.289487570524,0.0481275133789,0.536065876484
1520440557761035372,,411,,1520440557,744504106,'',0,,0.00229297854908,-0.0115092740354,-2.63417803192e-05,-0.999931157082,,0.0604463145137,0.274118244648,0.0462780669332,0.544060528278
1520440557891979397,,412,,1520440557,857983680,'',0,,-0.00315146606004,-0.0162438392751,5.12927146378e-05,-0.999863132069,,0.157853156328,0.379485040903,0.0451347902417,0.542551577091
1520440557978968768,,413,,1520440557,935914231,'',0,,0.000136038831737,-0.0160515897183,-2.19163612247e-06,-0.999871182117,,0.00799757614732,0.362529724836,0.0442793294787,0.540671050549
1520440558064849581,,414,,1520440558,50867616,'',0,,-0.00611165194084,-0.0175750586806,0.000107474463703,-0.999826843632,,0.105997271836,0.396367669106,0.0408941730857,0.53655642271
1520440558172848373,,415,,1520440558,150710471,'',0,,0.000922329120467,-0.017221837797,-1.584721504e-05,-0.999851288804,,-0.0104700215161,0.347788780928,0.0403383262455,0.538982927799
1520440558282859266,,416,,1520440558,251250432,'',0,,-0.00132497903772,-0.0162307006536,2.16213332861e-05,-0.999867431047,,0.0418787673116,0.315808176994,0.0368131734431,0.542801618576
1520440558370871934,,417,,1520440558,349825792,'',0,,-0.00117647395844,-0.0169851246322,2.00618998912e-05,-0.999855082021,,0.0735912397504,0.34960269928,0.0327209755778,0.540510654449
1520440558463654846,,418,,1520440558,451629807,'',0,,0.00447012175339,-0.0156817577081,-7.00902090735e-05,-0.999867009579,,-0.0460769943893,0.310831010342,0.0305614024401,0.540016531944
1520440558572234139,,419,,1520440558,551533296,'',0,,-0.0112980113109,-0.0212038285804,0.000239689127482,-0.99971131912,,0.203867346048,0.363463044167,0.0220213700086,0.458971172571
1520440558655475213,,420,,1520440558,643446400,'',0,,-0.0111139405477,-0.0209438164401,0.00023294563172,-0.999718905553,,0.120180308819,0.286565750837,0.0191915370524,0.479555845261
1520440558766443737,,421,,1520440558,741707904,'',0,,-0.00704116578189,-0.024202008528,0.000170484002227,-0.999682322089,,0.0155278677121,0.349224150181,0.0162588749081,0.502276957035
1520440558863471551,,422,,1520440558,841084288,'',0,,-0.000790739415426,-0.0204581790489,1.62686835253e-05,-0.999790428755,,-0.0273998137563,0.287537425756,0.0152011942118,0.515613973141
1520440558977681241,,423,,1520440558,936651136,'',0,,0.000411018700856,-0.0191197861181,-7.79716697441e-06,-0.999817192004,,-0.0074616568163,0.323106706142,0.0120523916557,0.522098302841
1520440559077182137,,424,,1520440559,52266171,'',0,,0.0011283771603,-0.0204316113878,-2.30543261354e-05,-0.999790639489,,0.0384532548487,0.371964722872,0.00877569336444,0.530576050282
1520440559192089246,,425,,1520440559,151282048,'',0,,0.00113846474508,-0.02015642276,-2.29278855899e-05,-0.99979624502,,0.0390089303255,0.371936738491,0.00748119316995,0.53402775526
1520440559270125338,,426,,1520440559,254013056,'',0,,-0.00402951398925,-0.0222605152684,8.97306404798e-05,-0.999744109368,,0.131770774722,0.399673640728,0.00629267049953,0.537760853767
1520440559357664066,,427,,1520440559,349333376,'',0,,-0.00216828940267,-0.0174939108507,3.79743105084e-05,-0.999844671749,,0.023724777624,0.304459452629,0.00723723275587,0.548684179783
1520440559465677315,,428,,1520440559,446712960,'',0,,-0.00684958794052,-0.0243688171933,0.000167070107497,-0.999679582543,,0.157799512148,0.414659827948,0.0103400759399,0.536749958992
1520440559571220870,,429,,1520440559,554046784,'',0,,-0.00180448241613,-0.0223268247735,4.03766808735e-05,-0.999749124843,,-0.0389112904668,0.358433783054,0.0110500566661,0.52944111824
1520440559680275434,,430,,1520440559,657184576,'',0,,-0.00529002283672,-0.0207973538366,0.000110087568311,-0.999769692505,,0.0595434755087,0.35681283474,0.0134189184755,0.537839770317
1520440559774020219,,431,,1520440559,750490048,'',0,,-0.000443823436977,-0.024397982154,1.09160337644e-05,-0.999702299695,,-0.0251020286232,0.404379576445,0.0155832767487,0.531911969185
1520440559877547965,,432,,1520440559,850725056,'',0,,-0.00616312641376,-0.0200355811599,0.000123532412986,-0.999780271364,,0.0900872424245,0.285165399313,0.0143867041916,0.539257228374
1520440559962422736,,433,,1520440559,952589248,'',0,,-0.00567337937552,-0.0212316645982,0.000120497839893,-0.999758523591,,0.0833602175117,0.351271212101,0.012739864178,0.536680400372
1520440560062408698,,434,,1520440560,47797184,'',0,,0.000770819102604,-0.0223835926272,-1.71959141924e-05,-0.999749209137,,-0.0441020205617,0.3660415411,0.011844612658,0.534084498882
1520440560181371827,,435,,1520440560,145638592,'',0,,-0.00189249030418,-0.0202555284401,3.83957789935e-05,-0.999793084006,,0.0205300170928,0.323245763779,0.0142890457064,0.536114156246
1520440560270538831,,436,,1520440560,243933888,'',0,,-0.00270643155971,-0.0212060544608,5.74040076719e-05,-0.999771462673,,0.0507848672569,0.351936459541,0.0180550180376,0.536145210266
1520440560383581412,,437,,1520440560,355789888,'',0,,0.00301520068899,-0.0228940581342,-6.89943910123e-05,-0.999733404069,,-0.0557752624154,0.379477798939,0.0216654092073,0.531838297844
1520440560462555875,,438,,1520440560,445422784,'',0,,0.00181501451845,-0.0158168192598,-2.87020038359e-05,-0.999873247312,,0.0116212777793,0.27331367135,0.0232528075576,0.535672664642
1520440560566783139,,439,,1520440560,542867904,'',0,,0.0027088609304,-0.0206015441883,-5.57602805798e-05,-0.999784148875,,0.0419731363654,0.392886459827,0.0259316470474,0.528846263885
1520440560676974827,,440,,1520440560,643672256,'',0,,0.00126409330523,-0.0211909151811,-2.67211019558e-05,-0.999774665834,,0.0536292977631,0.386501401663,0.0279437955469,0.525308012962
1520440560777002945,,441,,1520440560,760191360,'',0,,0.00385291079145,-0.0216529421054,-8.3408613203e-05,-0.999758186416,,0.0498150289059,0.363564550877,0.0285784341395,0.524707436562
1520440560898425027,,442,,1520440560,845798656,'',0,,0.000918599124374,-0.0203033308689,-1.85446133447e-05,-0.999793463328,,0.0986435115337,0.351944833994,0.0282530635595,0.532333612442
1520440560961932908,,443,,1520440560,940039680,'',0,,0.00363143634652,-0.0191145961288,-6.93737126488e-05,-0.999810743536,,0.0338362306356,0.328418403864,0.0252613052726,0.539409697056
1520440561095327997,,444,,1520440561,41379328,'',0,,0.000758410806985,-0.0195946540017,-1.47935438272e-05,-0.99980775111,,0.0974574387074,0.370844990015,0.0199394114316,0.539808809757
1520440561175183332,,445,,1520440561,143497728,'',0,,0.00573386734712,-0.021629225942,-0.000123996028319,-0.999749630606,,0.0142213366926,0.426756650209,0.0178865045309,0.534698784351
1520440561293422711,,446,,1520440561,258552192,'',0,,0.00248353136592,-0.0207840393838,-5.15877425772e-05,-0.999780987861,,0.0837421044707,0.417666912079,0.0140524031594,0.536361634731
1520440561377375780,,447,,1520440561,348495332,'',0,,0.00307813778762,-0.0247955856446,-7.62857958047e-05,-0.999687843326,,0.0868324190378,0.440216690302,0.0114585738629,0.531897068024
1520440561477832259,,448,,1520440561,455018212,'',0,,-0.000871257018239,-0.0234114021386,2.04412215278e-05,-0.999725564755,,0.132962435484,0.371936887503,0.0058853183873,0.532728016376
1520440561595283414,,449,,1520440561,563987072,'',0,,0.00165244226994,-0.0261879983229,-4.32848134206e-05,-0.99965568528,,0.0769899189472,0.441931188107,0.000648637884296,0.530834317207
1520440561680004383,,450,,1520440561,634006375,'',0,,-0.00349945085623,-0.025048026828,8.77075917513e-05,-0.999680130452,,0.161682352424,0.389672636986,-0.00497745722532,0.532647490501
1520440561777953225,,451,,1520440561,762326305,'',0,,-0.00302478843848,-0.0262429657159,7.94468094431e-05,-0.999651049127,,0.120864599943,0.413540303707,-0.00640914961696,0.537070810795
1520440561876878532,,452,,1520440561,853291072,'',0,,-0.00281799163354,-0.0232871051554,6.566478998e-05,-0.999724848259,,0.0903216227889,0.35676369071,-0.00639067683369,0.538302481174
1520440561971779636,,453,,1520440561,964731584,'',0,,-0.00110574100993,-0.024720301495,2.73533046836e-05,-0.999693786031,,0.0517001636326,0.405320614576,-0.00333997537382,0.53381228447
1520440562084665667,,454,,1520440562,53860669,'',0,,-0.00391239711686,-0.0225402452191,8.82133539334e-05,-0.999738293103,,0.131952539086,0.349546909332,-0.00193609844428,0.536651849747
