rosbagTimestamp,header,seq,stamp,secs,nsecs,frame_id,child_frame_id,pose,pose,position,x,y,z,orientation,x,y,z,w,covariance,twist,twist,linear,x,y,z,angular,x,y,z,covariance
1520440529147942017,,381,,1520440529,122025344,"""map""","""base_link""",,,,0.0098090628162,-0.0261869188398,0.10799126327,,0.0031410487091,0.00532248825778,0.163769166322,-0.986479358177,"[1e-06, 0.0, 0.0, 0.0, 0.0, 0.0, 0.0, 1e-06, 0.0, 0.0, 0.0, 0.0, 0.0, 0.0, 1e-06, 0.0, 0.0, 0.0, 0.0, 0.0, 0.0, 1e-06, 0.0, 0.0, 0.0, 0.0, 0.0, 0.0, 1e-06, 0.0, 0.0, 0.0, 0.0, 0.0, 0.0, 1e-06]",,,,0.00302290199798,-0.00900650624923,0.0204934082337,,0.000866875227075,-0.00030471169157,0.0505259409547,"[0.0001, 0.0, 0.0, 0.0, 0.0, 0.0, 0.0, 0.0001, 0.0, 0.0, 0.0, 0.0, 0.0, 0.0, 0.0001, 0.0, 0.0, 0.0, 0.0, 0.0, 0.0, 0.0001, 0.0, 0.0, 0.0, 0.0, 0.0, 0.0, 0.0001, 0.0, 0.0, 0.0, 0.0, 0.0, 0.0, 0.0001]"
1520440529187072121,,382,,1520440529,162025344,"""map""","""base_link""",,,,0.00980036705732,-0.0265638008714,0.108821898699,,0.00313788316797,0.00532225241653,0.163086555963,-0.986592396025,"[1e-06, 0.0, 0.0, 0.0, 0.0, 0.0, 0.0, 1e-06, 0.0, 0.0, 0.0, 0.0, 0.0, 0.0, 1e-06, 0.0, 0.0, 0.0, 0.0, 0.0, 0.0, 1e-06, 0.0, 0.0, 0.0, 0.0, 0.0, 0.0, 1e-06, 0.0, 0.0, 0.0, 0.0, 0.0, 0.0, 1e-06]",,,,0.00318313502587,-0.00921842228912,0.0209758586454,,-5.96056343056e-05,0.000417126109824,0.0510396361351,"[0.0001, 0.0, 0.0, 0.0, 0.0, 0.0, 0.0, 0.0001, 0.0, 0.0, 0.0, 0.0, 0.0, 0.0, 0.0001, 0.0, 0.0, 0.0, 0.0, 0.0, 0.0, 0.0001, 0.0, 0.0, 0.0, 0.0, 0.0, 0.0, 0.0001, 0.0, 0.0, 0.0, 0.0, 0.0, 0.0, 0.0001]"
1520440529200104393,,383,,1520440529,177544652,"""map""","""base_link""",,,,0.00979606527835,-0.0268579553813,0.109461709857,,0.00313166387364,0.0053177716797,0.161352592469,-0.986877603749,"[1e-06, 0.0, 0.0, 0.0, 0.0, 0.0, 0.0, 1e-06, 0.0, 0.0, 0.0, 0.0, 0.0, 0.0, 1e-06, 0.0, 0.0, 0.0, 0.0, 0.0, 0.0, 1e-06, 0.0, 0.0, 0.0, 0.0, 0.0, 0.0, 1e-06, 0.0, 0.0, 0.0, 0.0, 0.0, 0.0, 1e-06]",,,,0.00324938076654,-0.00959159684554,0.0215190615158,,-0.000193548155949,0.000828222604468,0.0516150817275,"[0.0001, 0.0, 0.0, 0.0, 0.0, 0.0, 0.0, 0.0001, 0.0, 0.0, 0.0, 0.0, 0.0, 0.0, 0.0001, 0.0, 0.0, 0.0, 0.0, 0.0, 0.0, 0.0001, 0.0, 0.0, 0.0, 0.0, 0.0, 0.0, 0.0001, 0.0, 0.0, 0.0, 0.0, 0.0, 0.0, 0.0001]"
1520440529249527647,,384,,1520440529,217544652,"""map""","""base_link""",,,,0.00896495953202,-0.0221672616899,0.0977734476328,,0.00310345157996,0.00531734453127,0.159433435722,-0.987189532575,"[1e-06, 0.0, 0.0, 0.0, 0.0, 0.0, 0.0, 1e-06, 0.0, 0.0, 0.0, 0.0, 0.0, 0.0, 1e-06, 0.0, 0.0, 0.0, 0.0, 0.0, 0.0, 1e-06, 0.0, 0.0, 0.0, 0.0, 0.0, 0.0, 1e-06, 0.0, 0.0, 0.0, 0.0, 0.0, 0.0, 1e-06]",,,,0.00206753739182,-0.00724860153295,0.0153386121268,,0.00211411481723,0.00068349565845,0.0524541437626,"[0.0001, 0.0, 0.0, 0.0, 0.0, 0.0, 0.0, 0.0001, 0.0, 0.0, 0.0, 0.0, 0.0, 0.0, 0.0001, 0.0, 0.0, 0.0, 0.0, 0.0, 0.0, 0.0001, 0.0, 0.0, 0.0, 0.0, 0.0, 0.0, 0.0001, 0.0, 0.0, 0.0, 0.0, 0.0, 0.0, 0.0001]"
1520440529267333970,,385,,1520440529,248544652,"""map""","""base_link""",,,,0.00859716255218,-0.0200379602611,0.0924745872617,,0.00308156361847,0.00532470368382,0.158582701585,-0.987326551979,"[1e-06, 0.0, 0.0, 0.0, 0.0, 0.0, 0.0, 1e-06, 0.0, 0.0, 0.0, 0.0, 0.0, 0.0, 1e-06, 0.0, 0.0, 0.0, 0.0, 0.0, 0.0, 1e-06, 0.0, 0.0, 0.0, 0.0, 0.0, 0.0, 1e-06, 0.0, 0.0, 0.0, 0.0, 0.0, 0.0, 1e-06]",,,,0.00153987337446,-0.00636055435448,0.0123433704421,,0.00221285969019,0.0012526109349,0.0515118837357,"[0.0001, 0.0, 0.0, 0.0, 0.0, 0.0, 0.0, 0.0001, 0.0, 0.0, 0.0, 0.0, 0.0, 0.0, 0.0001, 0.0, 0.0, 0.0, 0.0, 0.0, 0.0, 0.0001, 0.0, 0.0, 0.0, 0.0, 0.0, 0.0, 0.0001, 0.0, 0.0, 0.0, 0.0, 0.0, 0.0, 0.0001]"
1520440529303654118,,386,,1520440529,295618510,"""map""","""base_link""",,,,0.00842282734811,-0.0192027837038,0.0903278067708,,0.00306258749384,0.00533327217105,0.156860497061,-0.987601686606,"[1e-06, 0.0, 0.0, 0.0, 0.0, 0.0, 0.0, 1e-06, 0.0, 0.0, 0.0, 0.0, 0.0, 0.0, 1e-06, 0.0, 0.0, 0.0, 0.0, 0.0, 0.0, 1e-06, 0.0, 0.0, 0.0, 0.0, 0.0, 0.0, 1e-06, 0.0, 0.0, 0.0, 0.0, 0.0, 0.0, 1e-06]",,,,0.00135018271469,-0.0060586296022,0.0113046188921,,0.000892284617294,0.000838076230139,0.0510905832052,"[0.0001, 0.0, 0.0, 0.0, 0.0, 0.0, 0.0, 0.0001, 0.0, 0.0, 0.0, 0.0, 0.0, 0.0, 0.0001, 0.0, 0.0, 0.0, 0.0, 0.0, 0.0, 0.0001, 0.0, 0.0, 0.0, 0.0, 0.0, 0.0, 0.0001, 0.0, 0.0, 0.0, 0.0, 0.0, 0.0, 0.0001]"
1520440529347763711,,387,,1520440529,326618510,"""map""","""base_link""",,,,0.00833340920508,-0.0189298577607,0.0895534455776,,0.00304618775995,0.00534852340331,0.155171841428,-0.98786830757,"[1e-06, 0.0, 0.0, 0.0, 0.0, 0.0, 0.0, 1e-06, 0.0, 0.0, 0.0, 0.0, 0.0, 0.0, 1e-06, 0.0, 0.0, 0.0, 0.0, 0.0, 0.0, 1e-06, 0.0, 0.0, 0.0, 0.0, 0.0, 0.0, 1e-06, 0.0, 0.0, 0.0, 0.0, 0.0, 0.0, 1e-06]",,,,0.00124916943445,-0.00588135059196,0.0109115329887,,0.00223849900067,-0.00107355299406,0.0514846257865,"[0.0001, 0.0, 0.0, 0.0, 0.0, 0.0, 0.0, 0.0001, 0.0, 0.0, 0.0, 0.0, 0.0, 0.0, 0.0001, 0.0, 0.0, 0.0, 0.0, 0.0, 0.0, 0.0001, 0.0, 0.0, 0.0, 0.0, 0.0, 0.0, 0.0001, 0.0, 0.0, 0.0, 0.0, 0.0, 0.0, 0.0001]"
1520440529392016292,,388,,1520440529,365618510,"""map""","""base_link""",,,,0.00831959024072,-0.0185888372362,0.0887802317739,,0.00304172184037,0.00536120532418,0.154321865934,-0.988001365171,"[1e-06, 0.0, 0.0, 0.0, 0.0, 0.0, 0.0, 1e-06, 0.0, 0.0, 0.0, 0.0, 0.0, 0.0, 1e-06, 0.0, 0.0, 0.0, 0.0, 0.0, 0.0, 1e-06, 0.0, 0.0, 0.0, 0.0, 0.0, 0.0, 1e-06, 0.0, 0.0, 0.0, 0.0, 0.0, 0.0, 1e-06]",,,,0.00121786811059,-0.00558252972788,0.0102495571797,,-0.000167875143234,-0.00157571979798,0.0509403720498,"[0.0001, 0.0, 0.0, 0.0, 0.0, 0.0, 0.0, 0.0001, 0.0, 0.0, 0.0, 0.0, 0.0, 0.0, 0.0001, 0.0, 0.0, 0.0, 0.0, 0.0, 0.0, 0.0001, 0.0, 0.0, 0.0, 0.0, 0.0, 0.0, 0.0001, 0.0, 0.0, 0.0, 0.0, 0.0, 0.0, 0.0001]"
1520440529392255448,,389,,1520440529,395618510,"""map""","""base_link""",,,,0.00830383226275,-0.0185963641852,0.0887482464314,,0.00304069080663,0.00536373059541,0.152650153335,-0.988261074051,"[1e-06, 0.0, 0.0, 0.0, 0.0, 0.0, 0.0, 1e-06, 0.0, 0.0, 0.0, 0.0, 0.0, 0.0, 1e-06, 0.0, 0.0, 0.0, 0.0, 0.0, 0.0, 1e-06, 0.0, 0.0, 0.0, 0.0, 0.0, 0.0, 1e-06, 0.0, 0.0, 0.0, 0.0, 0.0, 0.0, 1e-06]",,,,0.00113381093361,-0.00562854528665,0.0101102556797,,0.00102141790558,-0.00139763113111,0.0503601320088,"[0.0001, 0.0, 0.0, 0.0, 0.0, 0.0, 0.0, 0.0001, 0.0, 0.0, 0.0, 0.0, 0.0, 0.0, 0.0001, 0.0, 0.0, 0.0, 0.0, 0.0, 0.0, 0.0001, 0.0, 0.0, 0.0, 0.0, 0.0, 0.0, 0.0001, 0.0, 0.0, 0.0, 0.0, 0.0, 0.0, 0.0001]"
1520440529453001447,,390,,1520440529,408396830,"""map""","""base_link""",,,,0.00830554403365,-0.0185027290136,0.0885693579912,,0.00302877205653,0.00539032369278,0.150965501653,-0.98851972926,"[1e-06, 0.0, 0.0, 0.0, 0.0, 0.0, 0.0, 1e-06, 0.0, 0.0, 0.0, 0.0, 0.0, 0.0, 1e-06, 0.0, 0.0, 0.0, 0.0, 0.0, 0.0, 1e-06, 0.0, 0.0, 0.0, 0.0, 0.0, 0.0, 1e-06, 0.0, 0.0, 0.0, 0.0, 0.0, 0.0, 1e-06]",,,,0.00101196158144,-0.00547679277637,0.00990232552559,,0.00140031578485,-0.00113645917736,0.0519587360322,"[0.0001, 0.0, 0.0, 0.0, 0.0, 0.0, 0.0, 0.0001, 0.0, 0.0, 0.0, 0.0, 0.0, 0.0, 0.0001, 0.0, 0.0, 0.0, 0.0, 0.0, 0.0, 0.0001, 0.0, 0.0, 0.0, 0.0, 0.0, 0.0, 0.0001, 0.0, 0.0, 0.0, 0.0, 0.0, 0.0, 0.0001]"
1520440529479982920,,391,,1520440529,448396830,"""map""","""base_link""",,,,0.00831170845777,-0.0183953996748,0.0883722230792,,0.00302139578182,0.0053930644727,0.15012113169,-0.988648277148,"[1e-06, 0.0, 0.0, 0.0, 0.0, 0.0, 0.0, 1e-06, 0.0, 0.0, 0.0, 0.0, 0.0, 0.0, 1e-06, 0.0, 0.0, 0.0, 0.0, 0.0, 0.0, 1e-06, 0.0, 0.0, 0.0, 0.0, 0.0, 0.0, 1e-06, 0.0, 0.0, 0.0, 0.0, 0.0, 0.0, 1e-06]",,,,0.00111888291693,-0.0053651066531,0.00957649474308,,0.000582467706408,0.00112466223072,0.0523798689246,"[0.0001, 0.0, 0.0, 0.0, 0.0, 0.0, 0.0, 0.0001, 0.0, 0.0, 0.0, 0.0, 0.0, 0.0, 0.0001, 0.0, 0.0, 0.0, 0.0, 0.0, 0.0, 0.0001, 0.0, 0.0, 0.0, 0.0, 0.0, 0.0, 0.0001, 0.0, 0.0, 0.0, 0.0, 0.0, 0.0, 0.0001]"
1520440529501356413,,392,,1520440529,489765879,"""map""","""base_link""",,,,0.00830814987421,-0.0184163358063,0.0884013697505,,0.00299741998728,0.00539315222376,0.148246692749,-0.988931166796,"[1e-06, 0.0, 0.0, 0.0, 0.0, 0.0, 0.0, 1e-06, 0.0, 0.0, 0.0, 0.0, 0.0, 0.0, 1e-06, 0.0, 0.0, 0.0, 0.0, 0.0, 0.0, 1e-06, 0.0, 0.0, 0.0, 0.0, 0.0, 0.0, 1e-06, 0.0, 0.0, 0.0, 0.0, 0.0, 0.0, 1e-06]",,,,0.0010537090059,-0.00543438354992,0.00954850352957,,0.00111296749674,-0.000120104465168,0.0519960336387,"[0.0001, 0.0, 0.0, 0.0, 0.0, 0.0, 0.0, 0.0001, 0.0, 0.0, 0.0, 0.0, 0.0, 0.0, 0.0001, 0.0, 0.0, 0.0, 0.0, 0.0, 0.0, 0.0001, 0.0, 0.0, 0.0, 0.0, 0.0, 0.0, 0.0001, 0.0, 0.0, 0.0, 0.0, 0.0, 0.0, 0.0001]"
1520440529542649053,,393,,1520440529,529765879,"""map""","""base_link""",,,,0.00830479059368,-0.0184093322605,0.0884167551994,,0.00297837092884,0.00540754734816,0.146568236654,-0.989181266195,"[1e-06, 0.0, 0.0, 0.0, 0.0, 0.0, 0.0, 1e-06, 0.0, 0.0, 0.0, 0.0, 0.0, 0.0, 1e-06, 0.0, 0.0, 0.0, 0.0, 0.0, 0.0, 1e-06, 0.0, 0.0, 0.0, 0.0, 0.0, 0.0, 1e-06, 0.0, 0.0, 0.0, 0.0, 0.0, 0.0, 1e-06]",,,,0.000879836370291,-0.00532826336404,0.00967961716685,,0.00161904771812,-0.000861451320816,0.051146350801,"[0.0001, 0.0, 0.0, 0.0, 0.0, 0.0, 0.0, 0.0001, 0.0, 0.0, 0.0, 0.0, 0.0, 0.0, 0.0001, 0.0, 0.0, 0.0, 0.0, 0.0, 0.0, 0.0001, 0.0, 0.0, 0.0, 0.0, 0.0, 0.0, 0.0001, 0.0, 0.0, 0.0, 0.0, 0.0, 0.0, 0.0001]"
1520440529574217267,,394,,1520440529,559765879,"""map""","""base_link""",,,,0.0083083473146,-0.0183874387294,0.0883696377277,,0.00297144155889,0.00542197622296,0.145738870969,-0.989303744936,"[1e-06, 0.0, 0.0, 0.0, 0.0, 0.0, 0.0, 1e-06, 0.0, 0.0, 0.0, 0.0, 0.0, 0.0, 1e-06, 0.0, 0.0, 0.0, 0.0, 0.0, 0.0, 1e-06, 0.0, 0.0, 0.0, 0.0, 0.0, 0.0, 1e-06, 0.0, 0.0, 0.0, 0.0, 0.0, 0.0, 1e-06]",,,,0.0008692076881,-0.00519444284879,0.00962782774195,,0.00134876661468,-0.00178487214725,0.0514184013009,"[0.0001, 0.0, 0.0, 0.0, 0.0, 0.0, 0.0, 0.0001, 0.0, 0.0, 0.0, 0.0, 0.0, 0.0, 0.0001, 0.0, 0.0, 0.0, 0.0, 0.0, 0.0, 0.0001, 0.0, 0.0, 0.0, 0.0, 0.0, 0.0, 0.0001, 0.0, 0.0, 0.0, 0.0, 0.0, 0.0, 0.0001]"
1520440529601276859,,395,,1520440529,586857536,"""map""","""base_link""",,,,0.0082978354767,-0.0184649694711,0.0885149687529,,0.00295668349415,0.00539900890702,0.144258631503,-0.989520927647,"[1e-06, 0.0, 0.0, 0.0, 0.0, 0.0, 0.0, 1e-06, 0.0, 0.0, 0.0, 0.0, 0.0, 0.0, 1e-06, 0.0, 0.0, 0.0, 0.0, 0.0, 0.0, 1e-06, 0.0, 0.0, 0.0, 0.0, 0.0, 0.0, 1e-06, 0.0, 0.0, 0.0, 0.0, 0.0, 0.0, 1e-06]",,,,0.000923535543237,-0.00533798292126,0.00990492453116,,0.00139290490188,0.000744692224544,0.0515799857676,"[0.0001, 0.0, 0.0, 0.0, 0.0, 0.0, 0.0, 0.0001, 0.0, 0.0, 0.0, 0.0, 0.0, 0.0, 0.0001, 0.0, 0.0, 0.0, 0.0, 0.0, 0.0, 0.0001, 0.0, 0.0, 0.0, 0.0, 0.0, 0.0, 0.0001, 0.0, 0.0, 0.0, 0.0, 0.0, 0.0, 0.0001]"
1520440529643868305,,396,,1520440529,616857536,"""map""","""base_link""",,,,0.00828183628619,-0.0185942649841,0.0887536406517,,0.00293815913105,0.00540484048328,0.142558849102,-0.989767233829,"[1e-06, 0.0, 0.0, 0.0, 0.0, 0.0, 0.0, 1e-06, 0.0, 0.0, 0.0, 0.0, 0.0, 0.0, 1e-06, 0.0, 0.0, 0.0, 0.0, 0.0, 0.0, 1e-06, 0.0, 0.0, 0.0, 0.0, 0.0, 0.0, 1e-06, 0.0, 0.0, 0.0, 0.0, 0.0, 0.0, 1e-06]",,,,0.00103974739518,-0.00563233183879,0.0102797697517,,0.00274811778218,-0.00269079394639,0.0518363825977,"[0.0001, 0.0, 0.0, 0.0, 0.0, 0.0, 0.0, 0.0001, 0.0, 0.0, 0.0, 0.0, 0.0, 0.0, 0.0001, 0.0, 0.0, 0.0, 0.0, 0.0, 0.0, 0.0001, 0.0, 0.0, 0.0, 0.0, 0.0, 0.0, 0.0001, 0.0, 0.0, 0.0, 0.0, 0.0, 0.0, 0.0001]"
1520440529672791941,,397,,1520440529,656857536,"""map""","""base_link""",,,,0.00825461372733,-0.0188085567206,0.0891414731741,,0.00292691209635,0.00541618300693,0.141585214755,-0.989907034926,"[1e-06, 0.0, 0.0, 0.0, 0.0, 0.0, 0.0, 1e-06, 0.0, 0.0, 0.0, 0.0, 0.0, 0.0, 1e-06, 0.0, 0.0, 0.0, 0.0, 0.0, 0.0, 1e-06, 0.0, 0.0, 0.0, 0.0, 0.0, 0.0, 1e-06, 0.0, 0.0, 0.0, 0.0, 0.0, 0.0, 1e-06]",,,,0.00100883862486,-0.00601776111179,0.0106218908296,,0.00105250603519,-0.000654359231703,0.0515953116119,"[0.0001, 0.0, 0.0, 0.0, 0.0, 0.0, 0.0, 0.0001, 0.0, 0.0, 0.0, 0.0, 0.0, 0.0, 0.0001, 0.0, 0.0, 0.0, 0.0, 0.0, 0.0, 0.0001, 0.0, 0.0, 0.0, 0.0, 0.0, 0.0, 0.0001, 0.0, 0.0, 0.0, 0.0, 0.0, 0.0, 0.0001]"
1520440529701037606,,398,,1520440529,686902592,"""map""","""base_link""",,,,0.00828574411571,-0.0185649842024,0.0886928290129,,0.00291461970456,0.00545767460365,0.140097304562,-0.990118485665,"[1e-06, 0.0, 0.0, 0.0, 0.0, 0.0, 0.0, 1e-06, 0.0, 0.0, 0.0, 0.0, 0.0, 0.0, 1e-06, 0.0, 0.0, 0.0, 0.0, 0.0, 0.0, 1e-06, 0.0, 0.0, 0.0, 0.0, 0.0, 0.0, 1e-06, 0.0, 0.0, 0.0, 0.0, 0.0, 0.0, 1e-06]",,,,0.00091566826994,-0.00590793900561,0.0100642567008,,0.000735015259124,-0.00232530990615,0.0511349402368,"[0.0001, 0.0, 0.0, 0.0, 0.0, 0.0, 0.0, 0.0001, 0.0, 0.0, 0.0, 0.0, 0.0, 0.0, 0.0001, 0.0, 0.0, 0.0, 0.0, 0.0, 0.0, 0.0001, 0.0, 0.0, 0.0, 0.0, 0.0, 0.0, 0.0001, 0.0, 0.0, 0.0, 0.0, 0.0, 0.0, 0.0001]"
1520440529744180018,,399,,1520440529,726902592,"""map""","""base_link""",,,,0.00828260090202,-0.0185836162418,0.0886966139078,,0.00290535423029,0.00546229733914,0.13846040526,-0.990348607458,"[1e-06, 0.0, 0.0, 0.0, 0.0, 0.0, 0.0, 1e-06, 0.0, 0.0, 0.0, 0.0, 0.0, 0.0, 1e-06, 0.0, 0.0, 0.0, 0.0, 0.0, 0.0, 1e-06, 0.0, 0.0, 0.0, 0.0, 0.0, 0.0, 1e-06, 0.0, 0.0, 0.0, 0.0, 0.0, 0.0, 1e-06]",,,,0.00104568056753,-0.00618133478756,0.010061848208,,0.0016082561342,0.000368861103198,0.0524073019624,"[0.0001, 0.0, 0.0, 0.0, 0.0, 0.0, 0.0, 0.0001, 0.0, 0.0, 0.0, 0.0, 0.0, 0.0, 0.0001, 0.0, 0.0, 0.0, 0.0, 0.0, 0.0, 0.0001, 0.0, 0.0, 0.0, 0.0, 0.0, 0.0, 0.0001, 0.0, 0.0, 0.0, 0.0, 0.0, 0.0, 0.0001]"
1520440529779291356,,400,,1520440529,756902592,"""map""","""base_link""",,,,0.00829418003559,-0.0184739753604,0.0884901359677,,0.00289105813452,0.00548603630461,0.137473283921,-0.990486132625,"[1e-06, 0.0, 0.0, 0.0, 0.0, 0.0, 0.0, 1e-06, 0.0, 0.0, 0.0, 0.0, 0.0, 0.0, 1e-06, 0.0, 0.0, 0.0, 0.0, 0.0, 0.0, 1e-06, 0.0, 0.0, 0.0, 0.0, 0.0, 0.0, 1e-06, 0.0, 0.0, 0.0, 0.0, 0.0, 0.0, 1e-06]",,,,0.00106862308658,-0.00617371958557,0.00983424695114,,0.00137599022128,-0.0024584417697,0.0515762045979,"[0.0001, 0.0, 0.0, 0.0, 0.0, 0.0, 0.0, 0.0001, 0.0, 0.0, 0.0, 0.0, 0.0, 0.0, 0.0001, 0.0, 0.0, 0.0, 0.0, 0.0, 0.0, 0.0001, 0.0, 0.0, 0.0, 0.0, 0.0, 0.0, 0.0001, 0.0, 0.0, 0.0, 0.0, 0.0, 0.0, 0.0001]"
1520440529800970127,,401,,1520440529,791526464,"""map""","""base_link""",,,,0.0082891844213,-0.0185304507613,0.0885634347796,,0.00288361114859,0.00550346814238,0.135817123508,-0.990714526397,"[1e-06, 0.0, 0.0, 0.0, 0.0, 0.0, 0.0, 1e-06, 0.0, 0.0, 0.0, 0.0, 0.0, 0.0, 1e-06, 0.0, 0.0, 0.0, 0.0, 0.0, 0.0, 1e-06, 0.0, 0.0, 0.0, 0.0, 0.0, 0.0, 1e-06, 0.0, 0.0, 0.0, 0.0, 0.0, 0.0, 1e-06]",,,,0.00120713934966,-0.00626226618152,0.00987128987283,,-0.000158601091243,0.00111965578981,0.0516603924334,"[0.0001, 0.0, 0.0, 0.0, 0.0, 0.0, 0.0, 0.0001, 0.0, 0.0, 0.0, 0.0, 0.0, 0.0, 0.0001, 0.0, 0.0, 0.0, 0.0, 0.0, 0.0, 0.0001, 0.0, 0.0, 0.0, 0.0, 0.0, 0.0, 0.0001, 0.0, 0.0, 0.0, 0.0, 0.0, 0.0, 0.0001]"
1520440529850799774,,402,,1520440529,821526464,"""map""","""base_link""",,,,0.00828030239791,-0.0186703652143,0.0887687951326,,0.00286342552465,0.00552270546223,0.134345271265,-0.990915061102,"[1e-06, 0.0, 0.0, 0.0, 0.0, 0.0, 0.0, 1e-06, 0.0, 0.0, 0.0, 0.0, 0.0, 0.0, 1e-06, 0.0, 0.0, 0.0, 0.0, 0.0, 0.0, 1e-06, 0.0, 0.0, 0.0, 0.0, 0.0, 0.0, 1e-06, 0.0, 0.0, 0.0, 0.0, 0.0, 0.0, 1e-06]",,,,0.00146399917708,-0.0067029796125,0.0101650161404,,0.000679522869177,-5.97503385507e-05,0.0517708398402,"[0.0001, 0.0, 0.0, 0.0, 0.0, 0.0, 0.0, 0.0001, 0.0, 0.0, 0.0, 0.0, 0.0, 0.0, 0.0001, 0.0, 0.0, 0.0, 0.0, 0.0, 0.0, 0.0001, 0.0, 0.0, 0.0, 0.0, 0.0, 0.0, 0.0001, 0.0, 0.0, 0.0, 0.0, 0.0, 0.0, 0.0001]"
1520440529878108585,,403,,1520440529,861526464,"""map""","""base_link""",,,,0.00830461177975,-0.0185364857316,0.088557317853,,0.00285692931235,0.0055393426014,0.133364471953,-0.991047528647,"[1e-06, 0.0, 0.0, 0.0, 0.0, 0.0, 0.0, 1e-06, 0.0, 0.0, 0.0, 0.0, 0.0, 0.0, 1e-06, 0.0, 0.0, 0.0, 0.0, 0.0, 0.0, 1e-06, 0.0, 0.0, 0.0, 0.0, 0.0, 0.0, 1e-06, 0.0, 0.0, 0.0, 0.0, 0.0, 0.0, 1e-06]",,,,0.00175576255841,-0.00678191407775,0.00966546314194,,0.000619021360762,-0.00112104299478,0.0517671443522,"[0.0001, 0.0, 0.0, 0.0, 0.0, 0.0, 0.0, 0.0001, 0.0, 0.0, 0.0, 0.0, 0.0, 0.0, 0.0001, 0.0, 0.0, 0.0, 0.0, 0.0, 0.0, 0.0001, 0.0, 0.0, 0.0, 0.0, 0.0, 0.0, 0.0001, 0.0, 0.0, 0.0, 0.0, 0.0, 0.0, 0.0001]"
1520440529901500293,,404,,1520440529,893527872,"""map""","""base_link""",,,,0.00831524562091,-0.0185730159283,0.0885876715183,,0.0028436399665,0.00556568825067,0.13174910969,-0.991263446952,"[1e-06, 0.0, 0.0, 0.0, 0.0, 0.0, 0.0, 1e-06, 0.0, 0.0, 0.0, 0.0, 0.0, 0.0, 1e-06, 0.0, 0.0, 0.0, 0.0, 0.0, 0.0, 1e-06, 0.0, 0.0, 0.0, 0.0, 0.0, 0.0, 1e-06, 0.0, 0.0, 0.0, 0.0, 0.0, 0.0, 1e-06]",,,,0.00181061279137,-0.00702591870245,0.00975509489068,,0.00092145067174,-0.00155966880266,0.0524320341647,"[0.0001, 0.0, 0.0, 0.0, 0.0, 0.0, 0.0, 0.0001, 0.0, 0.0, 0.0, 0.0, 0.0, 0.0, 0.0001, 0.0, 0.0, 0.0, 0.0, 0.0, 0.0, 0.0001, 0.0, 0.0, 0.0, 0.0, 0.0, 0.0, 0.0001, 0.0, 0.0, 0.0, 0.0, 0.0, 0.0, 0.0001]"
1520440529943861351,,405,,1520440529,933527872,"""map""","""base_link""",,,,0.00831697136164,-0.0185385849327,0.0885149687529,,0.00284292149444,0.00557203596118,0.130283410886,-0.991457069574,"[1e-06, 0.0, 0.0, 0.0, 0.0, 0.0, 0.0, 1e-06, 0.0, 0.0, 0.0, 0.0, 0.0, 0.0, 1e-06, 0.0, 0.0, 0.0, 0.0, 0.0, 0.0, 1e-06, 0.0, 0.0, 0.0, 0.0, 0.0, 0.0, 1e-06, 0.0, 0.0, 0.0, 0.0, 0.0, 0.0, 1e-06]",,,,0.00172584245847,-0.00707859893249,0.0097501896932,,0.00124025077093,-0.000720494543202,0.0520624481142,"[0.0001, 0.0, 0.0, 0.0, 0.0, 0.0, 0.0, 0.0001, 0.0, 0.0, 0.0, 0.0, 0.0, 0.0, 0.0001, 0.0, 0.0, 0.0, 0.0, 0.0, 0.0, 0.0001, 0.0, 0.0, 0.0, 0.0, 0.0, 0.0, 0.0001, 0.0, 0.0, 0.0, 0.0, 0.0, 0.0, 0.0001]"
1520440529977256381,,406,,1520440529,963527872,"""map""","""base_link""",,,,0.00831514131278,-0.0184803046286,0.0884194374084,,0.0028439375463,0.00556808148373,0.129481061331,-0.991562225961,"[1e-06, 0.0, 0.0, 0.0, 0.0, 0.0, 0.0, 1e-06, 0.0, 0.0, 0.0, 0.0, 0.0, 0.0, 1e-06, 0.0, 0.0, 0.0, 0.0, 0.0, 0.0, 1e-06, 0.0, 0.0, 0.0, 0.0, 0.0, 0.0, 1e-06, 0.0, 0.0, 0.0, 0.0, 0.0, 0.0, 1e-06]",,,,0.00163984954043,-0.00720581699609,0.00965002842322,,0.000430694839451,-2.31071026064e-05,0.0528166331351,"[0.0001, 0.0, 0.0, 0.0, 0.0, 0.0, 0.0, 0.0001, 0.0, 0.0, 0.0, 0.0, 0.0, 0.0, 0.0001, 0.0, 0.0, 0.0, 0.0, 0.0, 0.0, 0.0001, 0.0, 0.0, 0.0, 0.0, 0.0, 0.0, 0.0001, 0.0, 0.0, 0.0, 0.0, 0.0, 0.0, 0.0001]"
1520440530004137928,,407,,1520440529,993096930,"""map""","""base_link""",,,,0.00832004100084,-0.0184330474585,0.088349558413,,0.0028321650754,0.0055810860914,0.127710261491,-0.991791799845,"[1e-06, 0.0, 0.0, 0.0, 0.0, 0.0, 0.0, 1e-06, 0.0, 0.0, 0.0, 0.0, 0.0, 0.0, 1e-06, 0.0, 0.0, 0.0, 0.0, 0.0, 0.0, 1e-06, 0.0, 0.0, 0.0, 0.0, 0.0, 0.0, 1e-06, 0.0, 0.0, 0.0, 0.0, 0.0, 0.0, 1e-06]",,,,0.00179963366409,-0.0073401396427,0.00961430877389,,0.00090709910728,-0.000956864503678,0.0508626624942,"[0.0001, 0.0, 0.0, 0.0, 0.0, 0.0, 0.0, 0.0001, 0.0, 0.0, 0.0, 0.0, 0.0, 0.0, 0.0001, 0.0, 0.0, 0.0, 0.0, 0.0, 0.0, 0.0001, 0.0, 0.0, 0.0, 0.0, 0.0, 0.0, 0.0001, 0.0, 0.0, 0.0, 0.0, 0.0, 0.0, 0.0001]"
1520440530042772499,,408,,1520440530,23096930,"""map""","""base_link""",,,,0.00832031667233,-0.0184214897454,0.0883365422487,,0.00281471916125,0.00557787478143,0.126265088202,-0.99197695095,"[1e-06, 0.0, 0.0, 0.0, 0.0, 0.0, 0.0, 1e-06, 0.0, 0.0, 0.0, 0.0, 0.0, 0.0, 1e-06, 0.0, 0.0, 0.0, 0.0, 0.0, 0.0, 1e-06, 0.0, 0.0, 0.0, 0.0, 0.0, 0.0, 1e-06, 0.0, 0.0, 0.0, 0.0, 0.0, 0.0, 1e-06]",,,,0.00174312092309,-0.00733571676288,0.0097506551196,,-0.000243087881245,0.000176029396243,0.0526281036437,"[0.0001, 0.0, 0.0, 0.0, 0.0, 0.0, 0.0, 0.0001, 0.0, 0.0, 0.0, 0.0, 0.0, 0.0, 0.0001, 0.0, 0.0, 0.0, 0.0, 0.0, 0.0, 0.0001, 0.0, 0.0, 0.0, 0.0, 0.0, 0.0, 0.0001, 0.0, 0.0, 0.0, 0.0, 0.0, 0.0, 0.0001]"
1520440530073406990,,409,,1520440530,53096930,"""map""","""base_link""",,,,0.00831520929933,-0.0184133257717,0.0883361548185,,0.00282512589315,0.00556824183932,0.125313075188,-0.992097659524,"[1e-06, 0.0, 0.0, 0.0, 0.0, 0.0, 0.0, 1e-06, 0.0, 0.0, 0.0, 0.0, 0.0, 0.0, 1e-06, 0.0, 0.0, 0.0, 0.0, 0.0, 0.0, 1e-06, 0.0, 0.0, 0.0, 0.0, 0.0, 0.0, 1e-06, 0.0, 0.0, 0.0, 0.0, 0.0, 0.0, 1e-06]",,,,0.00172848549403,-0.00733402009435,0.00960582049426,,-0.000129596330225,0.000615871220361,0.0529156029224,"[0.0001, 0.0, 0.0, 0.0, 0.0, 0.0, 0.0, 0.0001, 0.0, 0.0, 0.0, 0.0, 0.0, 0.0, 0.0001, 0.0, 0.0, 0.0, 0.0, 0.0, 0.0, 0.0001, 0.0, 0.0, 0.0, 0.0, 0.0, 0.0, 0.0001, 0.0, 0.0, 0.0, 0.0, 0.0, 0.0, 0.0001]"
1520440530103192547,,410,,1520440530,85190208,"""map""","""base_link""",,,,0.00831890571862,-0.0183838903904,0.088274911046,,0.00283317429486,0.00555146772288,0.12370968263,-0.992298910726,"[1e-06, 0.0, 0.0, 0.0, 0.0, 0.0, 0.0, 1e-06, 0.0, 0.0, 0.0, 0.0, 0.0, 0.0, 1e-06, 0.0, 0.0, 0.0, 0.0, 0.0, 0.0, 1e-06, 0.0, 0.0, 0.0, 0.0, 0.0, 0.0, 1e-06, 0.0, 0.0, 0.0, 0.0, 0.0, 0.0, 1e-06]",,,,0.0015992146084,-0.00736989565789,0.00938347851823,,-0.000571312732063,0.00185967492871,0.0522897988558,"[0.0001, 0.0, 0.0, 0.0, 0.0, 0.0, 0.0, 0.0001, 0.0, 0.0, 0.0, 0.0, 0.0, 0.0, 0.0001, 0.0, 0.0, 0.0, 0.0, 0.0, 0.0, 0.0001, 0.0, 0.0, 0.0, 0.0, 0.0, 0.0, 0.0001, 0.0, 0.0, 0.0, 0.0, 0.0, 0.0, 0.0001]"
1520440530142704764,,411,,1520440530,115190208,"""map""","""base_link""",,,,0.00831684656441,-0.0183813981712,0.0882680267096,,0.00283846800488,0.00555350888159,0.122282042431,-0.992475801049,"[1e-06, 0.0, 0.0, 0.0, 0.0, 0.0, 0.0, 1e-06, 0.0, 0.0, 0.0, 0.0, 0.0, 0.0, 1e-06, 0.0, 0.0, 0.0, 0.0, 0.0, 0.0, 1e-06, 0.0, 0.0, 0.0, 0.0, 0.0, 0.0, 1e-06, 0.0, 0.0, 0.0, 0.0, 0.0, 0.0, 1e-06]",,,,0.00155327517095,-0.00737082797305,0.00928727057516,,7.95237137936e-05,-0.000534466118552,0.0515121370554,"[0.0001, 0.0, 0.0, 0.0, 0.0, 0.0, 0.0, 0.0001, 0.0, 0.0, 0.0, 0.0, 0.0, 0.0, 0.0001, 0.0, 0.0, 0.0, 0.0, 0.0, 0.0, 0.0001, 0.0, 0.0, 0.0, 0.0, 0.0, 0.0, 0.0001, 0.0, 0.0, 0.0, 0.0, 0.0, 0.0, 0.0001]"
1520440530172690003,,412,,1520440530,155190208,"""map""","""base_link""",,,,0.00831558182836,-0.0183829627931,0.0882786214352,,0.0028392573528,0.00554903102589,0.121335087038,-0.992592042057,"[1e-06, 0.0, 0.0, 0.0, 0.0, 0.0, 0.0, 1e-06, 0.0, 0.0, 0.0, 0.0, 0.0, 0.0, 1e-06, 0.0, 0.0, 0.0, 0.0, 0.0, 0.0, 1e-06, 0.0, 0.0, 0.0, 0.0, 0.0, 0.0, 1e-06, 0.0, 0.0, 0.0, 0.0, 0.0, 0.0, 1e-06]",,,,0.00146601545587,-0.00749790044518,0.00965704862769,,0.00109282904305,0.000296492653433,0.0516908466816,"[0.0001, 0.0, 0.0, 0.0, 0.0, 0.0, 0.0, 0.0001, 0.0, 0.0, 0.0, 0.0, 0.0, 0.0, 0.0001, 0.0, 0.0, 0.0, 0.0, 0.0, 0.0, 0.0001, 0.0, 0.0, 0.0, 0.0, 0.0, 0.0, 0.0001, 0.0, 0.0, 0.0, 0.0, 0.0, 0.0, 0.0001]"
1520440530200496056,,413,,1520440530,185807424,"""map""","""base_link""",,,,0.00831464119256,-0.0184359233826,0.0883728042245,,0.00282318746739,0.00555629221995,0.119928899585,-0.992762989675,"[1e-06, 0.0, 0.0, 0.0, 0.0, 0.0, 0.0, 1e-06, 0.0, 0.0, 0.0, 0.0, 0.0, 0.0, 1e-06, 0.0, 0.0, 0.0, 0.0, 0.0, 0.0, 1e-06, 0.0, 0.0, 0.0, 0.0, 0.0, 0.0, 1e-06, 0.0, 0.0, 0.0, 0.0, 0.0, 0.0, 1e-06]",,,,0.00153280659984,-0.00750646064414,0.00987089985729,,0.00251082750037,-0.000220878166147,0.0500556528568,"[0.0001, 0.0, 0.0, 0.0, 0.0, 0.0, 0.0, 0.0001, 0.0, 0.0, 0.0, 0.0, 0.0, 0.0, 0.0001, 0.0, 0.0, 0.0, 0.0, 0.0, 0.0, 0.0001, 0.0, 0.0, 0.0, 0.0, 0.0, 0.0, 0.0001, 0.0, 0.0, 0.0, 0.0, 0.0, 0.0, 0.0001]"
1520440530251263282,,414,,1520440530,225807424,"""map""","""base_link""",,,,0.00830555520952,-0.0186499617994,0.0886699780822,,0.00280840404869,0.00555516652043,0.118366558057,-0.992950501004,"[1e-06, 0.0, 0.0, 0.0, 0.0, 0.0, 0.0, 1e-06, 0.0, 0.0, 0.0, 0.0, 0.0, 0.0, 1e-06, 0.0, 0.0, 0.0, 0.0, 0.0, 0.0, 1e-06, 0.0, 0.0, 0.0, 0.0, 0.0, 0.0, 1e-06, 0.0, 0.0, 0.0, 0.0, 0.0, 0.0, 1e-06]",,,,0.00147462661204,-0.00759832673014,0.0100778015595,,0.000394773378503,0.00134898722172,0.0530959591269,"[0.0001, 0.0, 0.0, 0.0, 0.0, 0.0, 0.0, 0.0001, 0.0, 0.0, 0.0, 0.0, 0.0, 0.0, 0.0001, 0.0, 0.0, 0.0, 0.0, 0.0, 0.0, 0.0001, 0.0, 0.0, 0.0, 0.0, 0.0, 0.0, 0.0001, 0.0, 0.0, 0.0, 0.0, 0.0, 0.0, 0.0001]"
1520440530277915269,,415,,1520440530,255807424,"""map""","""base_link""",,,,0.0082917874679,-0.0188583340496,0.0889501497149,,0.00280625299537,0.00556807819101,0.117428706384,-0.993061768684,"[1e-06, 0.0, 0.0, 0.0, 0.0, 0.0, 0.0, 1e-06, 0.0, 0.0, 0.0, 0.0, 0.0, 0.0, 1e-06, 0.0, 0.0, 0.0, 0.0, 0.0, 0.0, 1e-06, 0.0, 0.0, 0.0, 0.0, 0.0, 0.0, 1e-06, 0.0, 0.0, 0.0, 0.0, 0.0, 0.0, 1e-06]",,,,0.00141260151454,-0.00785900881518,0.0103687202495,,0.00109365466051,-0.00239162053913,0.0508291497827,"[0.0001, 0.0, 0.0, 0.0, 0.0, 0.0, 0.0, 0.0001, 0.0, 0.0, 0.0, 0.0, 0.0, 0.0, 0.0001, 0.0, 0.0, 0.0, 0.0, 0.0, 0.0, 0.0001, 0.0, 0.0, 0.0, 0.0, 0.0, 0.0, 0.0001, 0.0, 0.0, 0.0, 0.0, 0.0, 0.0, 0.0001]"
1520440530302007694,,416,,1520440530,290800448,"""map""","""base_link""",,,,0.00827481597662,-0.0190883539617,0.0892539471388,,0.00278914046938,0.00560185123451,0.115882591393,-0.99324316872,"[1e-06, 0.0, 0.0, 0.0, 0.0, 0.0, 0.0, 1e-06, 0.0, 0.0, 0.0, 0.0, 0.0, 0.0, 1e-06, 0.0, 0.0, 0.0, 0.0, 0.0, 0.0, 1e-06, 0.0, 0.0, 0.0, 0.0, 0.0, 0.0, 1e-06, 0.0, 0.0, 0.0, 0.0, 0.0, 0.0, 1e-06]",,,,0.00143010177532,-0.00819269527821,0.0106897037431,,0.00142841460183,-0.00140064558946,0.0510350391269,"[0.0001, 0.0, 0.0, 0.0, 0.0, 0.0, 0.0, 0.0001, 0.0, 0.0, 0.0, 0.0, 0.0, 0.0, 0.0001, 0.0, 0.0, 0.0, 0.0, 0.0, 0.0, 0.0001, 0.0, 0.0, 0.0, 0.0, 0.0, 0.0, 0.0001, 0.0, 0.0, 0.0, 0.0, 0.0, 0.0, 0.0001]"
1520440530333026262,,417,,1520440530,320800448,"""map""","""base_link""",,,,0.00825749989599,-0.0193360708654,0.0895762741566,,0.00277394982321,0.00560496878421,0.114476024618,-0.993406403464,"[1e-06, 0.0, 0.0, 0.0, 0.0, 0.0, 0.0, 1e-06, 0.0, 0.0, 0.0, 0.0, 0.0, 0.0, 1e-06, 0.0, 0.0, 0.0, 0.0, 0.0, 0.0, 1e-06, 0.0, 0.0, 0.0, 0.0, 0.0, 0.0, 1e-06, 0.0, 0.0, 0.0, 0.0, 0.0, 0.0, 1e-06]",,,,0.00149184712472,-0.00850666580614,0.0109707246577,,0.00194790307432,-0.000274168560281,0.0523756444454,"[0.0001, 0.0, 0.0, 0.0, 0.0, 0.0, 0.0, 0.0001, 0.0, 0.0, 0.0, 0.0, 0.0, 0.0, 0.0001, 0.0, 0.0, 0.0, 0.0, 0.0, 0.0, 0.0001, 0.0, 0.0, 0.0, 0.0, 0.0, 0.0, 0.0001, 0.0, 0.0, 0.0, 0.0, 0.0, 0.0, 0.0001]"
1520440530377146694,,418,,1520440530,360800448,"""map""","""base_link""",,,,0.00827400945127,-0.0190227851272,0.0891566202044,,0.00276531399981,0.00561197405142,0.113556043209,-0.993511939173,"[1e-06, 0.0, 0.0, 0.0, 0.0, 0.0, 0.0, 1e-06, 0.0, 0.0, 0.0, 0.0, 0.0, 0.0, 1e-06, 0.0, 0.0, 0.0, 0.0, 0.0, 0.0, 1e-06, 0.0, 0.0, 0.0, 0.0, 0.0, 0.0, 1e-06, 0.0, 0.0, 0.0, 0.0, 0.0, 0.0, 1e-06]",,,,0.00117840911794,-0.0082071793915,0.0108710224523,,6.90675806254e-05,0.000337852427037,0.0517671257257,"[0.0001, 0.0, 0.0, 0.0, 0.0, 0.0, 0.0, 0.0001, 0.0, 0.0, 0.0, 0.0, 0.0, 0.0, 0.0001, 0.0, 0.0, 0.0, 0.0, 0.0, 0.0, 0.0001, 0.0, 0.0, 0.0, 0.0, 0.0, 0.0, 0.0001, 0.0, 0.0, 0.0, 0.0, 0.0, 0.0, 0.0001]"
1520440530401663175,,419,,1520440530,390001216,"""map""","""base_link""",,,,0.00828219670802,-0.0187625549734,0.088822118938,,0.00274711578087,0.00561003529638,0.11215954953,-0.993670579911,"[1e-06, 0.0, 0.0, 0.0, 0.0, 0.0, 0.0, 1e-06, 0.0, 0.0, 0.0, 0.0, 0.0, 0.0, 1e-06, 0.0, 0.0, 0.0, 0.0, 0.0, 0.0, 1e-06, 0.0, 0.0, 0.0, 0.0, 0.0, 0.0, 1e-06, 0.0, 0.0, 0.0, 0.0, 0.0, 0.0, 1e-06]",,,,0.000881969258109,-0.00784102537357,0.0107057810686,,0.00145581876859,0.000597176549491,0.0518645904958,"[0.0001, 0.0, 0.0, 0.0, 0.0, 0.0, 0.0, 0.0001, 0.0, 0.0, 0.0, 0.0, 0.0, 0.0, 0.0001, 0.0, 0.0, 0.0, 0.0, 0.0, 0.0, 0.0001, 0.0, 0.0, 0.0, 0.0, 0.0, 0.0, 0.0001, 0.0, 0.0, 0.0, 0.0, 0.0, 0.0, 0.0001]"
1520440530441811247,,420,,1520440530,430001216,"""map""","""base_link""",,,,0.00828067306429,-0.018570818007,0.0885563194752,,0.00273503823923,0.0056257908091,0.110481051288,-0.993858597002,"[1e-06, 0.0, 0.0, 0.0, 0.0, 0.0, 0.0, 1e-06, 0.0, 0.0, 0.0, 0.0, 0.0, 0.0, 1e-06, 0.0, 0.0, 0.0, 0.0, 0.0, 0.0, 1e-06, 0.0, 0.0, 0.0, 0.0, 0.0, 0.0, 1e-06, 0.0, 0.0, 0.0, 0.0, 0.0, 0.0, 1e-06]",,,,0.000496214224161,-0.00781462932873,0.0108070827128,,0.00095048075309,-0.000398386560846,0.051305886358,"[0.0001, 0.0, 0.0, 0.0, 0.0, 0.0, 0.0, 0.0001, 0.0, 0.0, 0.0, 0.0, 0.0, 0.0, 0.0001, 0.0, 0.0, 0.0, 0.0, 0.0, 0.0, 0.0001, 0.0, 0.0, 0.0, 0.0, 0.0, 0.0, 0.0001, 0.0, 0.0, 0.0, 0.0, 0.0, 0.0, 0.0001]"
1520440530477840562,,421,,1520440530,461001216,"""map""","""base_link""",,,,0.00824941229075,-0.0186650585383,0.0886887162924,,0.00273864475823,0.00562530842525,0.109713894352,-0.993943480755,"[1e-06, 0.0, 0.0, 0.0, 0.0, 0.0, 0.0, 1e-06, 0.0, 0.0, 0.0, 0.0, 0.0, 0.0, 1e-06, 0.0, 0.0, 0.0, 0.0, 0.0, 0.0, 1e-06, 0.0, 0.0, 0.0, 0.0, 0.0, 0.0, 1e-06, 0.0, 0.0, 0.0, 0.0, 0.0, 0.0, 1e-06]",,,,0.00032312921466,-0.00807807840334,0.0109193390209,,-0.000198941910639,-0.000495030952152,0.0520652718842,"[0.0001, 0.0, 0.0, 0.0, 0.0, 0.0, 0.0, 0.0001, 0.0, 0.0, 0.0, 0.0, 0.0, 0.0, 0.0001, 0.0, 0.0, 0.0, 0.0, 0.0, 0.0, 0.0001, 0.0, 0.0, 0.0, 0.0, 0.0, 0.0, 0.0001, 0.0, 0.0, 0.0, 0.0, 0.0, 0.0, 0.0001]"
1520440530503684573,,422,,1520440530,491934016,"""map""","""base_link""",,,,0.0082679791376,-0.0185313541442,0.0884985774755,,0.00274167077024,0.00560355670015,0.108333332182,-0.994095040822,"[1e-06, 0.0, 0.0, 0.0, 0.0, 0.0, 0.0, 1e-06, 0.0, 0.0, 0.0, 0.0, 0.0, 0.0, 1e-06, 0.0, 0.0, 0.0, 0.0, 0.0, 0.0, 1e-06, 0.0, 0.0, 0.0, 0.0, 0.0, 0.0, 1e-06, 0.0, 0.0, 0.0, 0.0, 0.0, 0.0, 1e-06]",,,,0.00013192277511,-0.00813906070955,0.0107085441288,,0.000620201288257,0.000401296303608,0.0508595667779,"[0.0001, 0.0, 0.0, 0.0, 0.0, 0.0, 0.0, 0.0001, 0.0, 0.0, 0.0, 0.0, 0.0, 0.0, 0.0001, 0.0, 0.0, 0.0, 0.0, 0.0, 0.0, 0.0001, 0.0, 0.0, 0.0, 0.0, 0.0, 0.0, 0.0001, 0.0, 0.0, 0.0, 0.0, 0.0, 0.0, 0.0001]"
1520440530548242337,,423,,1520440530,531934016,"""map""","""base_link""",,,,0.00827331375331,-0.0184916071594,0.0884458050132,,0.00273886602918,0.00560485469138,0.106674516518,-0.994274417809,"[1e-06, 0.0, 0.0, 0.0, 0.0, 0.0, 0.0, 1e-06, 0.0, 0.0, 0.0, 0.0, 0.0, 0.0, 1e-06, 0.0, 0.0, 0.0, 0.0, 0.0, 0.0, 1e-06, 0.0, 0.0, 0.0, 0.0, 0.0, 0.0, 1e-06, 0.0, 0.0, 0.0, 0.0, 0.0, 0.0, 1e-06]",,,,-5.97878765778e-05,-0.00801258182298,0.0104961605535,,0.000795630272478,-0.00143129238859,0.0505010597408,"[0.0001, 0.0, 0.0, 0.0, 0.0, 0.0, 0.0, 0.0001, 0.0, 0.0, 0.0, 0.0, 0.0, 0.0, 0.0001, 0.0, 0.0, 0.0, 0.0, 0.0, 0.0, 0.0001, 0.0, 0.0, 0.0, 0.0, 0.0, 0.0, 0.0001, 0.0, 0.0, 0.0, 0.0, 0.0, 0.0, 0.0001]"
1520440530592504046,,424,,1520440530,561934016,"""map""","""base_link""",,,,0.00823951512575,-0.0186294969171,0.0886279344559,,0.00272983606689,0.00560151126091,0.106040375035,-0.994342358529,"[1e-06, 0.0, 0.0, 0.0, 0.0, 0.0, 0.0, 1e-06, 0.0, 0.0, 0.0, 0.0, 0.0, 0.0, 1e-06, 0.0, 0.0, 0.0, 0.0, 0.0, 0.0, 1e-06, 0.0, 0.0, 0.0, 0.0, 0.0, 0.0, 1e-06, 0.0, 0.0, 0.0, 0.0, 0.0, 0.0, 1e-06]",,,,3.26384651425e-05,-0.00830869366488,0.0105671179719,,0.0020951682236,0.00119053549133,0.0513867475092,"[0.0001, 0.0, 0.0, 0.0, 0.0, 0.0, 0.0, 0.0001, 0.0, 0.0, 0.0, 0.0, 0.0, 0.0, 0.0001, 0.0, 0.0, 0.0, 0.0, 0.0, 0.0, 0.0001, 0.0, 0.0, 0.0, 0.0, 0.0, 0.0, 0.0001, 0.0, 0.0, 0.0, 0.0, 0.0, 0.0, 0.0001]"
1520440530595359603,,425,,1520440530,591934016,"""map""","""base_link""",,,,0.00819388777018,-0.0188284683973,0.0888897776604,,0.0027028026502,0.00559236094961,0.104381095756,-0.994517984447,"[1e-06, 0.0, 0.0, 0.0, 0.0, 0.0, 0.0, 1e-06, 0.0, 0.0, 0.0, 0.0, 0.0, 0.0, 1e-06, 0.0, 0.0, 0.0, 0.0, 0.0, 0.0, 1e-06, 0.0, 0.0, 0.0, 0.0, 0.0, 0.0, 1e-06, 0.0, 0.0, 0.0, 0.0, 0.0, 0.0, 1e-06]",,,,-2.65060017825e-05,-0.00841180181421,0.010881259619,,0.000818621949293,0.000245317496592,0.0520917698741,"[0.0001, 0.0, 0.0, 0.0, 0.0, 0.0, 0.0, 0.0001, 0.0, 0.0, 0.0, 0.0, 0.0, 0.0, 0.0001, 0.0, 0.0, 0.0, 0.0, 0.0, 0.0, 0.0001, 0.0, 0.0, 0.0, 0.0, 0.0, 0.0, 0.0001, 0.0, 0.0, 0.0, 0.0, 0.0, 0.0, 0.0001]"
1520440530655380188,,426,,1520440530,618053098,"""map""","""base_link""",,,,0.00823760312051,-0.0186354331672,0.0886280164123,,0.00269841789623,0.00559215696544,0.103030879317,-0.994658839214,"[1e-06, 0.0, 0.0, 0.0, 0.0, 0.0, 0.0, 1e-06, 0.0, 0.0, 0.0, 0.0, 0.0, 0.0, 1e-06, 0.0, 0.0, 0.0, 0.0, 0.0, 0.0, 1e-06, 0.0, 0.0, 0.0, 0.0, 0.0, 0.0, 1e-06, 0.0, 0.0, 0.0, 0.0, 0.0, 0.0, 1e-06]",,,,-4.2953508761e-05,-0.00825668339077,0.0106766143515,,0.000354443152901,-0.000583377608564,0.0505914278328,"[0.0001, 0.0, 0.0, 0.0, 0.0, 0.0, 0.0, 0.0001, 0.0, 0.0, 0.0, 0.0, 0.0, 0.0, 0.0001, 0.0, 0.0, 0.0, 0.0, 0.0, 0.0, 0.0001, 0.0, 0.0, 0.0, 0.0, 0.0, 0.0, 0.0001, 0.0, 0.0, 0.0, 0.0, 0.0, 0.0, 0.0001]"
1520440530676348907,,427,,1520440530,648053098,"""map""","""base_link""",,,,0.00823336280882,-0.0186499133706,0.0886432826519,,0.00269541509791,0.00559596845642,0.102272446778,-0.994737021618,"[1e-06, 0.0, 0.0, 0.0, 0.0, 0.0, 0.0, 1e-06, 0.0, 0.0, 0.0, 0.0, 0.0, 0.0, 1e-06, 0.0, 0.0, 0.0, 0.0, 0.0, 0.0, 1e-06, 0.0, 0.0, 0.0, 0.0, 0.0, 0.0, 1e-06, 0.0, 0.0, 0.0, 0.0, 0.0, 0.0, 1e-06]",,,,-0.000126710563028,-0.00816388109476,0.0105685835942,,0.000170363637153,0.000583614397328,0.0519011877477,"[0.0001, 0.0, 0.0, 0.0, 0.0, 0.0, 0.0, 0.0001, 0.0, 0.0, 0.0, 0.0, 0.0, 0.0, 0.0001, 0.0, 0.0, 0.0, 0.0, 0.0, 0.0, 0.0001, 0.0, 0.0, 0.0, 0.0, 0.0, 0.0, 0.0001, 0.0, 0.0, 0.0, 0.0, 0.0, 0.0, 0.0001]"
1520440530702850606,,428,,1520440530,692686575,"""map""","""base_link""",,,,0.00819992087781,-0.0187895856798,0.0888264775276,,0.00268111645028,0.00562858320245,0.100777203034,-0.99488946677,"[1e-06, 0.0, 0.0, 0.0, 0.0, 0.0, 0.0, 1e-06, 0.0, 0.0, 0.0, 0.0, 0.0, 0.0, 1e-06, 0.0, 0.0, 0.0, 0.0, 0.0, 0.0, 1e-06, 0.0, 0.0, 0.0, 0.0, 0.0, 0.0, 1e-06, 0.0, 0.0, 0.0, 0.0, 0.0, 0.0, 1e-06]",,,,-5.17457389255e-05,-0.00833807627665,0.010604813587,,0.000458906986751,-0.00188806885853,0.0524201206863,"[0.0001, 0.0, 0.0, 0.0, 0.0, 0.0, 0.0, 0.0001, 0.0, 0.0, 0.0, 0.0, 0.0, 0.0, 0.0001, 0.0, 0.0, 0.0, 0.0, 0.0, 0.0, 0.0001, 0.0, 0.0, 0.0, 0.0, 0.0, 0.0, 0.0001, 0.0, 0.0, 0.0, 0.0, 0.0, 0.0, 0.0001]"
1520440530749667269,,429,,1520440530,722686575,"""map""","""base_link""",,,,0.00815419107676,-0.0189935397357,0.0890911817551,,0.00265955323355,0.00563202854268,0.0992562497116,-0.995042501976,"[1e-06, 0.0, 0.0, 0.0, 0.0, 0.0, 0.0, 1e-06, 0.0, 0.0, 0.0, 0.0, 0.0, 0.0, 1e-06, 0.0, 0.0, 0.0, 0.0, 0.0, 0.0, 1e-06, 0.0, 0.0, 0.0, 0.0, 0.0, 0.0, 1e-06, 0.0, 0.0, 0.0, 0.0, 0.0, 0.0, 1e-06]",,,,-8.87095145096e-05,-0.00853199181537,0.0108612166237,,0.00150258257054,0.000902656989638,0.0535477288067,"[0.0001, 0.0, 0.0, 0.0, 0.0, 0.0, 0.0, 0.0001, 0.0, 0.0, 0.0, 0.0, 0.0, 0.0, 0.0001, 0.0, 0.0, 0.0, 0.0, 0.0, 0.0, 0.0001, 0.0, 0.0, 0.0, 0.0, 0.0, 0.0, 0.0001, 0.0, 0.0, 0.0, 0.0, 0.0, 0.0, 0.0001]"
1520440530771857679,,430,,1520440530,762686575,"""map""","""base_link""",,,,0.00808481872082,-0.0193059351295,0.0895035341382,,0.00265952162341,0.00562790539552,0.0985123156886,-0.995116385402,"[1e-06, 0.0, 0.0, 0.0, 0.0, 0.0, 0.0, 1e-06, 0.0, 0.0, 0.0, 0.0, 0.0, 0.0, 1e-06, 0.0, 0.0, 0.0, 0.0, 0.0, 0.0, 1e-06, 0.0, 0.0, 0.0, 0.0, 0.0, 0.0, 1e-06, 0.0, 0.0, 0.0, 0.0, 0.0, 0.0, 1e-06]",,,,-2.178304728e-07,-0.00883766737545,0.0112020001763,,0.000510643119924,0.00111653679051,0.0524413064122,"[0.0001, 0.0, 0.0, 0.0, 0.0, 0.0, 0.0, 0.0001, 0.0, 0.0, 0.0, 0.0, 0.0, 0.0, 0.0001, 0.0, 0.0, 0.0, 0.0, 0.0, 0.0, 0.0001, 0.0, 0.0, 0.0, 0.0, 0.0, 0.0, 0.0001, 0.0, 0.0, 0.0, 0.0, 0.0, 0.0, 0.0001]"
1520440530804366495,,431,,1520440530,794986624,"""map""","""base_link""",,,,0.00816655252129,-0.0189621020108,0.0890410616994,,0.00266070519253,0.00562142976273,0.0968532471438,-0.995279240825,"[1e-06, 0.0, 0.0, 0.0, 0.0, 0.0, 0.0, 1e-06, 0.0, 0.0, 0.0, 0.0, 0.0, 0.0, 1e-06, 0.0, 0.0, 0.0, 0.0, 0.0, 0.0, 1e-06, 0.0, 0.0, 0.0, 0.0, 0.0, 0.0, 1e-06, 0.0, 0.0, 0.0, 0.0, 0.0, 0.0, 1e-06]",,,,-4.04995093317e-05,-0.00861518357893,0.0104372349188,,0.000155032612383,-0.00120390753727,0.0525613427162,"[0.0001, 0.0, 0.0, 0.0, 0.0, 0.0, 0.0, 0.0001, 0.0, 0.0, 0.0, 0.0, 0.0, 0.0, 0.0001, 0.0, 0.0, 0.0, 0.0, 0.0, 0.0, 0.0001, 0.0, 0.0, 0.0, 0.0, 0.0, 0.0, 0.0001, 0.0, 0.0, 0.0, 0.0, 0.0, 0.0, 0.0001]"
1520440530867867234,,432,,1520440530,824986624,"""map""","""base_link""",,,,0.00823527853936,-0.0186687987298,0.0886453539133,,0.00265034941551,0.00563602393221,0.0955203109128,-0.9954079573,"[1e-06, 0.0, 0.0, 0.0, 0.0, 0.0, 0.0, 1e-06, 0.0, 0.0, 0.0, 0.0, 0.0, 0.0, 1e-06, 0.0, 0.0, 0.0, 0.0, 0.0, 0.0, 1e-06, 0.0, 0.0, 0.0, 0.0, 0.0, 0.0, 1e-06, 0.0, 0.0, 0.0, 0.0, 0.0, 0.0, 1e-06]",,,,-1.08593647177e-06,-0.00835369387416,0.00987826463729,,0.00194161967374,-0.000270738324616,0.0517183206975,"[0.0001, 0.0, 0.0, 0.0, 0.0, 0.0, 0.0, 0.0001, 0.0, 0.0, 0.0, 0.0, 0.0, 0.0, 0.0001, 0.0, 0.0, 0.0, 0.0, 0.0, 0.0, 0.0001, 0.0, 0.0, 0.0, 0.0, 0.0, 0.0, 0.0001, 0.0, 0.0, 0.0, 0.0, 0.0, 0.0, 0.0001]"
1520440530879079808,,433,,1520440530,864986624,"""map""","""base_link""",,,,0.00823355745524,-0.0187135133892,0.0886753052473,,0.00264254467527,0.00563807760326,0.0946388938699,-0.99549220885,"[1e-06, 0.0, 0.0, 0.0, 0.0, 0.0, 0.0, 1e-06, 0.0, 0.0, 0.0, 0.0, 0.0, 0.0, 1e-06, 0.0, 0.0, 0.0, 0.0, 0.0, 0.0, 1e-06, 0.0, 0.0, 0.0, 0.0, 0.0, 0.0, 1e-06, 0.0, 0.0, 0.0, 0.0, 0.0, 0.0, 1e-06]",,,,0.00012643660602,-0.00845928266231,0.00996933486334,,0.000113016692922,-0.000861402601004,0.0524140000343,"[0.0001, 0.0, 0.0, 0.0, 0.0, 0.0, 0.0, 0.0001, 0.0, 0.0, 0.0, 0.0, 0.0, 0.0, 0.0001, 0.0, 0.0, 0.0, 0.0, 0.0, 0.0, 0.0001, 0.0, 0.0, 0.0, 0.0, 0.0, 0.0, 0.0001, 0.0, 0.0, 0.0, 0.0, 0.0, 0.0, 0.0001]"
1520440530905832208,,434,,1520440530,892874112,"""map""","""base_link""",,,,0.00820640381426,-0.0188870802522,0.0888758301735,,0.00263698606571,0.00565639946392,0.093297865444,-0.995618649396,"[1e-06, 0.0, 0.0, 0.0, 0.0, 0.0, 0.0, 1e-06, 0.0, 0.0, 0.0, 0.0, 0.0, 0.0, 1e-06, 0.0, 0.0, 0.0, 0.0, 0.0, 0.0, 1e-06, 0.0, 0.0, 0.0, 0.0, 0.0, 0.0, 1e-06, 0.0, 0.0, 0.0, 0.0, 0.0, 0.0, 1e-06]",,,,0.000276953025682,-0.00873054061332,0.0101898884137,,0.000847479095683,-0.000377587799449,0.052753765136,"[0.0001, 0.0, 0.0, 0.0, 0.0, 0.0, 0.0, 0.0001, 0.0, 0.0, 0.0, 0.0, 0.0, 0.0, 0.0001, 0.0, 0.0, 0.0, 0.0, 0.0, 0.0, 0.0001, 0.0, 0.0, 0.0, 0.0, 0.0, 0.0, 0.0001, 0.0, 0.0, 0.0, 0.0, 0.0, 0.0, 0.0001]"
1520440530947516895,,435,,1520440530,922874112,"""map""","""base_link""",,,,0.00824122689664,-0.0187085159123,0.0886737257242,,0.00262842432856,0.0056744666325,0.091811894006,-0.995756764618,"[1e-06, 0.0, 0.0, 0.0, 0.0, 0.0, 0.0, 1e-06, 0.0, 0.0, 0.0, 0.0, 0.0, 0.0, 1e-06, 0.0, 0.0, 0.0, 0.0, 0.0, 0.0, 1e-06, 0.0, 0.0, 0.0, 0.0, 0.0, 0.0, 1e-06, 0.0, 0.0, 0.0, 0.0, 0.0, 0.0, 1e-06]",,,,0.000266285983686,-0.00877895652511,0.0102149789642,,0.00127103109844,-0.000257508712821,0.0523930229247,"[0.0001, 0.0, 0.0, 0.0, 0.0, 0.0, 0.0, 0.0001, 0.0, 0.0, 0.0, 0.0, 0.0, 0.0, 0.0001, 0.0, 0.0, 0.0, 0.0, 0.0, 0.0, 0.0001, 0.0, 0.0, 0.0, 0.0, 0.0, 0.0, 0.0001, 0.0, 0.0, 0.0, 0.0, 0.0, 0.0, 0.0001]"
1520440530972838557,,436,,1520440530,962874112,"""map""","""base_link""",,,,0.00826613325626,-0.0185640230775,0.0884886607528,,0.00261701488033,0.00567711282897,0.0911050913565,-0.995821670765,"[1e-06, 0.0, 0.0, 0.0, 0.0, 0.0, 0.0, 1e-06, 0.0, 0.0, 0.0, 0.0, 0.0, 0.0, 1e-06, 0.0, 0.0, 0.0, 0.0, 0.0, 0.0, 1e-06, 0.0, 0.0, 0.0, 0.0, 0.0, 0.0, 1e-06, 0.0, 0.0, 0.0, 0.0, 0.0, 0.0, 1e-06]",,,,0.000380934474768,-0.00892186321658,0.0102461989154,,0.00106714037247,0.00150939961895,0.0504052601755,"[0.0001, 0.0, 0.0, 0.0, 0.0, 0.0, 0.0, 0.0001, 0.0, 0.0, 0.0, 0.0, 0.0, 0.0, 0.0001, 0.0, 0.0, 0.0, 0.0, 0.0, 0.0, 0.0001, 0.0, 0.0, 0.0, 0.0, 0.0, 0.0, 0.0001, 0.0, 0.0, 0.0, 0.0, 0.0, 0.0, 0.0001]"
1520440531008665296,,437,,1520440530,988747392,"""map""","""base_link""",,,,0.00828315038234,-0.0185041781515,0.0884172692895,,0.00261793338528,0.00568171358554,0.0896354307489,-0.995955023394,"[1e-06, 0.0, 0.0, 0.0, 0.0, 0.0, 0.0, 1e-06, 0.0, 0.0, 0.0, 0.0, 0.0, 0.0, 1e-06, 0.0, 0.0, 0.0, 0.0, 0.0, 0.0, 1e-06, 0.0, 0.0, 0.0, 0.0, 0.0, 0.0, 1e-06, 0.0, 0.0, 0.0, 0.0, 0.0, 0.0, 1e-06]",,,,0.000409212797556,-0.00886229913702,0.0103404787525,,-8.84838518687e-05,9.47780208662e-05,0.0522812157869,"[0.0001, 0.0, 0.0, 0.0, 0.0, 0.0, 0.0, 0.0001, 0.0, 0.0, 0.0, 0.0, 0.0, 0.0, 0.0001, 0.0, 0.0, 0.0, 0.0, 0.0, 0.0, 0.0001, 0.0, 0.0, 0.0, 0.0, 0.0, 0.0, 0.0001, 0.0, 0.0, 0.0, 0.0, 0.0, 0.0, 0.0001]"
1520440531043042035,,438,,1520440531,28747392,"""map""","""base_link""",,,,0.0082787387073,-0.0186081677675,0.0885564610362,,0.00259700237127,0.00567949412591,0.0880503299233,-0.99609642607,"[1e-06, 0.0, 0.0, 0.0, 0.0, 0.0, 0.0, 1e-06, 0.0, 0.0, 0.0, 0.0, 0.0, 0.0, 1e-06, 0.0, 0.0, 0.0, 0.0, 0.0, 0.0, 1e-06, 0.0, 0.0, 0.0, 0.0, 0.0, 0.0, 1e-06, 0.0, 0.0, 0.0, 0.0, 0.0, 0.0, 1e-06]",,,,0.00054004251762,-0.00865302385273,0.0107684662955,,0.00220580678433,0.00194459781051,0.0523680709302,"[0.0001, 0.0, 0.0, 0.0, 0.0, 0.0, 0.0, 0.0001, 0.0, 0.0, 0.0, 0.0, 0.0, 0.0, 0.0001, 0.0, 0.0, 0.0, 0.0, 0.0, 0.0, 0.0001, 0.0, 0.0, 0.0, 0.0, 0.0, 0.0, 0.0001, 0.0, 0.0, 0.0, 0.0, 0.0, 0.0, 0.0001]"
1520440531066011081,,439,,1520440531,58747392,"""map""","""base_link""",,,,0.00829105358571,-0.0185368787497,0.0884810388088,,0.00258683296235,0.0056667112831,0.0874515074996,-0.996149362512,"[1e-06, 0.0, 0.0, 0.0, 0.0, 0.0, 0.0, 1e-06, 0.0, 0.0, 0.0, 0.0, 0.0, 0.0, 1e-06, 0.0, 0.0, 0.0, 0.0, 0.0, 0.0, 1e-06, 0.0, 0.0, 0.0, 0.0, 0.0, 0.0, 1e-06, 0.0, 0.0, 0.0, 0.0, 0.0, 0.0, 1e-06]",,,,0.000683158446513,-0.00815104743117,0.010601723899,,0.000565217575058,-0.000105503248051,0.0528328493237,"[0.0001, 0.0, 0.0, 0.0, 0.0, 0.0, 0.0, 0.0001, 0.0, 0.0, 0.0, 0.0, 0.0, 0.0, 0.0001, 0.0, 0.0, 0.0, 0.0, 0.0, 0.0, 0.0001, 0.0, 0.0, 0.0, 0.0, 0.0, 0.0, 0.0001, 0.0, 0.0, 0.0, 0.0, 0.0, 0.0, 0.0001]"
1520440531101878080,,440,,1520440531,89458048,"""map""","""base_link""",,,,0.00830738991499,-0.0184568483382,0.0883815735579,,0.00255824110008,0.00569850367168,0.0860165758952,-0.996274117184,"[1e-06, 0.0, 0.0, 0.0, 0.0, 0.0, 0.0, 1e-06, 0.0, 0.0, 0.0, 0.0, 0.0, 0.0, 1e-06, 0.0, 0.0, 0.0, 0.0, 0.0, 0.0, 1e-06, 0.0, 0.0, 0.0, 0.0, 0.0, 0.0, 1e-06, 0.0, 0.0, 0.0, 0.0, 0.0, 0.0, 1e-06]",,,,0.000782762197707,-0.00793424358456,0.0101659193245,,0.00248423754238,-0.00200164830312,0.0506280511618,"[0.0001, 0.0, 0.0, 0.0, 0.0, 0.0, 0.0, 0.0001, 0.0, 0.0, 0.0, 0.0, 0.0, 0.0, 0.0001, 0.0, 0.0, 0.0, 0.0, 0.0, 0.0, 0.0001, 0.0, 0.0, 0.0, 0.0, 0.0, 0.0, 0.0001, 0.0, 0.0, 0.0, 0.0, 0.0, 0.0, 0.0001]"
1520440531142739461,,441,,1520440531,119458048,"""map""","""base_link""",,,,0.00830764137208,-0.0185228940099,0.0884613543749,,0.00253716059647,0.00572974749268,0.084585479654,-0.996396553779,"[1e-06, 0.0, 0.0, 0.0, 0.0, 0.0, 0.0, 1e-06, 0.0, 0.0, 0.0, 0.0, 0.0, 0.0, 1e-06, 0.0, 0.0, 0.0, 0.0, 0.0, 0.0, 1e-06, 0.0, 0.0, 0.0, 0.0, 0.0, 0.0, 1e-06, 0.0, 0.0, 0.0, 0.0, 0.0, 0.0, 1e-06]",,,,0.000788125787543,-0.00795119083626,0.00994993064662,,0.000537594314665,-0.000997463008389,0.0527953058481,"[0.0001, 0.0, 0.0, 0.0, 0.0, 0.0, 0.0, 0.0001, 0.0, 0.0, 0.0, 0.0, 0.0, 0.0, 0.0001, 0.0, 0.0, 0.0, 0.0, 0.0, 0.0, 0.0001, 0.0, 0.0, 0.0, 0.0, 0.0, 0.0, 0.0001, 0.0, 0.0, 0.0, 0.0, 0.0, 0.0, 0.0001]"
1520440531173260576,,442,,1520440531,159458048,"""map""","""base_link""",,,,0.00829715747386,-0.0187526028603,0.0887381061912,,0.00252802971223,0.00572989648837,0.083855159063,-0.996458256765,"[1e-06, 0.0, 0.0, 0.0, 0.0, 0.0, 0.0, 1e-06, 0.0, 0.0, 0.0, 0.0, 0.0, 0.0, 1e-06, 0.0, 0.0, 0.0, 0.0, 0.0, 0.0, 1e-06, 0.0, 0.0, 0.0, 0.0, 0.0, 0.0, 1e-06, 0.0, 0.0, 0.0, 0.0, 0.0, 0.0, 1e-06]",,,,0.00100342318428,-0.00807244819913,0.0098139891601,,0.00173737562727,0.000338485202519,0.0528619885445,"[0.0001, 0.0, 0.0, 0.0, 0.0, 0.0, 0.0, 0.0001, 0.0, 0.0, 0.0, 0.0, 0.0, 0.0, 0.0001, 0.0, 0.0, 0.0, 0.0, 0.0, 0.0, 0.0001, 0.0, 0.0, 0.0, 0.0, 0.0, 0.0, 0.0001, 0.0, 0.0, 0.0, 0.0, 0.0, 0.0, 0.0001]"
1520440531201350759,,443,,1520440531,188077952,"""map""","""base_link""",,,,0.00831371359527,-0.0185310654342,0.0884559378028,,0.00252433017382,0.00575086306378,0.0824082999005,-0.996578923192,"[1e-06, 0.0, 0.0, 0.0, 0.0, 0.0, 0.0, 1e-06, 0.0, 0.0, 0.0, 0.0, 0.0, 0.0, 1e-06, 0.0, 0.0, 0.0, 0.0, 0.0, 0.0, 1e-06, 0.0, 0.0, 0.0, 0.0, 0.0, 0.0, 1e-06, 0.0, 0.0, 0.0, 0.0, 0.0, 0.0, 1e-06]",,,,0.00106519819563,-0.00779569670489,0.00936338733309,,0.000504927476868,-0.00132093951106,0.0520813204348,"[0.0001, 0.0, 0.0, 0.0, 0.0, 0.0, 0.0, 0.0001, 0.0, 0.0, 0.0, 0.0, 0.0, 0.0, 0.0001, 0.0, 0.0, 0.0, 0.0, 0.0, 0.0, 0.0001, 0.0, 0.0, 0.0, 0.0, 0.0, 0.0, 0.0001, 0.0, 0.0, 0.0, 0.0, 0.0, 0.0, 0.0001]"
1520440531232317686,,444,,1520440531,218077952,"""map""","""base_link""",,,,0.00832158792764,-0.0184559710324,0.0883638113737,,0.00252136277227,0.00580180609129,0.0809970969718,-0.996694279116,"[1e-06, 0.0, 0.0, 0.0, 0.0, 0.0, 0.0, 1e-06, 0.0, 0.0, 0.0, 0.0, 0.0, 0.0, 1e-06, 0.0, 0.0, 0.0, 0.0, 0.0, 0.0, 1e-06, 0.0, 0.0, 0.0, 0.0, 0.0, 0.0, 1e-06, 0.0, 0.0, 0.0, 0.0, 0.0, 0.0, 1e-06]",,,,0.0010633261054,-0.00785322817499,0.00953521525563,,0.00162146682851,-0.00281782308593,0.0518625453115,"[0.0001, 0.0, 0.0, 0.0, 0.0, 0.0, 0.0, 0.0001, 0.0, 0.0, 0.0, 0.0, 0.0, 0.0, 0.0001, 0.0, 0.0, 0.0, 0.0, 0.0, 0.0, 0.0001, 0.0, 0.0, 0.0, 0.0, 0.0, 0.0, 0.0001, 0.0, 0.0, 0.0, 0.0, 0.0, 0.0, 0.0001]"
1520440531267378856,,445,,1520440531,258077952,"""map""","""base_link""",,,,0.00832505896688,-0.0185231529176,0.0884594842792,,0.0025146839785,0.00581357872682,0.0802788303795,-0.99675227318,"[1e-06, 0.0, 0.0, 0.0, 0.0, 0.0, 0.0, 1e-06, 0.0, 0.0, 0.0, 0.0, 0.0, 0.0, 1e-06, 0.0, 0.0, 0.0, 0.0, 0.0, 0.0, 1e-06, 0.0, 0.0, 0.0, 0.0, 0.0, 0.0, 1e-06, 0.0, 0.0, 0.0, 0.0, 0.0, 0.0, 1e-06]",,,,0.00117629370517,-0.00797441786389,0.0102226812411,,0.000465623830678,-0.00052515527932,0.0517397932708,"[0.0001, 0.0, 0.0, 0.0, 0.0, 0.0, 0.0, 0.0001, 0.0, 0.0, 0.0, 0.0, 0.0, 0.0, 0.0001, 0.0, 0.0, 0.0, 0.0, 0.0, 0.0, 0.0001, 0.0, 0.0, 0.0, 0.0, 0.0, 0.0, 0.0001, 0.0, 0.0, 0.0, 0.0, 0.0, 0.0, 0.0001]"
1520440531300469994,,446,,1520440531,286628736,"""map""","""base_link""",,,,0.00832306686789,-0.0185550265014,0.0885081142187,,0.00250083610459,0.00583738642787,0.0788474391104,-0.996866575433,"[1e-06, 0.0, 0.0, 0.0, 0.0, 0.0, 0.0, 1e-06, 0.0, 0.0, 0.0, 0.0, 0.0, 0.0, 1e-06, 0.0, 0.0, 0.0, 0.0, 0.0, 0.0, 1e-06, 0.0, 0.0, 0.0, 0.0, 0.0, 0.0, 1e-06, 0.0, 0.0, 0.0, 0.0, 0.0, 0.0, 1e-06]",,,,0.00110121285673,-0.00788385055432,0.0104830826343,,0.000564285321161,-0.00215147063136,0.0513579659164,"[0.0001, 0.0, 0.0, 0.0, 0.0, 0.0, 0.0, 0.0001, 0.0, 0.0, 0.0, 0.0, 0.0, 0.0, 0.0001, 0.0, 0.0, 0.0, 0.0, 0.0, 0.0, 0.0001, 0.0, 0.0, 0.0, 0.0, 0.0, 0.0, 0.0001, 0.0, 0.0, 0.0, 0.0, 0.0, 0.0, 0.0001]"
1520440531332257141,,447,,1520440531,316628736,"""map""","""base_link""",,,,0.0083238221705,-0.0184557028115,0.0883814543486,,0.00248841546126,0.00584998685385,0.0774468571875,-0.99697628368,"[1e-06, 0.0, 0.0, 0.0, 0.0, 0.0, 0.0, 1e-06, 0.0, 0.0, 0.0, 0.0, 0.0, 0.0, 1e-06, 0.0, 0.0, 0.0, 0.0, 0.0, 0.0, 1e-06, 0.0, 0.0, 0.0, 0.0, 0.0, 0.0, 1e-06, 0.0, 0.0, 0.0, 0.0, 0.0, 0.0, 1e-06]",,,,0.000963153303602,-0.00780530092145,0.0105620118239,,0.00154467998073,-0.00128765206318,0.0523028112948,"[0.0001, 0.0, 0.0, 0.0, 0.0, 0.0, 0.0, 0.0001, 0.0, 0.0, 0.0, 0.0, 0.0, 0.0, 0.0001, 0.0, 0.0, 0.0, 0.0, 0.0, 0.0, 0.0001, 0.0, 0.0, 0.0, 0.0, 0.0, 0.0, 0.0001, 0.0, 0.0, 0.0, 0.0, 0.0, 0.0, 0.0001]"
1520440531376928101,,448,,1520440531,356628736,"""map""","""base_link""",,,,0.00832317210734,-0.0184442326427,0.0883649140596,,0.00247162817394,0.0058674313686,0.0767393380415,-0.997030863849,"[1e-06, 0.0, 0.0, 0.0, 0.0, 0.0, 0.0, 1e-06, 0.0, 0.0, 0.0, 0.0, 0.0, 0.0, 1e-06, 0.0, 0.0, 0.0, 0.0, 0.0, 0.0, 1e-06, 0.0, 0.0, 0.0, 0.0, 0.0, 0.0, 1e-06, 0.0, 0.0, 0.0, 0.0, 0.0, 0.0, 1e-06]",,,,0.00105462496651,-0.00781644009628,0.0107975066715,,0.00207668426447,-0.000455633213278,0.0525821596384,"[0.0001, 0.0, 0.0, 0.0, 0.0, 0.0, 0.0, 0.0001, 0.0, 0.0, 0.0, 0.0, 0.0, 0.0, 0.0001, 0.0, 0.0, 0.0, 0.0, 0.0, 0.0, 0.0001, 0.0, 0.0, 0.0, 0.0, 0.0, 0.0, 0.0001, 0.0, 0.0, 0.0, 0.0, 0.0, 0.0, 0.0001]"
1520440531402370056,,449,,1520440531,389498496,"""map""","""base_link""",,,,0.00831936392933,-0.0184303559363,0.0883574709296,,0.00246881701207,0.00586987440408,0.0753171347854,-0.997139265543,"[1e-06, 0.0, 0.0, 0.0, 0.0, 0.0, 0.0, 1e-06, 0.0, 0.0, 0.0, 0.0, 0.0, 0.0, 1e-06, 0.0, 0.0, 0.0, 0.0, 0.0, 0.0, 1e-06, 0.0, 0.0, 0.0, 0.0, 0.0, 0.0, 1e-06, 0.0, 0.0, 0.0, 0.0, 0.0, 0.0, 1e-06]",,,,0.000930402832572,-0.00777061040598,0.0108269827815,,0.000398305535782,0.00102595321368,0.0530443228781,"[0.0001, 0.0, 0.0, 0.0, 0.0, 0.0, 0.0, 0.0001, 0.0, 0.0, 0.0, 0.0, 0.0, 0.0, 0.0001, 0.0, 0.0, 0.0, 0.0, 0.0, 0.0, 0.0001, 0.0, 0.0, 0.0, 0.0, 0.0, 0.0, 0.0001, 0.0, 0.0, 0.0, 0.0, 0.0, 0.0, 0.0001]"
1520440531450242266,,450,,1520440531,429498496,"""map""","""base_link""",,,,0.00830890890211,-0.0185593850911,0.0885431617498,,0.00245229199009,0.00587576985916,0.0739079127586,-0.997244716958,"[1e-06, 0.0, 0.0, 0.0, 0.0, 0.0, 0.0, 1e-06, 0.0, 0.0, 0.0, 0.0, 0.0, 0.0, 1e-06, 0.0, 0.0, 0.0, 0.0, 0.0, 0.0, 1e-06, 0.0, 0.0, 0.0, 0.0, 0.0, 0.0, 1e-06, 0.0, 0.0, 0.0, 0.0, 0.0, 0.0, 1e-06]",,,,0.000926579010615,-0.00797589635859,0.0105840703931,,0.00149376527406,0.000197348592337,0.0518886558712,"[0.0001, 0.0, 0.0, 0.0, 0.0, 0.0, 0.0, 0.0001, 0.0, 0.0, 0.0, 0.0, 0.0, 0.0, 0.0001, 0.0, 0.0, 0.0, 0.0, 0.0, 0.0, 0.0001, 0.0, 0.0, 0.0, 0.0, 0.0, 0.0, 0.0001, 0.0, 0.0, 0.0, 0.0, 0.0, 0.0, 0.0001]"
1520440531472338570,,451,,1520440531,459498496,"""map""","""base_link""",,,,0.00829354859889,-0.0187507364899,0.0887954831123,,0.00244526235674,0.005874358269,0.0732129955203,-0.99729605182,"[1e-06, 0.0, 0.0, 0.0, 0.0, 0.0, 0.0, 1e-06, 0.0, 0.0, 0.0, 0.0, 0.0, 0.0, 1e-06, 0.0, 0.0, 0.0, 0.0, 0.0, 0.0, 1e-06, 0.0, 0.0, 0.0, 0.0, 0.0, 0.0, 1e-06, 0.0, 0.0, 0.0, 0.0, 0.0, 0.0, 1e-06]",,,,0.000652222074094,-0.00826892029615,0.0107624693528,,0.000334340205882,7.46494042687e-05,0.0518228970468,"[0.0001, 0.0, 0.0, 0.0, 0.0, 0.0, 0.0, 0.0001, 0.0, 0.0, 0.0, 0.0, 0.0, 0.0, 0.0001, 0.0, 0.0, 0.0, 0.0, 0.0, 0.0, 0.0001, 0.0, 0.0, 0.0, 0.0, 0.0, 0.0, 0.0001, 0.0, 0.0, 0.0, 0.0, 0.0, 0.0, 0.0001]"
1520440531513704484,,452,,1520440531,492273536,"""map""","""base_link""",,,,0.00828910246491,-0.0187664404511,0.0888034999371,,0.00242799828319,0.00588700857973,0.0718339084902,-0.997396319172,"[1e-06, 0.0, 0.0, 0.0, 0.0, 0.0, 0.0, 1e-06, 0.0, 0.0, 0.0, 0.0, 0.0, 0.0, 1e-06, 0.0, 0.0, 0.0, 0.0, 0.0, 0.0, 1e-06, 0.0, 0.0, 0.0, 0.0, 0.0, 0.0, 1e-06, 0.0, 0.0, 0.0, 0.0, 0.0, 0.0, 1e-06]",,,,0.000397083661264,-0.0083925414996,0.0108500228357,,0.0016154559562,-0.00147780845873,0.051720701158,"[0.0001, 0.0, 0.0, 0.0, 0.0, 0.0, 0.0, 0.0001, 0.0, 0.0, 0.0, 0.0, 0.0, 0.0, 0.0001, 0.0, 0.0, 0.0, 0.0, 0.0, 0.0, 0.0001, 0.0, 0.0, 0.0, 0.0, 0.0, 0.0, 0.0001, 0.0, 0.0, 0.0, 0.0, 0.0, 0.0, 0.0001]"
1520440531552898463,,453,,1520440531,522273536,"""map""","""base_link""",,,,0.00829102192074,-0.0186273753643,0.0886055454612,,0.00242116950592,0.00587698520305,0.0704554536628,-0.99749477421,"[1e-06, 0.0, 0.0, 0.0, 0.0, 0.0, 0.0, 1e-06, 0.0, 0.0, 0.0, 0.0, 0.0, 0.0, 1e-06, 0.0, 0.0, 0.0, 0.0, 0.0, 0.0, 1e-06, 0.0, 0.0, 0.0, 0.0, 0.0, 0.0, 1e-06, 0.0, 0.0, 0.0, 0.0, 0.0, 0.0, 1e-06]",,,,8.14103742782e-06,-0.00828971774889,0.0111564443712,,0.00043110846309,0.00212715752423,0.0518664196134,"[0.0001, 0.0, 0.0, 0.0, 0.0, 0.0, 0.0, 0.0001, 0.0, 0.0, 0.0, 0.0, 0.0, 0.0, 0.0001, 0.0, 0.0, 0.0, 0.0, 0.0, 0.0, 0.0001, 0.0, 0.0, 0.0, 0.0, 0.0, 0.0, 0.0001, 0.0, 0.0, 0.0, 0.0, 0.0, 0.0, 0.0001]"
1520440531577061718,,454,,1520440531,562273536,"""map""","""base_link""",,,,0.00830019731075,-0.0184620302171,0.0884022712708,,0.00242433628182,0.00587503673448,0.0697499154187,-0.99754425461,"[1e-06, 0.0, 0.0, 0.0, 0.0, 0.0, 0.0, 1e-06, 0.0, 0.0, 0.0, 0.0, 0.0, 0.0, 1e-06, 0.0, 0.0, 0.0, 0.0, 0.0, 0.0, 1e-06, 0.0, 0.0, 0.0, 0.0, 0.0, 0.0, 1e-06, 0.0, 0.0, 0.0, 0.0, 0.0, 0.0, 1e-06]",,,,-0.000251084183662,-0.00824089845269,0.0113387966651,,-0.00010728277266,-0.000834571081214,0.0518475398421,"[0.0001, 0.0, 0.0, 0.0, 0.0, 0.0, 0.0, 0.0001, 0.0, 0.0, 0.0, 0.0, 0.0, 0.0, 0.0001, 0.0, 0.0, 0.0, 0.0, 0.0, 0.0, 0.0001, 0.0, 0.0, 0.0, 0.0, 0.0, 0.0, 0.0001, 0.0, 0.0, 0.0, 0.0, 0.0, 0.0, 0.0001]"
1520440531603111980,,455,,1520440531,590037120,"""map""","""base_link""",,,,0.0082789529115,-0.0185401551425,0.0885102450848,,0.00242070029296,0.0058723171103,0.0683791313178,-0.997639169313,"[1e-06, 0.0, 0.0, 0.0, 0.0, 0.0, 0.0, 1e-06, 0.0, 0.0, 0.0, 0.0, 0.0, 0.0, 1e-06, 0.0, 0.0, 0.0, 0.0, 0.0, 0.0, 1e-06, 0.0, 0.0, 0.0, 0.0, 0.0, 0.0, 1e-06, 0.0, 0.0, 0.0, 0.0, 0.0, 0.0, 1e-06]",,,,-0.000436533402914,-0.00844454818725,0.0112682279286,,0.00151523551904,0.00155705027282,0.0520399957895,"[0.0001, 0.0, 0.0, 0.0, 0.0, 0.0, 0.0, 0.0001, 0.0, 0.0, 0.0, 0.0, 0.0, 0.0, 0.0001, 0.0, 0.0, 0.0, 0.0, 0.0, 0.0, 0.0001, 0.0, 0.0, 0.0, 0.0, 0.0, 0.0, 0.0001, 0.0, 0.0, 0.0, 0.0, 0.0, 0.0, 0.0001]"
1520440531647962569,,456,,1520440531,621037120,"""map""","""base_link""",,,,0.00828193221241,-0.0185074582696,0.0884552896023,,0.00239134336661,0.00587111691293,0.0670235622291,-0.997731344471,"[1e-06, 0.0, 0.0, 0.0, 0.0, 0.0, 0.0, 1e-06, 0.0, 0.0, 0.0, 0.0, 0.0, 0.0, 1e-06, 0.0, 0.0, 0.0, 0.0, 0.0, 0.0, 1e-06, 0.0, 0.0, 0.0, 0.0, 0.0, 0.0, 1e-06, 0.0, 0.0, 0.0, 0.0, 0.0, 0.0, 1e-06]",,,,-0.000510372361006,-0.00849140716154,0.0110104513906,,0.00212196214125,-0.00200287648477,0.0515615902841,"[0.0001, 0.0, 0.0, 0.0, 0.0, 0.0, 0.0, 0.0001, 0.0, 0.0, 0.0, 0.0, 0.0, 0.0, 0.0001, 0.0, 0.0, 0.0, 0.0, 0.0, 0.0, 0.0001, 0.0, 0.0, 0.0, 0.0, 0.0, 0.0, 0.0001, 0.0, 0.0, 0.0, 0.0, 0.0, 0.0, 0.0001]"
1520440531701277095,,457,,1520440531,661037120,"""map""","""base_link""",,,,0.00828038714826,-0.0184999350458,0.0884425789118,,0.00238515354214,0.00587723693168,0.0663310052144,-0.997777621711,"[1e-06, 0.0, 0.0, 0.0, 0.0, 0.0, 0.0, 1e-06, 0.0, 0.0, 0.0, 0.0, 0.0, 0.0, 1e-06, 0.0, 0.0, 0.0, 0.0, 0.0, 0.0, 1e-06, 0.0, 0.0, 0.0, 0.0, 0.0, 0.0, 1e-06, 0.0, 0.0, 0.0, 0.0, 0.0, 0.0, 1e-06]",,,,-0.000545637887795,-0.00848279719735,0.0109368108845,,-0.000556600629352,0.000132623681566,0.0519929602742,"[0.0001, 0.0, 0.0, 0.0, 0.0, 0.0, 0.0, 0.0001, 0.0, 0.0, 0.0, 0.0, 0.0, 0.0, 0.0001, 0.0, 0.0, 0.0, 0.0, 0.0, 0.0, 0.0001, 0.0, 0.0, 0.0, 0.0, 0.0, 0.0, 0.0001, 0.0, 0.0, 0.0, 0.0, 0.0, 0.0, 0.0001]"
1520440531701730747,,458,,1520440531,690037120,"""map""","""base_link""",,,,0.00824703741819,-0.0186546761543,0.0886468440294,,0.00238626039082,0.0058755545151,0.0649774170276,-0.997866635855,"[1e-06, 0.0, 0.0, 0.0, 0.0, 0.0, 0.0, 1e-06, 0.0, 0.0, 0.0, 0.0, 0.0, 0.0, 1e-06, 0.0, 0.0, 0.0, 0.0, 0.0, 0.0, 1e-06, 0.0, 0.0, 0.0, 0.0, 0.0, 0.0, 1e-06, 0.0, 0.0, 0.0, 0.0, 0.0, 0.0, 1e-06]",,,,-0.000508418147993,-0.00870941204996,0.0112884876496,,0.00130716874264,-0.00094405724667,0.0510586574674,"[0.0001, 0.0, 0.0, 0.0, 0.0, 0.0, 0.0, 0.0001, 0.0, 0.0, 0.0, 0.0, 0.0, 0.0, 0.0001, 0.0, 0.0, 0.0, 0.0, 0.0, 0.0, 0.0001, 0.0, 0.0, 0.0, 0.0, 0.0, 0.0, 0.0001, 0.0, 0.0, 0.0, 0.0, 0.0, 0.0, 0.0001]"
1520440531751230566,,459,,1520440531,715071245,"""map""","""base_link""",,,,0.00818752031773,-0.0189565569162,0.089050039649,,0.00237831192325,0.00588533834622,0.0635000435468,-0.997961676998,"[1e-06, 0.0, 0.0, 0.0, 0.0, 0.0, 0.0, 1e-06, 0.0, 0.0, 0.0, 0.0, 0.0, 0.0, 1e-06, 0.0, 0.0, 0.0, 0.0, 0.0, 0.0, 1e-06, 0.0, 0.0, 0.0, 0.0, 0.0, 0.0, 1e-06, 0.0, 0.0, 0.0, 0.0, 0.0, 0.0, 1e-06]",,,,-0.000442870838123,-0.00925815840454,0.0120500063442,,0.000245696515776,0.00127012026496,0.0521730445325,"[0.0001, 0.0, 0.0, 0.0, 0.0, 0.0, 0.0, 0.0001, 0.0, 0.0, 0.0, 0.0, 0.0, 0.0, 0.0001, 0.0, 0.0, 0.0, 0.0, 0.0, 0.0, 0.0001, 0.0, 0.0, 0.0, 0.0, 0.0, 0.0, 0.0001, 0.0, 0.0, 0.0, 0.0, 0.0, 0.0, 0.0001]"
1520440531776469982,,460,,1520440531,746071245,"""map""","""base_link""",,,,0.00822677090764,-0.0187618676573,0.0887916833162,,0.00237283398539,0.00587837769541,0.0629668437662,-0.997995605211,"[1e-06, 0.0, 0.0, 0.0, 0.0, 0.0, 0.0, 1e-06, 0.0, 0.0, 0.0, 0.0, 0.0, 0.0, 1e-06, 0.0, 0.0, 0.0, 0.0, 0.0, 0.0, 1e-06, 0.0, 0.0, 0.0, 0.0, 0.0, 0.0, 1e-06, 0.0, 0.0, 0.0, 0.0, 0.0, 0.0, 1e-06]",,,,-0.000386624910822,-0.00923004430015,0.0117068750762,,0.00137135875411,-1.4181190636e-05,0.0512749254704,"[0.0001, 0.0, 0.0, 0.0, 0.0, 0.0, 0.0, 0.0001, 0.0, 0.0, 0.0, 0.0, 0.0, 0.0, 0.0001, 0.0, 0.0, 0.0, 0.0, 0.0, 0.0, 0.0001, 0.0, 0.0, 0.0, 0.0, 0.0, 0.0, 0.0001, 0.0, 0.0, 0.0, 0.0, 0.0, 0.0, 0.0001]"
1520440531808813993,,461,,1520440531,785491477,"""map""","""base_link""",,,,0.00826441776007,-0.018590465188,0.0885474830866,,0.00237277175294,0.00589262168384,0.0614722322244,-0.998088665453,"[1e-06, 0.0, 0.0, 0.0, 0.0, 0.0, 0.0, 1e-06, 0.0, 0.0, 0.0, 0.0, 0.0, 0.0, 1e-06, 0.0, 0.0, 0.0, 0.0, 0.0, 0.0, 1e-06, 0.0, 0.0, 0.0, 0.0, 0.0, 0.0, 1e-06, 0.0, 0.0, 0.0, 0.0, 0.0, 0.0, 1e-06]",,,,-0.000324966960234,-0.00926996416425,0.0112602908582,,0.000277774815913,-0.00013157131616,0.0516712777317,"[0.0001, 0.0, 0.0, 0.0, 0.0, 0.0, 0.0, 0.0001, 0.0, 0.0, 0.0, 0.0, 0.0, 0.0, 0.0001, 0.0, 0.0, 0.0, 0.0, 0.0, 0.0, 0.0001, 0.0, 0.0, 0.0, 0.0, 0.0, 0.0, 0.0001, 0.0, 0.0, 0.0, 0.0, 0.0, 0.0, 0.0001]"
1520440531835402832,,462,,1520440531,816491477,"""map""","""base_link""",,,,0.00828362256289,-0.0185142718256,0.0884317308664,,0.0023682650036,0.00591565987564,0.0602651886298,-0.99816212741,"[1e-06, 0.0, 0.0, 0.0, 0.0, 0.0, 0.0, 1e-06, 0.0, 0.0, 0.0, 0.0, 0.0, 0.0, 1e-06, 0.0, 0.0, 0.0, 0.0, 0.0, 0.0, 1e-06, 0.0, 0.0, 0.0, 0.0, 0.0, 0.0, 1e-06, 0.0, 0.0, 0.0, 0.0, 0.0, 0.0, 1e-06]",,,,-0.000357822396618,-0.00947255380424,0.0109320500189,,0.00150238943752,-0.00113760004751,0.052860237658,"[0.0001, 0.0, 0.0, 0.0, 0.0, 0.0, 0.0, 0.0001, 0.0, 0.0, 0.0, 0.0, 0.0, 0.0, 0.0001, 0.0, 0.0, 0.0, 0.0, 0.0, 0.0, 0.0001, 0.0, 0.0, 0.0, 0.0, 0.0, 0.0, 0.0001, 0.0, 0.0, 0.0, 0.0, 0.0, 0.0, 0.0001]"
1520440531875057181,,463,,1520440531,856491477,"""map""","""base_link""",,,,0.00829805247486,-0.01844625175,0.088344655931,,0.00235249253336,0.00591875997391,0.0594588351241,-0.998210427698,"[1e-06, 0.0, 0.0, 0.0, 0.0, 0.0, 0.0, 1e-06, 0.0, 0.0, 0.0, 0.0, 0.0, 0.0, 1e-06, 0.0, 0.0, 0.0, 0.0, 0.0, 0.0, 1e-06, 0.0, 0.0, 0.0, 0.0, 0.0, 0.0, 1e-06, 0.0, 0.0, 0.0, 0.0, 0.0, 0.0, 1e-06]",,,,-0.000503051304798,-0.00969676168809,0.0107994787251,,0.000747848302126,-0.000713246699888,0.0526764802635,"[0.0001, 0.0, 0.0, 0.0, 0.0, 0.0, 0.0, 0.0001, 0.0, 0.0, 0.0, 0.0, 0.0, 0.0, 0.0001, 0.0, 0.0, 0.0, 0.0, 0.0, 0.0, 0.0001, 0.0, 0.0, 0.0, 0.0, 0.0, 0.0, 0.0001, 0.0, 0.0, 0.0, 0.0, 0.0, 0.0, 0.0001]"
1520440531901653034,,464,,1520440531,886379712,"""map""","""base_link""",,,,0.00830155983567,-0.0184308905154,0.0883058458567,,0.00233495549311,0.00592329273576,0.0582501899494,-0.998281782312,"[1e-06, 0.0, 0.0, 0.0, 0.0, 0.0, 0.0, 1e-06, 0.0, 0.0, 0.0, 0.0, 0.0, 0.0, 1e-06, 0.0, 0.0, 0.0, 0.0, 0.0, 0.0, 1e-06, 0.0, 0.0, 0.0, 0.0, 0.0, 0.0, 1e-06, 0.0, 0.0, 0.0, 0.0, 0.0, 0.0, 1e-06]",,,,-0.000592613271777,-0.009803681912,0.0103960907465,,0.00129467691295,-0.000859055842739,0.0521278232336,"[0.0001, 0.0, 0.0, 0.0, 0.0, 0.0, 0.0, 0.0001, 0.0, 0.0, 0.0, 0.0, 0.0, 0.0, 0.0001, 0.0, 0.0, 0.0, 0.0, 0.0, 0.0, 0.0001, 0.0, 0.0, 0.0, 0.0, 0.0, 0.0, 0.0001, 0.0, 0.0, 0.0, 0.0, 0.0, 0.0, 0.0001]"
1520440531943581067,,465,,1520440531,916379712,"""map""","""base_link""",,,,0.00829728506505,-0.0184533186257,0.0883165299892,,0.00233391877942,0.00593637356996,0.0569252194728,-0.998358110255,"[1e-06, 0.0, 0.0, 0.0, 0.0, 0.0, 0.0, 1e-06, 0.0, 0.0, 0.0, 0.0, 0.0, 0.0, 1e-06, 0.0, 0.0, 0.0, 0.0, 0.0, 0.0, 1e-06, 0.0, 0.0, 0.0, 0.0, 0.0, 0.0, 1e-06, 0.0, 0.0, 0.0, 0.0, 0.0, 0.0, 1e-06]",,,,-0.000726983783373,-0.0100749706332,0.0102915654303,,-0.000169849081431,0.000617790734395,0.0515000224113,"[0.0001, 0.0, 0.0, 0.0, 0.0, 0.0, 0.0, 0.0001, 0.0, 0.0, 0.0, 0.0, 0.0, 0.0, 0.0001, 0.0, 0.0, 0.0, 0.0, 0.0, 0.0, 0.0001, 0.0, 0.0, 0.0, 0.0, 0.0, 0.0, 0.0001, 0.0, 0.0, 0.0, 0.0, 0.0, 0.0, 0.0001]"
