rosbagTimestamp,header,seq,stamp,secs,nsecs,frame_id,airspeed,groundspeed,heading,throttle,altitude,climb
1520440529187504518,,128,,1520440529,187087023,'',0.0,0.0,108,0.0,123.678596497,-0.0
1520440529302956663,,129,,1520440529,302068946,'',0.0,0.0,108,0.0,122.66771698,-0.0
1520440529392211264,,130,,1520440529,391814101,'',0.0,0.0,107,0.0,122.162635803,-0.0
1520440529480275053,,131,,1520440529,479910801,'',0.0,0.0,107,0.0,122.415168762,-0.0
1520440529583727636,,132,,1520440529,582854843,'',0.0,0.0,106,0.0,122.162635803,-0.0
1520440529685197298,,133,,1520440529,684317048,'',0.0,0.0,106,0.0,122.66771698,-0.0
1520440529779668329,,134,,1520440529,778573908,'',0.0,0.0,105,0.0,122.078453064,-0.0
1520440529901203306,,135,,1520440529,901011187,'',0.0,0.0,105,0.0,122.66771698,-0.0
1520440529983788436,,136,,1520440529,982893929,'',0.0,0.0,104,0.0,122.583534241,-0.0
1520440530081574856,,137,,1520440530,81142398,'',0.0,0.0,104,0.0,122.920906067,-0.0
1520440530177978038,,138,,1520440530,177321535,'',0.0,0.0,103,0.0,122.415168762,-0.0
1520440530301707240,,139,,1520440530,300883018,'',0.0,0.0,103,0.0,122.415168762,-0.0
1520440530377273691,,140,,1520440530,376086284,'',0.0,0.0,102,0.0,122.499351501,-0.0
1520440530502851145,,141,,1520440530,501701808,'',0.0,0.0,102,0.0,123.257652283,-0.0
1520440530592456242,,142,,1520440530,591538382,'',0.0,0.0,102,0.0,122.415168762,-0.0
1520440530702493716,,143,,1520440530,700964164,'',0.0,0.0,101,0.0,122.583534241,-0.0
1520440530804319736,,144,,1520440530,803250883,'',0.0,0.0,101,0.0,121.994277954,-0.0
1520440530893763957,,145,,1520440530,892903097,'',0.0,0.0,100,0.0,122.920906067,-0.0
1520440530983341290,,146,,1520440530,982624925,'',0.0,0.0,100,0.0,122.837364197,-0.0
1520440531091294384,,147,,1520440531,90968438,'',0.0,0.0,99,0.0,122.162635803,-0.0
1520440531184833965,,148,,1520440531,183968142,'',0.0,0.0,99,0.0,122.920906067,-0.0
1520440531295412655,,149,,1520440531,294827665,'',0.0,0.0,99,0.0,122.499351501,-0.0
1520440531402311349,,150,,1520440531,400630079,'',0.0,0.0,98,0.0,122.162635803,-0.0
1520440531501698910,,151,,1520440531,500462393,'',0.0,0.0,98,0.0,123.342483521,-0.0
1520440531593815786,,152,,1520440531,592677767,'',0.0,0.0,97,0.0,122.66771698,-0.0
1520440531701424680,,153,,1520440531,700743119,'',0.0,0.0,97,0.0,123.005096436,-0.0
1520440531783138886,,154,,1520440531,782561383,'',0.0,0.0,97,0.0,122.583534241,-0.0
1520440531881720215,,155,,1520440531,881331109,'',0.0,0.0,96,0.0,122.66771698,-0.0
1520440531977639986,,156,,1520440531,976990783,'',0.0,0.0,96,0.0,123.089279175,-0.0
1520440532082303809,,157,,1520440532,81644908,'',0.0,0.0,95,0.0,122.246810913,-0.0
1520440532177256274,,158,,1520440532,176234843,'',0.0,0.0,95,0.0,122.078453064,-0.0
1520440532282436019,,159,,1520440532,282045673,'',0.0,0.0,95,0.0,123.089279175,-0.0
1520440532401555518,,160,,1520440532,400684676,'',0.0,0.0,94,0.0,122.078453064,-0.0
1520440532503175367,,161,,1520440532,501664030,'',0.0,0.0,94,0.0,122.499351501,-0.0
1520440532578263285,,162,,1520440532,576791324,'',0.0,0.0,94,0.0,122.415168762,-0.0
1520440532694818389,,163,,1520440532,694231016,'',0.0,0.0,93,0.0,122.752540588,-0.0
1520440532802402966,,164,,1520440532,800977518,'',0.0,0.0,93,0.0,122.66771698,-0.0
1520440532901104268,,165,,1520440532,900491588,'',0.0,0.0,93,0.0,122.331634521,-0.0
1520440532982039708,,166,,1520440532,981052788,'',0.0,0.0,92,0.0,122.246810913,-0.0
1520440533091406958,,167,,1520440533,91034841,'',0.0,0.0,92,0.0,122.331634521,-0.0
1520440533177606690,,168,,1520440533,176712227,'',0.0,0.0,92,0.0,122.583534241,-0.0
1520440533302469694,,169,,1520440533,300798497,'',0.0,0.0,91,0.0,122.499351501,-0.0
1520440533400532536,,170,,1520440533,400163312,'',0.0,0.0,91,0.0,121.404411316,-0.0
1520440533502578708,,171,,1520440533,500946131,'',0.0,0.0,91,0.0,122.837364197,-0.0
1520440533578250354,,172,,1520440533,577671099,'',0.0,0.0,90,0.0,122.162635803,-0.0
1520440533700433322,,173,,1520440533,700036324,'',0.0,0.0,90,0.0,122.583534241,-0.0
1520440533783594119,,174,,1520440533,782602919,'',0.0,0.0,90,0.0,122.583534241,-0.0
1520440533877351202,,175,,1520440533,876646388,'',0.0,0.0,89,0.0,122.246810913,-0.0
1520440533983231133,,176,,1520440533,982881294,'',0.0,0.0,89,0.0,122.66771698,-0.0
1520440534077652959,,177,,1520440534,77043649,'',0.0,0.0,89,0.0,122.331634521,-0.0
1520440534177295493,,178,,1520440534,176653912,'',0.0,0.0,88,0.0,123.005096436,-0.0
1520440534301498265,,179,,1520440534,300539511,'',0.0,0.0,88,0.0,122.499351501,-0.0
1520440534394878402,,180,,1520440534,393697676,'',0.0,0.0,88,0.0,122.920906067,-0.0
1520440534479507114,,181,,1520440534,478550926,'',0.0,0.0,87,0.0,122.752540588,-0.0
1520440534576202794,,182,,1520440534,575760061,'',0.0,0.0,87,0.0,123.005096436,-0.0
1520440534676965371,,183,,1520440534,676085972,'',0.0,0.0,87,0.0,122.66771698,-0.0
1520440534785192462,,184,,1520440534,784898960,'',0.0,0.0,87,0.0,121.826568604,-0.0
1520440534883804780,,185,,1520440534,883330409,'',0.0,0.0,86,0.0,123.089279175,-0.0
1520440535000994672,,186,,1520440535,341279,'',0.0,0.0,86,0.0,122.499351501,-0.0
1520440535094522109,,187,,1520440535,93287610,'',0.0,0.0,86,0.0,122.078453064,-0.0
1520440535202384153,,188,,1520440535,200815686,'',0.0,0.0,85,0.0,121.910102844,-0.0
1520440535301763776,,189,,1520440535,300725873,'',0.0,0.0,85,0.0,122.415168762,-0.0
1520440535401070334,,190,,1520440535,400612604,'',0.0,0.0,85,0.0,123.005096436,-0.0
1520440535498051422,,191,,1520440535,495499156,'',0.0,0.0,85,0.0,122.331634521,-0.0
1520440535576991025,,192,,1520440535,576513255,'',0.0,0.0,84,0.0,122.162635803,-0.0
1520440535677309287,,193,,1520440535,676581561,'',0.0,0.0,84,0.0,122.583534241,-0.0
1520440535793534807,,194,,1520440535,792898155,'',0.0,0.0,84,0.0,121.994277954,-0.0
1520440535877142910,,195,,1520440535,876641083,'',0.0,0.0,84,0.0,123.342483521,-0.0
1520440535983500445,,196,,1520440535,983116671,'',0.0,0.0,83,0.0,123.173461914,-0.0
1520440536092923824,,197,,1520440536,92235797,'',0.0,0.0,83,0.0,122.837364197,-0.0
1520440536181930612,,198,,1520440536,181513724,'',0.0,0.0,83,0.0,123.089279175,-0.0
1520440536293924633,,199,,1520440536,292875003,'',0.0,0.0,83,0.0,122.66771698,-0.0
1520440536382531988,,200,,1520440536,382141057,'',0.0,0.0,82,0.0,122.920906067,-0.0
1520440536482331899,,201,,1520440536,482064679,'',0.0,0.0,82,0.0,122.162635803,-0.0
1520440536582265082,,202,,1520440536,581965632,'',0.0,0.0,82,0.0,122.499351501,-0.0
1520440536693234549,,203,,1520440536,692611186,'',0.0,0.0,82,0.0,123.510215759,-0.0
1520440536782755380,,204,,1520440536,782342258,'',0.0,0.0,81,0.0,122.499351501,-0.0
1520440536882365115,,205,,1520440536,881873047,'',0.0,0.0,81,0.0,122.752540588,-0.0
1520440536992440720,,206,,1520440536,991668642,'',0.0,0.0,81,0.0,122.078453064,-0.0
1520440537104809114,,207,,1520440537,104107435,'',0.0,0.0,81,0.0,122.499351501,-0.0
1520440537201696691,,208,,1520440537,201092992,'',0.0,0.0,81,0.0,122.752540588,-0.0
1520440537302649600,,209,,1520440537,301885449,'',0.0,0.0,80,0.0,122.66771698,-0.0
1520440537383188566,,210,,1520440537,382678242,'',0.0,0.0,80,0.0,122.583534241,-0.0
1520440537492260583,,211,,1520440537,491757829,'',0.0,0.0,80,0.0,122.583534241,-0.0
1520440537593298795,,212,,1520440537,592488494,'',0.0,0.0,80,0.0,122.920906067,-0.0
1520440537701780246,,213,,1520440537,700880595,'',0.0,0.0,80,0.0,122.583534241,-0.0
1520440537800813474,,214,,1520440537,800301984,'',0.0,0.0,79,0.0,122.66771698,-0.0
1520440537882600666,,215,,1520440537,882017287,'',0.0,0.0,79,0.0,123.257652283,-0.0
1520440537981846876,,216,,1520440537,981479073,'',0.0,0.0,79,0.0,122.499351501,-0.0
1520440538092716442,,217,,1520440538,91851641,'',0.0,0.0,79,0.0,123.342483521,-0.0
1520440538182981920,,218,,1520440538,182137031,'',0.0,0.0,79,0.0,122.752540588,-0.0
1520440538292215681,,219,,1520440538,291669724,'',0.0,0.0,78,0.0,123.089279175,-0.0
1520440538383661617,,220,,1520440538,383099811,'',0.0,0.0,78,0.0,121.910102844,-0.0
1520440538483669831,,221,,1520440538,482848796,'',0.0,0.0,78,0.0,122.66771698,-0.0
1520440538593726375,,222,,1520440538,592860801,'',0.0,0.0,78,0.0,121.741752625,-0.0
1520440538693445490,,223,,1520440538,692906608,'',0.0,0.0,78,0.0,122.752540588,-0.0
1520440538782845598,,224,,1520440538,782322225,'',0.0,0.0,77,0.0,122.583534241,-0.0
1520440538883357274,,225,,1520440538,882524451,'',0.0,0.0,77,0.0,122.246810913,-0.0
1520440538994765659,,226,,1520440538,992715974,'',0.0,0.0,77,0.0,123.005096436,-0.0
1520440539103431632,,227,,1520440539,102903600,'',0.0,0.0,77,0.0,123.762786865,-0.0
1520440539182587824,,228,,1520440539,181836780,'',0.0,0.0,77,0.0,123.089279175,-0.0
1520440539301032742,,229,,1520440539,300438617,'',0.0,0.0,77,0.0,122.752540588,-0.0
1520440539394023039,,230,,1520440539,393556369,'',0.0,0.0,76,0.0,121.994277954,-0.0
1520440539517508536,,231,,1520440539,516987712,'',0.0,0.0,76,0.0,122.078453064,-0.0
1520440539582334724,,232,,1520440539,582004074,'',0.0,0.0,76,0.0,123.510215759,-0.0
1520440539695531156,,233,,1520440539,694057011,'',0.0,0.0,76,0.0,122.331634521,-0.0
1520440539782770678,,234,,1520440539,782300303,'',0.0,0.0,76,0.0,122.752540588,-0.0
1520440539892869385,,235,,1520440539,892085335,'',0.0,0.0,76,0.0,122.837364197,-0.0
1520440539993401607,,236,,1520440539,992089037,'',0.0,0.0,76,0.0,122.66771698,-0.0
1520440540085282612,,237,,1520440540,82928274,'',0.0,0.0,75,0.0,122.246810913,-0.0
1520440540201984658,,238,,1520440540,200753860,'',0.0,0.0,75,0.0,122.920906067,-0.0
1520440540319869847,,239,,1520440540,319577767,'',0.0,0.0,75,0.0,122.66771698,-0.0
1520440540382450982,,240,,1520440540,382119239,'',0.0,0.0,75,0.0,122.920906067,-0.0
1520440540484395442,,241,,1520440540,483235097,'',0.0,0.0,75,0.0,121.826568604,-0.0
1520440540608122257,,242,,1520440540,606267380,'',0.0,0.0,75,0.0,122.499351501,-0.0
1520440540702332391,,243,,1520440540,700884942,'',0.0,0.0,75,0.0,122.752540588,-0.0
1520440540802434172,,244,,1520440540,800610504,'',0.0,0.0,75,0.0,121.910102844,-0.0
1520440540892038823,,245,,1520440540,891376007,'',0.0,0.0,74,0.0,122.920906067,-0.0
1520440540993997892,,246,,1520440540,993034665,'',0.0,0.0,74,0.0,122.837364197,-0.0
1520440541092817017,,247,,1520440541,92164832,'',0.0,0.0,74,0.0,122.499351501,-0.0
1520440541182266727,,248,,1520440541,181792541,'',0.0,0.0,74,0.0,122.331634521,-0.0
1520440541281745279,,249,,1520440541,281540011,'',0.0,0.0,74,0.0,123.005096436,-0.0
1520440541401246979,,250,,1520440541,400468717,'',0.0,0.0,74,0.0,122.920906067,-0.0
1520440541492252987,,251,,1520440541,491662321,'',0.0,0.0,74,0.0,123.089279175,-0.0
1520440541592748207,,252,,1520440541,592214170,'',0.0,0.0,74,0.0,122.752540588,-0.0
1520440541696388198,,253,,1520440541,695774612,'',0.0,0.0,74,0.0,123.426673889,-0.0
1520440541806908109,,254,,1520440541,805964925,'',0.0,0.0,73,0.0,122.66771698,-0.0
1520440541901606275,,255,,1520440541,900640196,'',0.0,0.0,73,0.0,123.594406128,-0.0
1520440542001344265,,256,,1520440542,365129,'',0.0,0.0,73,0.0,123.005096436,-0.0
1520440542106254172,,257,,1520440542,105627193,'',0.0,0.0,73,0.0,123.257652283,-0.0
1520440542202076032,,258,,1520440542,201022210,'',0.0,0.0,73,0.0,122.583534241,-0.0
1520440542296464697,,259,,1520440542,296033935,'',0.0,0.0,73,0.0,121.994277954,-0.0
1520440542401125205,,260,,1520440542,400517697,'',0.0,0.0,73,0.0,122.246810913,-0.0
1520440542505066555,,261,,1520440542,504101053,'',0.0,0.0,73,0.0,122.415168762,-0.0
1520440542592942200,,262,,1520440542,592384634,'',0.0,0.0,73,0.0,122.837364197,-0.0
1520440542707707902,,263,,1520440542,706435579,'',0.0,0.0,73,0.0,122.246810913,-0.0
1520440542801727313,,264,,1520440542,800828078,'',0.0,0.0,73,0.40000000596,122.837364197,-0.0
1520440542893021106,,265,,1520440542,892341584,'',0.0,0.0,73,0.409999996424,122.162635803,-0.0
1520440542993432379,,266,,1520440542,992043335,'',0.0,0.0,73,0.430000007153,121.826568604,-0.0
1520440543100889888,,267,,1520440543,100492381,'',0.0,0.0,72,0.460000008345,122.837364197,-0.0
1520440543224338119,,268,,1520440543,221683765,'',0.0,0.0,72,0.479999989271,122.499351501,-0.0
1520440543306888957,,269,,1520440543,306005786,'',0.0,0.0,72,0.5,122.078453064,-0.0
1520440543392933963,,270,,1520440543,392186995,'',0.0,0.0,72,0.519999980927,122.162635803,-0.0
1520440543501298477,,271,,1520440543,500650778,'',0.0,0.0,72,0.540000021458,122.078453064,-0.0
1520440543610300178,,272,,1520440543,609488049,'',0.0,0.0,72,0.560000002384,122.162635803,-0.0
1520440543692963058,,273,,1520440543,692228881,'',0.0,0.0,72,0.569999992847,122.415168762,-0.0
1520440543801922590,,274,,1520440543,800902589,'',0.0,0.0,72,0.569999992847,122.920906067,-0.0
1520440543893317495,,275,,1520440543,892756071,'',0.0,0.0,72,0.569999992847,122.331634521,-0.0
1520440544000041590,,276,,1520440543,999444723,'',0.0,0.0,72,0.569999992847,121.404411316,-0.0
1520440544101585857,,277,,1520440544,100467073,'',0.0,0.0,72,0.569999992847,121.404411316,-0.0
1520440544208669842,,278,,1520440544,208035007,'',0.0,0.0,72,0.560000002384,120.815223694,-0.0
1520440544301799608,,279,,1520440544,301342316,'',0.0,0.0,74,0.509999990463,118.626457214,-0.0
1520440544403541745,,280,,1520440544,402832674,'',0.0,0.0,77,0.490000009537,118.541664124,-0.0
1520440544494168102,,281,,1520440544,492861608,'',0.0,0.0,80,0.479999989271,118.457511902,-0.0
1520440544621330461,,282,,1520440544,620045702,'',0.0,0.0,84,0.469999998808,121.657577515,-0.0
1520440544764763446,,283,,1520440544,762467156,'',0.0,0.0,87,0.460000008345,120.646888733,-0.0
1520440544814832073,,284,,1520440544,814459376,'',0.0,0.0,90,0.469999998808,120.899391174,-0.0
1520440544911678653,,285,,1520440544,910443326,'',0.0,0.0,92,0.469999998808,120.731697083,-0.0
1520440545003246999,,286,,1520440545,2329143,'',0.0,0.0,94,0.479999989271,123.005096436,-0.0
1520440545092436141,,287,,1520440545,91780931,'',0.0,0.0,96,0.5,121.657577515,-0.0
1520440545202649086,,288,,1520440545,201232488,'',0.0,0.0,97,0.540000021458,122.415168762,-0.0
1520440545301957875,,289,,1520440545,301242067,'',0.0,0.0,97,0.509999990463,124.268592834,-0.0
1520440545401176040,,290,,1520440545,400485455,'',0.0,0.0,97,0.5,122.837364197,-0.0
1520440545498311770,,291,,1520440545,497074183,'',0.0,0.0,97,0.490000009537,123.678596497,-0.0
1520440545610300415,,292,,1520440545,609772746,'',0.0,0.0,97,0.5,121.320884705,-0.0
1520440545701279893,,293,,1520440545,700341668,'',0.0,0.0,96,0.490000009537,121.994277954,-0.0
1520440545800857025,,294,,1520440545,800178424,'',0.0,0.0,95,0.5,121.994277954,-0.0
1520440545902136788,,295,,1520440545,901147155,'',0.0,0.0,95,0.5,120.983558655,-0.0
1520440546002844248,,296,,1520440546,1707872,'',0.0,0.0,94,0.5,119.552146912,-0.0
1520440546095029098,,297,,1520440546,94475036,'',0.0,0.0,94,0.5,120.731697083,-0.0
1520440546208160475,,298,,1520440546,207041129,'',0.0,0.0,93,0.5,122.162635803,-0.0
1520440546301663077,,299,,1520440546,300831728,'',0.0,0.0,92,0.5,120.815223694,-0.0
1520440546392851540,,300,,1520440546,392216695,'',0.0,0.0,92,0.509999990463,119.299674988,-0.0
1520440546493206769,,301,,1520440546,492659936,'',0.0,0.0,92,0.509999990463,119.299674988,-0.0
1520440546592299196,,302,,1520440546,591774566,'',0.0,0.0,91,0.519999980927,120.562721252,-0.0
1520440546698547748,,303,,1520440546,698068299,'',0.0,0.0,91,0.5,120.141265869,-0.0
1520440546805181012,,304,,1520440546,804531973,'',0.0,0.0,91,0.5,120.226066589,-0.0
1520440546900974416,,305,,1520440546,900318555,'',0.0,0.0,91,0.490000009537,119.804618835,-0.0
1520440546994183828,,306,,1520440546,993187686,'',0.0,0.0,91,0.52999997139,119.552146912,-0.0
1520440547092550427,,307,,1520440547,92081517,'',0.0,0.0,91,0.540000021458,120.731697083,-0.0
1520440547201437327,,308,,1520440547,200668168,'',0.0,0.0,91,0.519999980927,120.309585571,-0.0
1520440547301452882,,309,,1520440547,300709015,'',0.0,0.0,91,0.5,119.972938538,-0.0
1520440547406124509,,310,,1520440547,405497587,'',0.0,0.0,91,0.5,122.162635803,-0.0
1520440547503183661,,311,,1520440547,501645989,'',0.0,0.0,91,0.5,120.731697083,-0.0
1520440547603941236,,312,,1520440547,602511365,'',0.0,0.0,91,0.5,121.741752625,-0.0
1520440547697815275,,313,,1520440547,696920867,'',0.0,0.0,91,0.509999990463,121.826568604,-0.0
1520440547803042389,,314,,1520440547,801284028,'',0.0,0.0,91,0.509999990463,120.899391174,-0.0
1520440547910596328,,315,,1520440547,910008859,'',0.0,0.0,91,0.509999990463,121.573402405,-0.0
1520440548008448361,,316,,1520440548,7469347,'',0.0,0.0,91,0.519999980927,121.994277954,-0.0
1520440548101139818,,317,,1520440548,100571867,'',0.0,0.0,90,0.519999980927,122.078453064,-0.0
1520440548212864855,,318,,1520440548,212386383,'',0.0,0.0,90,0.519999980927,120.394393921,-0.0
1520440548332985702,,319,,1520440548,332458210,'',0.0,0.0,90,0.52999997139,123.089279175,-0.0
1520440548407646004,,320,,1520440548,406831737,'',0.0,0.0,90,0.519999980927,121.826568604,-0.0
1520440548502240736,,321,,1520440548,501873607,'',0.0,0.0,90,0.509999990463,120.226066589,-0.0
1520440548620509369,,322,,1520440548,620044866,'',0.0,0.0,90,0.519999980927,122.66771698,-0.0
1520440548736139873,,323,,1520440548,734575268,'',0.0,0.0,90,0.509999990463,121.741752625,-0.0
1520440548846157288,,324,,1520440548,844719317,'',0.0,0.0,90,0.519999980927,122.078453064,-0.0
1520440548924207411,,325,,1520440548,923269936,'',0.0,0.0,90,0.509999990463,121.741752625,-0.0
1520440549022941356,,326,,1520440549,22255974,'',0.0,0.0,90,0.52999997139,120.478561401,-0.0
1520440549115413703,,327,,1520440549,114627447,'',0.0,0.0,90,0.550000011921,121.151901245,-0.0
1520440549209366192,,328,,1520440549,208616545,'',0.0,0.0,89,0.540000021458,121.151901245,-0.0
1520440549333997848,,329,,1520440549,332954087,'',0.0,0.0,89,0.509999990463,122.331634521,-0.0
1520440549451000333,,330,,1520440549,450293887,'',0.0,0.0,89,0.509999990463,122.415168762,-0.0
1520440549512099664,,331,,1520440549,511790648,'',0.0,0.0,89,0.519999980927,121.488586426,-0.0
1520440549612043141,,332,,1520440549,611761494,'',0.0,0.0,89,0.519999980927,121.741752625,-0.0
1520440549745537282,,333,,1520440549,744248541,'',0.0,0.0,89,0.52999997139,123.173461914,-0.0
1520440549819126306,,334,,1520440549,818670195,'',0.0,0.0,89,0.519999980927,121.488586426,-0.0
1520440549948529323,,335,,1520440549,947423181,'',0.0,0.0,89,0.519999980927,121.488586426,-0.0
1520440550050756519,,336,,1520440550,50173796,'',0.0,0.0,89,0.52999997139,122.837364197,-0.0
1520440550112244233,,337,,1520440550,111955164,'',0.0,0.0,89,0.519999980927,120.899391174,-0.0
1520440550212841358,,338,,1520440550,212372715,'',0.0,0.0,89,0.519999980927,121.573402405,-0.0
1520440550322072958,,339,,1520440550,321876364,'',0.0,0.0,89,0.519999980927,121.741752625,-0.0
1520440550414626350,,340,,1520440550,413562877,'',0.0,0.0,89,0.519999980927,120.899391174,-0.0
1520440550522065226,,341,,1520440550,521609435,'',0.0,0.0,89,0.519999980927,120.815223694,-0.0
1520440550650378851,,342,,1520440550,649255409,'',0.0,0.0,89,0.52999997139,120.646888733,-0.0
1520440550724028796,,343,,1520440550,722831867,'',0.0,0.0,89,0.52999997139,120.309585571,-0.0
1520440550833309346,,344,,1520440550,832390472,'',0.0,0.0,89,0.519999980927,121.573402405,-0.0
1520440550950914292,,345,,1520440550,950239598,'',0.0,0.0,89,0.519999980927,121.573402405,-0.0
1520440551034793826,,346,,1520440551,33864995,'',0.0,0.0,89,0.519999980927,119.888778687,-0.0
1520440551126789719,,347,,1520440551,125255035,'',0.0,0.0,89,0.519999980927,122.920906067,-0.0
1520440551247207263,,348,,1520440551,245761684,'',0.0,0.0,89,0.519999980927,121.573402405,-0.0
1520440551323064640,,349,,1520440551,322355817,'',0.0,0.0,89,0.509999990463,122.078453064,-0.0
1520440551421772555,,350,,1520440551,421291527,'',0.0,0.0,89,0.509999990463,120.562721252,-0.0
1520440551548886058,,351,,1520440551,547391624,'',0.0,0.0,89,0.509999990463,121.067726135,-0.0
1520440551650635671,,352,,1520440551,650019525,'',0.0,0.0,90,0.5,121.741752625,-0.0
1520440551745809703,,353,,1520440551,744126820,'',0.0,0.0,90,0.509999990463,121.236709595,-0.0
1520440551822044510,,354,,1520440551,821531692,'',0.0,0.0,90,0.509999990463,122.415168762,-0.0
1520440551972954060,,355,,1520440551,971688428,'',0.0,0.0,90,0.509999990463,120.899391174,-0.0
1520440552016641854,,356,,1520440552,15875440,'',0.0,0.0,90,0.509999990463,120.394393921,-0.0
1520440552122389573,,357,,1520440552,121747390,'',0.0,0.0,90,0.5,121.404411316,-0.0
1520440552253213332,,358,,1520440552,251429330,'',0.0,0.0,90,0.5,121.994277954,-0.0
1520440552326982193,,359,,1520440552,325707128,'',0.0,0.0,90,0.509999990463,120.815223694,-0.0
1520440552453533261,,360,,1520440552,452741138,'',0.0,0.0,91,0.5,120.815223694,-0.0
1520440552545443093,,361,,1520440552,543690682,'',0.0,0.0,91,0.490000009537,120.646888733,-0.0
1520440552629140272,,362,,1520440552,628448418,'',0.0,0.0,91,0.509999990463,120.899391174,-0.0
1520440552748604556,,363,,1520440552,747547022,'',0.0,0.0,91,0.509999990463,121.910102844,-0.0
1520440552851854064,,364,,1520440552,851149484,'',0.0,0.0,91,0.5,121.320884705,-0.0
1520440552931775662,,365,,1520440552,931424297,'',0.0,0.0,91,0.490000009537,120.983558655,-0.0
1520440553060202398,,366,,1520440553,59224554,'',0.0,0.0,91,0.479999989271,119.804618835,-0.0
1520440553224163589,,367,,1520440553,222738175,'',0.0,0.0,91,0.540000021458,120.478561401,-0.0
1520440553320659874,,368,,1520440553,319225715,'',0.0,0.0,91,0.540000021458,120.309585571,-0.0
1520440553449187323,,369,,1520440553,447805584,'',0.0,0.0,91,0.52999997139,120.983558655,-0.0
1520440553537098463,,370,,1520440553,536371621,'',0.0,0.0,91,0.519999980927,119.552146912,-0.0
1520440553622989638,,371,,1520440553,622507172,'',0.0,0.0,91,0.509999990463,122.499351501,-0.0
1520440553723691867,,372,,1520440553,723076184,'',0.0,0.0,91,0.5,121.404411316,-0.0
1520440553826045323,,373,,1520440553,824648002,'',0.0,0.0,91,0.5,120.815223694,-0.0
1520440553926321448,,374,,1520440553,925844701,'',0.0,0.0,91,0.5,122.583534241,-0.0
1520440554022091993,,375,,1520440554,21612662,'',0.0,0.0,91,0.509999990463,121.741752625,-0.0
1520440554139214133,,376,,1520440554,138645830,'',0.0,0.0,90,0.519999980927,120.983558655,-0.0
1520440554245920290,,377,,1520440554,245405796,'',0.0,0.0,90,0.519999980927,121.320884705,-0.0
1520440554332711396,,378,,1520440554,332097549,'',0.0,0.0,90,0.519999980927,121.573402405,-0.0
1520440554444314116,,379,,1520440554,443595375,'',0.0,0.0,90,0.519999980927,121.826568604,-0.0
1520440554552508373,,380,,1520440554,551210330,'',0.0,0.0,90,0.52999997139,122.752540588,-0.0
1520440554636324425,,381,,1520440554,634942196,'',0.0,0.0,90,0.52999997139,121.573402405,-0.0
1520440554749619880,,382,,1520440554,748351582,'',0.0,0.0,89,0.519999980927,121.573402405,-0.0
1520440554853483082,,383,,1520440554,852939592,'',0.0,0.0,89,0.509999990463,121.826568604,-0.0
1520440554972276622,,384,,1520440554,971889358,'',0.0,0.0,89,0.519999980927,120.731697083,-0.0
1520440555043864282,,385,,1520440555,43343864,'',0.0,0.0,89,0.519999980927,121.404411316,-0.0
1520440555146721434,,386,,1520440555,144899270,'',0.0,0.0,89,0.519999980927,121.404411316,-0.0
1520440555242782605,,387,,1520440555,242458690,'',0.0,0.0,89,0.519999980927,120.057098389,-0.0
1520440555344334230,,388,,1520440555,342869373,'',0.0,0.0,89,0.519999980927,122.162635803,-0.0
1520440555546349443,,389,,1520440555,545079883,'',0.0,0.0,89,0.519999980927,121.488586426,-0.0
1520440555645860679,,390,,1520440555,644905132,'',0.0,0.0,89,0.519999980927,120.815223694,-0.0
1520440555751056381,,391,,1520440555,750210963,'',0.0,0.0,89,0.509999990463,121.910102844,-0.0
1520440555852247010,,392,,1520440555,851637691,'',0.0,0.0,89,0.519999980927,120.731697083,-0.0
1520440555952163611,,393,,1520440555,951770888,'',0.0,0.0,89,0.519999980927,121.657577515,-0.0
1520440556055707703,,394,,1520440556,54716901,'',0.0,0.0,89,0.52999997139,122.920906067,-0.0
1520440556169278648,,395,,1520440556,168459452,'',0.0,0.0,89,0.52999997139,120.983558655,-0.0
1520440556251827293,,396,,1520440556,251288008,'',0.0,0.0,89,0.519999980927,122.499351501,-0.0
1520440556378175856,,397,,1520440556,377222666,'',0.0,0.0,89,0.52999997139,121.910102844,-0.0
1520440556452511320,,398,,1520440556,451803029,'',0.0,0.0,89,0.519999980927,121.826568604,-0.0
1520440556549115899,,399,,1520440556,548897911,'',0.0,0.0,89,0.540000021458,121.236709595,-0.0
1520440556651984510,,400,,1520440556,651376174,'',0.0,0.0,90,0.540000021458,121.151901245,-0.0
1520440556780332699,,401,,1520440556,778549503,'',0.0,0.0,90,0.52999997139,121.994277954,-0.0
1520440556850308885,,402,,1520440556,849952586,'',0.0,0.0,90,0.52999997139,123.005096436,-0.0
1520440556976522763,,403,,1520440556,975887986,'',0.0,0.0,90,0.52999997139,121.404411316,-0.0
1520440557078845677,,404,,1520440557,76819280,'',0.0,0.0,90,0.52999997139,121.404411316,-0.0
1520440557177431287,,405,,1520440557,175963692,'',0.0,0.0,90,0.52999997139,121.741752625,-0.0
1520440557263043014,,406,,1520440557,261845302,'',0.0,0.0,90,0.540000021458,121.910102844,-0.0
1520440557378098918,,407,,1520440557,376722307,'',0.0,0.0,90,0.52999997139,121.910102844,-0.0
1520440557452059206,,408,,1520440557,451639883,'',0.0,0.0,90,0.52999997139,123.762786865,-0.0
1520440557563245271,,409,,1520440557,562299552,'',0.0,0.0,90,0.52999997139,121.994277954,-0.0
1520440557689974233,,410,,1520440557,688887456,'',0.0,0.0,90,0.52999997139,121.910102844,-0.0
1520440557763432214,,411,,1520440557,762753063,'',0.0,0.0,90,0.540000021458,121.404411316,-0.0
1520440557892003418,,412,,1520440557,891526641,'',0.0,0.0,90,0.540000021458,122.499351501,-0.0
1520440557979046735,,413,,1520440557,977100126,'',0.0,0.0,90,0.540000021458,122.837364197,-0.0
1520440558064914398,,414,,1520440558,64514437,'',0.0,0.0,90,0.52999997139,121.657577515,-0.0
1520440558172855888,,415,,1520440558,172496042,'',0.0,0.0,90,0.52999997139,122.837364197,-0.0
1520440558282867865,,416,,1520440558,282135354,'',0.0,0.0,90,0.540000021458,121.994277954,-0.0
1520440558370894126,,417,,1520440558,369932685,'',0.0,0.0,90,0.540000021458,122.920906067,-0.0
1520440558463666998,,418,,1520440558,462988667,'',0.0,0.0,90,0.540000021458,121.320884705,-0.0
1520440558572242482,,419,,1520440558,571768475,'',0.0,0.0,90,0.449999988079,121.657577515,-0.0
1520440558655532724,,420,,1520440558,654806658,'',0.0,0.0,90,0.469999998808,122.920906067,-0.0
1520440558766578228,,421,,1520440558,765534050,'',0.0,0.0,90,0.5,122.583534241,-0.0
1520440558863490148,,422,,1520440558,862872899,'',0.0,0.0,90,0.509999990463,122.837364197,-0.0
1520440558977748609,,423,,1520440558,976269162,'',0.0,0.0,90,0.519999980927,123.762786865,-0.0
1520440559077215741,,424,,1520440559,76395817,'',0.0,0.0,90,0.52999997139,121.320884705,-0.0
1520440559192122981,,425,,1520440559,191035531,'',0.0,0.0,90,0.52999997139,121.236709595,-0.0
1520440559270214743,,426,,1520440559,268722827,'',0.0,0.0,90,0.52999997139,122.078453064,-0.0
1520440559357692551,,427,,1520440559,356681589,'',0.0,0.0,90,0.540000021458,121.320884705,-0.0
1520440559465956664,,428,,1520440559,464809477,'',0.0,0.0,90,0.52999997139,121.488586426,-0.0
1520440559571238115,,429,,1520440559,570532871,'',0.0,0.0,90,0.519999980927,121.741752625,-0.0
1520440559680430514,,430,,1520440559,678937327,'',0.0,0.0,90,0.52999997139,122.162635803,-0.0
1520440559774030834,,431,,1520440559,773419728,'',0.0,0.0,90,0.52999997139,122.246810913,-0.0
1520440559877572433,,432,,1520440559,876487105,'',0.0,0.0,90,0.52999997139,121.236709595,-0.0
1520440559962487622,,433,,1520440559,962005686,'',0.0,0.0,90,0.52999997139,121.910102844,-0.0
1520440560062409073,,434,,1520440560,61996466,'',0.0,0.0,90,0.52999997139,121.488586426,-0.0
1520440560181396327,,435,,1520440560,180850790,'',0.0,0.0,90,0.52999997139,121.994277954,-0.0
1520440560270599731,,436,,1520440560,269467164,'',0.0,0.0,90,0.52999997139,121.236709595,-0.0
1520440560383725037,,437,,1520440560,382767813,'',0.0,0.0,90,0.52999997139,121.320884705,-0.0
1520440560462570255,,438,,1520440560,462081460,'',0.0,0.0,90,0.52999997139,121.236709595,-0.0
1520440560566842129,,439,,1520440560,565543285,'',0.0,0.0,90,0.519999980927,122.415168762,-0.0
1520440560677059739,,440,,1520440560,676212515,'',0.0,0.0,90,0.519999980927,120.731697083,-0.0
1520440560777029104,,441,,1520440560,776267098,'',0.0,0.0,90,0.519999980927,122.752540588,-0.0
1520440560898910492,,442,,1520440560,897521281,'',0.0,0.0,90,0.52999997139,122.499351501,-0.0
1520440560961946820,,443,,1520440560,961643030,'',0.0,0.0,90,0.52999997139,121.488586426,-0.0
1520440561095362163,,444,,1520440561,94662162,'',0.0,0.0,90,0.52999997139,121.994277954,-0.0
1520440561175231470,,445,,1520440561,173841855,'',0.0,0.0,90,0.52999997139,121.910102844,-0.0
1520440561293495369,,446,,1520440561,291270375,'',0.0,0.0,90,0.52999997139,122.331634521,-0.0
1520440561377382232,,447,,1520440561,376653652,'',0.0,0.0,90,0.52999997139,121.320884705,-0.0
1520440561477836535,,448,,1520440561,477382670,'',0.0,0.0,90,0.52999997139,122.415168762,-0.0
1520440561595409172,,449,,1520440561,593428917,'',0.0,0.0,89,0.52999997139,122.415168762,-0.0
1520440561680036154,,450,,1520440561,679193713,'',0.0,0.0,89,0.52999997139,121.573402405,-0.0
1520440561778041961,,451,,1520440561,776782705,'',0.0,0.0,89,0.52999997139,121.404411316,-0.0
1520440561877065671,,452,,1520440561,875987351,'',0.0,0.0,89,0.52999997139,122.583534241,-0.0
1520440561971776310,,453,,1520440561,971313658,'',0.0,0.0,89,0.52999997139,120.815223694,-0.0
1520440562084672242,,454,,1520440562,84168455,'',0.0,0.0,89,0.52999997139,121.236709595,-0.0
1520440562173304721,,455,,1520440562,172679453,'',0.0,0.0,89,0.52999997139,121.236709595,-0.0
1520440562267026491,,456,,1520440562,266458860,'',0.0,0.0,90,0.52999997139,121.826568604,-0.0
1520440562368679193,,457,,1520440562,368247818,'',0.0,0.0,90,0.52999997139,120.394393921,-0.0
1520440562471535653,,458,,1520440562,471194592,'',0.0,0.0,90,0.52999997139,120.562721252,-0.0
1520440562572924854,,459,,1520440562,572426268,'',0.0,0.0,90,0.52999997139,122.331634521,-0.0
1520440562673667777,,460,,1520440562,673259436,'',0.0,0.0,90,0.52999997139,121.404411316,-0.0
1520440562777370605,,461,,1520440562,776589288,'',0.0,0.0,90,0.52999997139,120.226066589,-0.0
1520440562878447251,,462,,1520440562,877369319,'',0.0,0.0,90,0.479999989271,120.141265869,-0.0
1520440563002021296,,463,,1520440563,598023,'',0.0,0.0,90,0.509999990463,121.826568604,-0.0
1520440563092876310,,464,,1520440563,92210821,'',0.0,0.0,90,0.519999980927,122.66771698,-0.0
1520440563194336595,,465,,1520440563,193335631,'',0.0,0.0,90,0.52999997139,121.236709595,-0.0
1520440563282453904,,466,,1520440563,281406558,'',0.0,0.0,90,0.52999997139,122.331634521,-0.0
1520440563391823640,,467,,1520440563,390575253,'',0.0,0.0,90,0.52999997139,120.478561401,-0.0
1520440563475982498,,468,,1520440563,474912613,'',0.0,0.0,90,0.52999997139,121.488586426,-0.0
1520440563572685252,,469,,1520440563,571999705,'',0.0,0.0,90,0.52999997139,121.657577515,-0.0
1520440563671954089,,470,,1520440563,671576446,'',0.0,0.0,90,0.52999997139,120.478561401,-0.0
1520440563776509093,,471,,1520440563,775472710,'',0.0,0.0,90,0.509999990463,121.320884705,-0.0
1520440563870960459,,472,,1520440563,870582041,'',0.0,0.0,90,0.509999990463,120.899391174,-0.0
1520440563972015924,,473,,1520440563,971399618,'',0.0,0.0,90,0.52999997139,121.151901245,-0.0
1520440564066929675,,474,,1520440564,66003816,'',0.0,0.0,90,0.52999997139,119.636299133,-0.0
1520440564173921937,,475,,1520440564,173269540,'',0.0,0.0,89,0.540000021458,121.994277954,-0.0
1520440564277229106,,476,,1520440564,276081139,'',0.0,0.0,89,0.52999997139,121.151901245,-0.0
1520440564372067321,,477,,1520440564,371646969,'',0.0,0.0,89,0.52999997139,120.899391174,-0.0
1520440564477575361,,478,,1520440564,476891302,'',0.0,0.0,89,0.519999980927,119.636299133,-0.0
1520440564589057123,,479,,1520440564,588068641,'',0.0,0.0,89,0.509999990463,122.499351501,-0.0
1520440564684405645,,480,,1520440564,683569951,'',0.0,0.0,89,0.519999980927,121.994277954,-0.0
1520440564817326193,,481,,1520440564,816297263,'',0.0,0.0,89,0.52999997139,121.826568604,-0.0
1520440564898349982,,482,,1520440564,897705528,'',0.0,0.0,89,0.519999980927,121.151901245,-0.0
1520440564973386565,,483,,1520440564,972785613,'',0.0,0.0,89,0.519999980927,121.994277954,-0.0
1520440565072326936,,484,,1520440565,71830230,'',0.0,0.0,89,0.509999990463,120.731697083,-0.0
1520440565194417529,,485,,1520440565,192973360,'',0.0,0.0,89,0.509999990463,121.151901245,-0.0
1520440565281138141,,486,,1520440565,280750801,'',0.0,0.0,89,0.509999990463,120.646888733,-0.0
1520440565376531600,,487,,1520440565,375864552,'',0.0,0.0,89,0.519999980927,121.741752625,-0.0
1520440565477086000,,488,,1520440565,476630268,'',0.0,0.0,89,0.519999980927,122.162635803,-0.0
1520440565574567901,,489,,1520440565,574301551,'',0.0,0.0,89,0.519999980927,121.236709595,-0.0
1520440565676830867,,490,,1520440565,675989747,'',0.0,0.0,89,0.519999980927,121.573402405,-0.0
1520440565773098527,,491,,1520440565,772453387,'',0.0,0.0,89,0.519999980927,121.488586426,-0.0
1520440565872608201,,492,,1520440565,872091730,'',0.0,0.0,89,0.52999997139,121.236709595,-0.0
1520440565978552254,,493,,1520440565,978151894,'',0.0,0.0,89,0.540000021458,121.320884705,-0.0
1520440566075315432,,494,,1520440566,73712096,'',0.0,0.0,89,0.540000021458,121.320884705,-0.0
1520440566191272817,,495,,1520440566,190510096,'',0.0,0.0,89,0.519999980927,120.983558655,-0.0
1520440566271490732,,496,,1520440566,270945746,'',0.0,0.0,89,0.519999980927,122.331634521,-0.0
1520440566374511997,,497,,1520440566,373969204,'',0.0,0.0,89,0.519999980927,121.320884705,-0.0
1520440566478265227,,498,,1520440566,477139859,'',0.0,0.0,89,0.519999980927,122.583534241,-0.0
1520440566579031612,,499,,1520440566,576912348,'',0.0,0.0,89,0.519999980927,120.983558655,-0.0
1520440566677554716,,500,,1520440566,675758688,'',0.0,0.0,89,0.509999990463,121.826568604,-0.0
1520440566772425061,,501,,1520440566,771908490,'',0.0,0.0,89,0.519999980927,121.236709595,-0.0
1520440566873970512,,502,,1520440566,872855963,'',0.0,0.0,89,0.519999980927,119.636299133,-0.0
1520440566977576167,,503,,1520440566,976248308,'',0.0,0.0,89,0.509999990463,119.721099854,-0.0
1520440567076421994,,504,,1520440567,75772882,'',0.0,0.0,89,0.519999980927,121.488586426,-0.0
1520440567172406494,,505,,1520440567,171981514,'',0.0,0.0,89,0.5,120.983558655,-0.0
1520440567280601837,,506,,1520440567,279550961,'',0.0,0.0,89,0.52999997139,121.826568604,-0.0
1520440567395425941,,507,,1520440567,395049078,'',0.0,0.0,89,0.519999980927,120.141265869,-0.0
1520440567494009977,,508,,1520440567,493242193,'',0.0,0.0,89,0.540000021458,122.499351501,-0.0
1520440567577458347,,509,,1520440567,576974683,'',0.0,0.0,89,0.540000021458,121.236709595,-0.0
1520440567682447771,,510,,1520440567,682014421,'',0.0,0.0,89,0.52999997139,121.573402405,-0.0
1520440567777085131,,511,,1520440567,776101434,'',0.0,0.0,89,0.52999997139,121.320884705,-0.0
1520440567894584299,,512,,1520440567,893409252,'',0.0,0.0,88,0.52999997139,122.162635803,-0.0
1520440567992289451,,513,,1520440567,990289703,'',0.0,0.0,88,0.519999980927,120.309585571,-0.0
1520440568077763238,,514,,1520440568,77161327,'',0.0,0.0,88,0.52999997139,120.731697083,-0.0
1520440568176604314,,515,,1520440568,176047872,'',0.0,0.0,88,0.519999980927,121.320884705,-0.0
1520440568295594160,,516,,1520440568,294181868,'',0.0,0.0,88,0.52999997139,120.731697083,-0.0
1520440568412377307,,517,,1520440568,410628457,'',0.0,0.0,89,0.52999997139,120.731697083,-0.0
1520440568486061063,,518,,1520440568,485258513,'',0.0,0.0,89,0.519999980927,119.636299133,-0.0
1520440568589570250,,519,,1520440568,588602153,'',0.0,0.0,89,0.519999980927,121.488586426,-0.0
1520440568675085218,,520,,1520440568,673572032,'',0.0,0.0,89,0.519999980927,119.972938538,-0.0
1520440568777727306,,521,,1520440568,777303603,'',0.0,0.0,89,0.52999997139,121.488586426,-0.0
1520440568873216853,,522,,1520440568,872396246,'',0.0,0.0,89,0.519999980927,121.826568604,-0.0
1520440569001557614,,523,,1520440569,973498,'',0.0,0.0,89,0.519999980927,120.646888733,-0.0
1520440569078444287,,524,,1520440569,77475927,'',0.0,0.0,89,0.519999980927,122.415168762,-0.0
1520440569199470787,,525,,1520440569,198019515,'',0.0,0.0,89,0.519999980927,120.731697083,-0.0
1520440569277656538,,526,,1520440569,276324244,'',0.0,0.0,89,0.519999980927,121.826568604,-0.0
1520440569400407698,,527,,1520440569,399976415,'',0.0,0.0,89,0.519999980927,121.404411316,-0.0
1520440569492521820,,528,,1520440569,491654213,'',0.0,0.0,89,0.519999980927,121.488586426,-0.0
1520440569582948315,,529,,1520440569,582031677,'',0.0,0.0,89,0.509999990463,122.752540588,-0.0
1520440569694415291,,530,,1520440569,691689074,'',0.0,0.0,89,0.5,121.404411316,-0.0
1520440569807962187,,531,,1520440569,806376199,'',0.0,0.0,89,0.509999990463,120.309585571,-0.0
1520440569882240310,,532,,1520440569,882068409,'',0.0,0.0,89,0.519999980927,121.657577515,-0.0
1520440570004079747,,533,,1520440570,3373400,'',0.0,0.0,89,0.52999997139,122.078453064,-0.0
1520440570101261076,,534,,1520440570,100427253,'',0.0,0.0,89,0.52999997139,122.246810913,-0.0
1520440570192122192,,535,,1520440570,191448391,'',0.0,0.0,89,0.52999997139,123.089279175,-0.0
1520440570294995453,,536,,1520440570,292736255,'',0.0,0.0,89,0.519999980927,122.246810913,-0.0
1520440570397290612,,537,,1520440570,396627703,'',0.0,0.0,89,0.519999980927,123.005096436,-0.0
1520440570475654337,,538,,1520440570,475321631,'',0.0,0.0,89,0.519999980927,121.488586426,-0.0
1520440570578615410,,539,,1520440570,577701885,'',0.0,0.0,90,0.52999997139,122.66771698,-0.0
1520440570705466201,,540,,1520440570,704667209,'',0.0,0.0,90,0.52999997139,120.899391174,-0.0
1520440570778197496,,541,,1520440570,777644111,'',0.0,0.0,90,0.519999980927,120.394393921,-0.0
1520440570877479956,,542,,1520440570,876644032,'',0.0,0.0,90,0.52999997139,121.657577515,-0.0
1520440570974348784,,543,,1520440570,973006725,'',0.0,0.0,90,0.519999980927,120.983558655,-0.0
1520440571081706426,,544,,1520440571,81388323,'',0.0,0.0,90,0.519999980927,120.646888733,-0.0
1520440571185715966,,545,,1520440571,184787306,'',0.0,0.0,90,0.509999990463,121.826568604,-0.0
1520440571276076194,,546,,1520440571,275614624,'',0.0,0.0,90,0.509999990463,121.404411316,-0.0
1520440571378683910,,547,,1520440571,377714415,'',0.0,0.0,90,0.519999980927,123.510215759,-0.0
1520440571478033727,,548,,1520440571,477177558,'',0.0,0.0,91,0.52999997139,121.067726135,-0.0
1520440571592879675,,549,,1520440571,591999382,'',0.0,0.0,91,0.540000021458,122.837364197,-0.0
1520440571676595863,,550,,1520440571,675593800,'',0.0,0.0,91,0.52999997139,122.331634521,-0.0
1520440571776646947,,551,,1520440571,776141070,'',0.0,0.0,91,0.519999980927,120.983558655,-0.0
1520440571872349839,,552,,1520440571,872055544,'',0.0,0.0,91,0.519999980927,123.173461914,-0.0
1520440571983252106,,553,,1520440571,982669701,'',0.0,0.0,92,0.509999990463,121.994277954,-0.0
1520440572101811208,,554,,1520440572,100799366,'',0.0,0.0,92,0.509999990463,122.415168762,-0.0
1520440572206078420,,555,,1520440572,204661295,'',0.0,0.0,92,0.519999980927,122.66771698,-0.0
1520440572284921439,,556,,1520440572,284200363,'',0.0,0.0,92,0.52999997139,122.331634521,-0.0
1520440572372399039,,557,,1520440572,371956047,'',0.0,0.0,91,0.519999980927,121.488586426,-0.0
1520440572482902651,,558,,1520440572,481576776,'',0.0,0.0,91,0.519999980927,122.162635803,-0.0
1520440572576578992,,559,,1520440572,575785750,'',0.0,0.0,91,0.519999980927,121.573402405,-0.0
1520440572694120016,,560,,1520440572,692830692,'',0.0,0.0,90,0.519999980927,122.078453064,-0.0
1520440572787849155,,561,,1520440572,786953404,'',0.0,0.0,90,0.519999980927,122.415168762,-0.0
1520440572911519587,,562,,1520440572,911016517,'',0.0,0.0,90,0.519999980927,121.404411316,-0.0
1520440572977303915,,563,,1520440572,976684991,'',0.0,0.0,90,0.509999990463,120.309585571,-0.0
1520440573077707304,,564,,1520440573,77050144,'',0.0,0.0,89,0.519999980927,121.488586426,-0.0
1520440573178772758,,565,,1520440573,177860815,'',0.0,0.0,89,0.519999980927,122.415168762,-0.0
1520440573276488847,,566,,1520440573,275680378,'',0.0,0.0,89,0.519999980927,121.657577515,-0.0
1520440573394814003,,567,,1520440573,393805423,'',0.0,0.0,89,0.509999990463,121.573402405,-0.0
1520440573481224308,,568,,1520440573,480350976,'',0.0,0.0,89,0.509999990463,121.488586426,-0.0
1520440573581314204,,569,,1520440573,580405936,'',0.0,0.0,89,0.519999980927,120.899391174,-0.0
1520440573677212308,,570,,1520440573,676524691,'',0.0,0.0,89,0.52999997139,121.741752625,-0.0
1520440573783189825,,571,,1520440573,782528756,'',0.0,0.0,89,0.540000021458,121.067726135,-0.0
1520440573876659297,,572,,1520440573,876147528,'',0.0,0.0,88,0.52999997139,123.005096436,-0.0
1520440573975148991,,573,,1520440573,974691762,'',0.0,0.0,88,0.52999997139,120.815223694,-0.0
1520440574076146532,,574,,1520440574,75609096,'',0.0,0.0,88,0.519999980927,121.320884705,-0.0
1520440574174905958,,575,,1520440574,174544113,'',0.0,0.0,88,0.519999980927,120.899391174,-0.0
1520440574277312525,,576,,1520440574,276520927,'',0.0,0.0,88,0.519999980927,122.499351501,-0.0
1520440574377744861,,577,,1520440574,376876754,'',0.0,0.0,88,0.519999980927,122.499351501,-0.0
1520440574482117686,,578,,1520440574,481633832,'',0.0,0.0,88,0.519999980927,122.078453064,-0.0
1520440574591184267,,579,,1520440574,590472337,'',0.0,0.0,88,0.519999980927,121.657577515,-0.0
1520440574721754818,,580,,1520440574,720936296,'',0.0,0.0,88,0.519999980927,121.826568604,-0.0
1520440574778771625,,581,,1520440574,777995454,'',0.0,0.0,87,0.509999990463,121.994277954,-0.0
1520440574882806321,,582,,1520440574,882435695,'',0.0,0.0,87,0.509999990463,121.573402405,-0.0
1520440575017380097,,583,,1520440575,16101858,'',0.0,0.0,87,0.519999980927,122.331634521,-0.0
1520440575101702324,,584,,1520440575,100987797,'',0.0,0.0,87,0.509999990463,122.078453064,-0.0
1520440575195071140,,585,,1520440575,194310886,'',0.0,0.0,87,0.519999980927,121.067726135,-0.0
1520440575283440863,,586,,1520440575,282743503,'',0.0,0.0,87,0.52999997139,120.646888733,-0.0
1520440575387599068,,587,,1520440575,387216741,'',0.0,0.0,87,0.52999997139,120.731697083,-0.0
1520440575483895012,,588,,1520440575,482840135,'',0.0,0.0,87,0.540000021458,120.562721252,-0.0
1520440575583569399,,589,,1520440575,582522796,'',0.0,0.0,87,0.52999997139,121.404411316,-0.0
1520440575692424060,,590,,1520440575,691958302,'',0.0,0.0,88,0.519999980927,123.089279175,-0.0
1520440575805122036,,591,,1520440575,803881480,'',0.0,0.0,88,0.519999980927,122.752540588,-0.0
1520440575906869603,,592,,1520440575,906256843,'',0.0,0.0,88,0.52999997139,120.478561401,-0.0
1520440575994294969,,593,,1520440575,992636418,'',0.0,0.0,88,0.519999980927,122.162635803,-0.0
1520440576082732518,,594,,1520440576,82280065,'',0.0,0.0,88,0.52999997139,120.731697083,-0.0
1520440576192753142,,595,,1520440576,192206705,'',0.0,0.0,88,0.52999997139,122.66771698,-0.0
1520440576294013331,,596,,1520440576,293470571,'',0.0,0.0,88,0.52999997139,122.331634521,-0.0
1520440576397585233,,597,,1520440576,396903051,'',0.0,0.0,89,0.52999997139,122.752540588,-0.0
1520440576511519927,,598,,1520440576,510484820,'',0.0,0.0,89,0.52999997139,120.731697083,-0.0
1520440576592907057,,599,,1520440576,591903806,'',0.0,0.0,89,0.519999980927,122.078453064,-0.0
1520440576692901885,,600,,1520440576,692198244,'',0.0,0.0,89,0.519999980927,122.246810913,-0.0
1520440576792777249,,601,,1520440576,791641075,'',0.0,0.0,89,0.509999990463,121.404411316,-0.0
1520440576893469328,,602,,1520440576,892784668,'',0.0,0.0,89,0.519999980927,121.320884705,-0.0
1520440577001257787,,603,,1520440577,829829,'',0.0,0.0,89,0.52999997139,121.741752625,-0.0
1520440577108006451,,604,,1520440577,107166123,'',0.0,0.0,89,0.52999997139,121.910102844,-0.0
1520440577202399901,,605,,1520440577,201523067,'',0.0,0.0,89,0.52999997139,120.309585571,-0.0
1520440577294787929,,606,,1520440577,293209828,'',0.0,0.0,89,0.52999997139,121.320884705,-0.0
1520440577387679129,,607,,1520440577,387204288,'',0.0,0.0,89,0.519999980927,121.826568604,-0.0
1520440577493633573,,608,,1520440577,492784333,'',0.0,0.0,89,0.52999997139,120.309585571,-0.0
1520440577607300491,,609,,1520440577,606214367,'',0.0,0.0,89,0.519999980927,120.731697083,-0.0
1520440577710028661,,610,,1520440577,709171265,'',0.0,0.0,89,0.519999980927,121.910102844,-0.0
1520440577801953026,,611,,1520440577,801051280,'',0.0,0.0,90,0.519999980927,121.994277954,-0.0
1520440577901851631,,612,,1520440577,900999407,'',0.0,0.0,90,0.509999990463,121.488586426,-0.0
1520440577994252726,,613,,1520440577,993488151,'',0.0,0.0,90,0.519999980927,121.320884705,-0.0
1520440578086475443,,614,,1520440578,85680449,'',0.0,0.0,90,0.519999980927,120.815223694,-0.0
1520440578198936379,,615,,1520440578,198471832,'',0.0,0.0,91,0.519999980927,121.151901245,-0.0
1520440578311247680,,616,,1520440578,310670456,'',0.0,0.0,91,0.519999980927,120.394393921,-0.0
1520440578393021160,,617,,1520440578,392370601,'',0.0,0.0,91,0.519999980927,121.910102844,-0.0
1520440578494416446,,618,,1520440578,493092459,'',0.0,0.0,91,0.519999980927,121.826568604,-0.0
1520440578593381930,,619,,1520440578,592915599,'',0.0,0.0,91,0.519999980927,120.983558655,-0.0
1520440578691833763,,620,,1520440578,691391338,'',0.0,0.0,91,0.519999980927,122.499351501,-0.0
1520440578800701355,,621,,1520440578,799695239,'',0.0,0.0,91,0.519999980927,121.320884705,-0.0
1520440578893103032,,622,,1520440578,892507120,'',0.0,0.0,91,0.519999980927,120.983558655,-0.0
1520440578992410941,,623,,1520440578,991652801,'',0.0,0.0,91,0.449999988079,121.657577515,-0.0
1520440579095121103,,624,,1520440579,93707776,'',0.0,0.0,91,0.460000008345,121.067726135,-0.0
1520440579193946864,,625,,1520440579,192764282,'',0.0,0.0,91,0.479999989271,120.815223694,-0.0
1520440579303288314,,626,,1520440579,302551653,'',0.0,0.0,91,0.509999990463,121.488586426,-0.0
1520440579429840708,,627,,1520440579,429138232,'',0.0,0.0,91,0.540000021458,121.320884705,-0.0
1520440579493292064,,628,,1520440579,492370209,'',0.0,0.0,91,0.52999997139,121.067726135,-0.0
1520440579592267895,,629,,1520440579,591561058,'',0.0,0.0,92,0.519999980927,120.983558655,-0.0
1520440579693244065,,630,,1520440579,691852766,'',0.0,0.0,92,0.449999988079,118.626457214,-0.0
1520440579793251990,,631,,1520440579,792565648,'',0.0,0.0,92,0.460000008345,119.972938538,-0.0
1520440579902511178,,632,,1520440579,902147738,'',0.0,0.0,93,0.479999989271,118.962417603,-0.0
1520440580031273063,,633,,1520440580,30346545,'',0.0,0.0,94,0.479999989271,120.815223694,-0.0
1520440580103653896,,634,,1520440580,102756183,'',0.0,0.0,94,0.460000008345,119.804618835,-0.0
1520440580223882370,,635,,1520440580,223174361,'',0.0,0.0,94,0.430000007153,118.37336731,-0.0
1520440580294087198,,636,,1520440580,292871016,'',0.0,0.0,95,0.430000007153,119.046569824,-0.0
1520440580402910861,,637,,1520440580,402468624,'',0.0,0.0,96,0.430000007153,119.383834839,-0.0
1520440580491410666,,638,,1520440580,490830012,'',0.0,0.0,97,0.419999986887,119.636299133,-0.0
1520440580592022183,,639,,1520440580,591726128,'',0.0,0.0,98,0.409999996424,119.299674988,-0.0
1520440580721644078,,640,,1520440580,719899027,'',0.0,0.0,100,0.409999996424,118.878265381,-0.0
1520440580793556860,,641,,1520440580,792684610,'',0.0,0.0,101,0.409999996424,120.309585571,-0.0
1520440580918601076,,642,,1520440580,918199176,'',0.0,0.0,102,0.409999996424,120.309585571,-0.0
1520440580994286335,,643,,1520440580,993012400,'',0.0,0.0,102,0.40000000596,120.478561401,-0.0
1520440581092629489,,644,,1520440581,91833134,'',0.0,0.0,103,0.40000000596,119.804618835,-0.0
1520440581220553552,,645,,1520440581,219161869,'',0.0,0.0,102,0.40000000596,119.636299133,-0.0
1520440581303377347,,646,,1520440581,302395672,'',0.0,0.0,103,0.40000000596,120.731697083,-0.0
1520440581402594080,,647,,1520440581,401568479,'',0.0,0.0,103,0.389999985695,118.878265381,-0.0
1520440581521179974,,648,,1520440581,519733927,'',0.0,0.0,103,0.389999985695,118.794113159,-0.0
1520440581629016048,,649,,1520440581,627522665,'',0.0,0.0,103,0.389999985695,119.131370544,-0.0
1520440581721430386,,650,,1520440581,719993856,'',0.0,0.0,103,0.389999985695,119.636299133,-0.0
1520440581792711435,,651,,1520440581,792090098,'',0.0,0.0,103,0.389999985695,120.226066589,-0.0
1520440581892201461,,652,,1520440581,891687496,'',0.0,0.0,103,0.389999985695,120.478561401,-0.0
1520440581993319999,,653,,1520440581,992371571,'',0.0,0.0,103,0.389999985695,120.394393921,-0.0
1520440582092267584,,654,,1520440582,91752815,'',0.0,0.0,103,0.40000000596,119.131370544,-0.0
1520440582220251725,,655,,1520440582,219723552,'',0.0,0.0,103,0.419999986887,117.867851257,-0.0
1520440582293850001,,656,,1520440582,292757673,'',0.0,0.0,103,0.419999986887,119.216163635,-0.0
1520440582395904424,,657,,1520440582,395357112,'',0.0,0.0,104,0.0799999982119,121.151901245,-0.0
1520440582507467646,,658,,1520440582,506964882,'',0.0,0.0,104,0.0799999982119,121.488586426,-0.0
1520440582625061039,,659,,1520440582,624284565,'',0.0,0.0,104,0.0799999982119,121.741752625,-0.0
1520440582721543660,,660,,1520440582,719889692,'',0.0,0.0,104,0.0799999982119,120.394393921,-0.0
1520440582820919010,,661,,1520440582,819447850,'',0.0,0.0,104,0.0799999982119,121.826568604,-0.0
1520440582896207815,,662,,1520440582,893965933,'',0.0,0.0,104,0.0799999982119,121.826568604,-0.0
1520440583020284946,,663,,1520440583,19422181,'',0.0,0.0,104,0.0799999982119,121.826568604,-0.0
1520440583120916149,,664,,1520440583,119859906,'',0.0,0.0,104,0.0799999982119,121.741752625,-0.0
1520440583195894230,,665,,1520440583,194131549,'',0.0,0.0,104,0.0799999982119,122.078453064,-0.0
1520440583326129075,,666,,1520440583,325600334,'',0.0,0.0,104,0.0799999982119,120.899391174,-0.0
1520440583435695892,,667,,1520440583,435077684,'',0.0,0.0,104,0.0799999982119,122.078453064,-0.0
1520440583511969010,,668,,1520440583,511356956,'',0.0,0.0,104,0.0799999982119,121.488586426,-0.0
1520440583640241054,,669,,1520440583,639523738,'',0.0,0.0,104,0.0799999982119,122.583534241,-0.0
1520440583720860931,,670,,1520440583,719713437,'',0.0,0.0,104,0.0799999982119,121.404411316,-0.0
1520440583829346427,,671,,1520440583,828571596,'',0.0,0.0,104,0.0799999982119,121.657577515,-0.0
1520440583918602776,,672,,1520440583,917926051,'',0.0,0.0,104,0.0799999982119,121.826568604,-0.0
1520440583992780602,,673,,1520440583,992357774,'',0.0,0.0,104,0.0799999982119,121.573402405,-0.0
1520440584113250990,,674,,1520440584,112413391,'',0.0,0.0,104,0.0799999982119,122.246810913,-0.0
1520440584219613032,,675,,1520440584,219178954,'',0.0,0.0,104,0.0799999982119,121.826568604,-0.0
1520440584303769131,,676,,1520440584,303134392,'',0.0,0.0,104,0.0799999982119,121.826568604,-0.0
1520440584420802521,,677,,1520440584,420151666,'',0.0,0.0,104,0.0799999982119,122.162635803,-0.0
1520440584521512672,,678,,1520440584,519701121,'',0.0,0.0,104,0.0799999982119,120.815223694,-0.0
1520440584612710164,,679,,1520440584,612036678,'',0.0,0.0,104,0.0799999982119,121.404411316,-0.0
1520440584721365870,,680,,1520440584,719800504,'',0.0,0.0,104,0.0799999982119,121.910102844,-0.0
1520440584835215763,,681,,1520440584,834131237,'',0.0,0.0,104,0.0799999982119,121.236709595,-0.0
1520440584913309310,,682,,1520440584,912646537,'',0.0,0.0,104,0.0,121.320884705,-0.0
1520440585016243836,,683,,1520440585,14710942,'',0.0,0.0,104,0.0,122.162635803,-0.0
1520440585092816820,,684,,1520440585,92298200,'',0.0,0.0,104,0.0,121.910102844,-0.0
1520440585222854718,,685,,1520440585,221246563,'',0.0,0.0,104,0.0,121.573402405,-0.0
1520440585323718581,,686,,1520440585,322981986,'',0.0,0.0,104,0.0,122.078453064,-0.0
1520440585392248351,,687,,1520440585,391816105,'',0.0,0.0,104,0.0,121.826568604,-0.0
1520440585492705429,,688,,1520440585,492114886,'',0.0,0.0,104,0.0,121.826568604,-0.0
1520440585595586417,,689,,1520440585,594995688,'',0.0,0.0,104,0.0,122.078453064,-0.0
1520440585724851464,,690,,1520440585,723514426,'',0.0,0.0,104,0.0,122.246810913,-0.0
1520440585829458089,,691,,1520440585,828272998,'',0.0,0.0,104,0.0,122.162635803,-0.0
1520440585895487028,,692,,1520440585,894262254,'',0.0,0.0,104,0.0,121.320884705,-0.0
1520440585993650795,,693,,1520440585,992685502,'',0.0,0.0,104,0.0,121.404411316,-0.0
1520440586101984215,,694,,1520440586,101546298,'',0.0,0.0,104,0.0,121.488586426,-0.0
1520440586192725719,,695,,1520440586,192229118,'',0.0,0.0,104,0.0,121.741752625,-0.0
1520440586293634668,,696,,1520440586,292837911,'',0.0,0.0,104,0.0,122.583534241,-0.0
1520440586403695461,,697,,1520440586,403239632,'',0.0,0.0,104,0.0,123.089279175,-0.0
1520440586527871962,,698,,1520440586,527115151,'',0.0,0.0,104,0.0,122.66771698,-0.0
1520440586618849043,,699,,1520440586,618148635,'',0.0,0.0,104,0.0,121.910102844,-0.0
1520440586721209106,,700,,1520440586,720207116,'',0.0,0.0,104,0.0,122.078453064,-0.0
1520440586829577655,,701,,1520440586,828572145,'',0.0,0.0,104,0.0,122.415168762,-0.0
1520440586889688636,,702,,1520440586,889395390,'',0.0,0.0,104,0.0,122.837364197,-0.0
1520440587016979156,,703,,1520440587,16145894,'',0.0,0.0,104,0.0,122.415168762,-0.0
1520440587093661306,,704,,1520440587,92862194,'',0.0,0.0,104,0.0,122.920906067,-0.0
1520440587192693470,,705,,1520440587,192057287,'',0.0,0.0,104,0.0,123.089279175,-0.0
1520440587310144281,,706,,1520440587,309068055,'',0.0,0.0,104,0.0,122.246810913,-0.0
