rosbagTimestamp,transforms,-,header,seq,stamp,secs,nsecs,frame_id,child_frame_id,transform,translation,x,y,z,rotation,x,y,z,w
1520440529102324577,,,0,,1520440529,100198668,"""world""","""Drone_A""",,,0.00832468830049,-0.0182451251894,0.0881192833185,,0.00239950558171,-0.00497198523954,-0.0117560131475,-0.999915659428
1520440529102344309,,,0,,1520440529,100230952,"""world""","""Drone_A""",,,0.00833137705922,-0.0182454027236,0.0881407856941,,0.00251922616735,-0.00499599520117,-0.011801620014,-0.999914765358
1520440529102353462,,,0,,1520440529,100250828,"""world""","""Drone_A""",,,0.0083267968148,-0.0182547196746,0.088115811348,,0.00248863059096,-0.00506488373503,-0.0117475120351,-0.999915122986
1520440529102362273,,,0,,1520440529,100272636,"""world""","""Drone_A""",,,0.00832937564701,-0.0182509794831,0.0881084501743,,0.00243093725294,-0.00509584276006,-0.0117937140167,-0.999914526939
1520440529149820444,,,0,,1520440529,149623813,"""world""","""Drone_A""",,,0.00832064915448,-0.0182437747717,0.0881039500237,,0.00239139096811,-0.00501404097304,-0.0117346430197,-0.999915719032
1520440529149829656,,,0,,1520440529,149642656,"""world""","""Drone_A""",,,0.00832461379468,-0.0182476062328,0.0881054550409,,0.00243767001666,-0.00499098096043,-0.0117279309779,-0.999915838242
1520440529149905230,,,0,,1520440529,149665246,"""world""","""Drone_A""",,,0.00832598283887,-0.0182569660246,0.0881126895547,,0.00250154361129,-0.00503500271589,-0.011748299934,-0.99991518259
1520440529150173764,,,0,,1520440529,149677037,"""world""","""Drone_A""",,,0.00833421386778,-0.0182615034282,0.088118314743,,0.00251279585063,-0.00503228465095,-0.0117770899087,-0.999914824963
1520440529189870871,,,0,,1520440529,189725597,"""world""","""Drone_A""",,,0.00833034701645,-0.0182517077774,0.0881203487515,,0.00236251135357,-0.00505674351007,-0.0117725552991,-0.99991518259
1520440529189877877,,,0,,1520440529,189741560,"""world""","""Drone_A""",,,0.00832660403103,-0.0182561185211,0.0881132185459,,0.00246840785258,-0.00500082876533,-0.0117734503001,-0.999915242195
1520440529189881011,,,0,,1520440529,189764382,"""world""","""Drone_A""",,,0.0083248578012,-0.0182551108301,0.0881122797728,,0.0024001239799,-0.00499597424641,-0.0117531791329,-0.999915599823
1520440529220098622,,,0,,1520440529,219883060,"""world""","""Drone_A""",,,0.00832443125546,-0.0182483792305,0.0881014615297,,0.00238943216391,-0.00505180563778,-0.0117647042498,-0.99991518259
1520440529240896657,,,0,,1520440529,240696992,"""world""","""Drone_A""",,,0.00833161268383,-0.0182381644845,0.0881100147963,,0.00242213369347,-0.00499261729419,-0.0117265535519,-0.999915838242
1520440529240913085,,,0,,1520440529,240711612,"""world""","""Drone_A""",,,0.00833788048476,-0.0182337872684,0.0881496816874,,0.00250223558396,-0.00494845490903,-0.0117647917941,-0.999915480614
1520440529240918297,,,0,,1520440529,240731587,"""world""","""Drone_A""",,,0.00833583250642,-0.0182613693178,0.0881253257394,,0.00238953507505,-0.00500735640526,-0.0117376679555,-0.999915719032
1520440529240923654,,,0,,1520440529,240741252,"""world""","""Drone_A""",,,0.00833007600158,-0.0182629749179,0.0881046876311,,0.00243016099557,-0.0050156628713,-0.0117759807035,-0.99991518259
1520440529240931882,,,0,,1520440529,240750218,"""world""","""Drone_A""",,,0.0083306543529,-0.0182638280094,0.088098526001,,0.00246709003113,-0.005067685619,-0.0117802564055,-0.999914765358
1520440529240936277,,,0,,1520440529,240760016,"""world""","""Drone_A""",,,0.00832709297538,-0.0182518437505,0.0881049260497,,0.00240084133111,-0.00505920592695,-0.0117765516043,-0.999915063381
1520440529240975249,,,0,,1520440529,240771004,"""world""","""Drone_A""",,,0.00833148043603,-0.0182502586395,0.0881142914295,,0.00241387146525,-0.00500735221431,-0.0117452573031,-0.999915659428
1520440529301157027,,,0,,1520440529,300661491,"""world""","""Drone_A""",,,0.0083216521889,-0.0182374101132,0.088114194572,,0.00242806482129,-0.00498781120405,-0.0117222750559,-0.999915897846
1520440529301199056,,,0,,1520440529,300701880,"""world""","""Drone_A""",,,0.00832977704704,-0.018245043233,0.0881038308144,,0.00234034145251,-0.00498293573037,-0.0117209786549,-0.999916195869
1520440529301221695,,,0,,1520440529,300732509,"""world""","""Drone_A""",,,0.00833350792527,-0.0182597450912,0.0881083831191,,0.00245170341805,-0.00505675328895,-0.0117723951116,-0.999914944172
1520440529302269353,,,0,,1520440529,300944461,"""world""","""Drone_A""",,,0.00833328533918,-0.0182556174695,0.0881157517433,,0.00249865232036,-0.00502389948815,-0.0117535693571,-0.999915242195
1520440529302291034,,,0,,1520440529,301036235,"""world""","""Drone_A""",,,0.00833634287119,-0.0182647779584,0.0881160646677,,0.00246462156065,-0.00499683152884,-0.0117321684957,-0.999915659428
1520440529302313479,,,0,,1520440529,301321930,"""world""","""Drone_A""",,,0.00832593813539,-0.0182655453682,0.0881150811911,,0.00234050583094,-0.00496841408312,-0.0117584932595,-0.999915838242
1520440529302333318,,,0,,1520440529,301396395,"""world""","""Drone_A""",,,0.00832952558994,-0.0182641670108,0.0881080105901,,0.00244784145616,-0.00500530330464,-0.0117364814505,-0.999915659428
1520440529380040543,,,0,,1520440529,379675798,"""world""","""Drone_A""",,,0.00833458360285,-0.0182291641831,0.0881279110909,,0.00242600264028,-0.00497634150088,-0.0117794554681,-0.999915361404
1520440529380075666,,,0,,1520440529,379687839,"""world""","""Drone_A""",,,0.00832969136536,-0.0182530581951,0.0881220176816,,0.00242988392711,-0.00497113913298,-0.0117525579408,-0.999915719032
1520440529380079717,,,0,,1520440529,379711007,"""world""","""Drone_A""",,,0.0083295237273,-0.0182560440153,0.0881196409464,,0.00244205119088,-0.00497430097312,-0.0117356125265,-0.999915778637
1520440529420986058,,,0,,1520440529,420450702,"""world""","""Drone_A""",,,0.00833957921714,-0.0182542856783,0.0881096348166,,0.00244808802381,-0.00505230110139,-0.0117362998426,-0.999915361404
1520440529421018838,,,0,,1520440529,420494771,"""world""","""Drone_A""",,,0.00833540782332,-0.0182549133897,0.0881180241704,,0.00245501007885,-0.00501918792725,-0.0117511916906,-0.999915421009
1520440529421031695,,,0,,1520440529,420522781,"""world""","""Drone_A""",,,0.00832692626864,-0.0182553622872,0.0881229862571,,0.00243275961839,-0.00497552892193,-0.0117409862578,-0.999915838242
1520440529421044610,,,0,,1520440529,420695736,"""world""","""Drone_A""",,,0.00832092855126,-0.0182550475001,0.0881221815944,,0.00241209752858,-0.00498180883005,-0.0117536168545,-0.999915659428
1520440529421858525,,,0,,1520440529,420812711,"""world""","""Drone_A""",,,0.00832210574299,-0.0182437933981,0.0881074965,,0.00240142107941,-0.00503181433305,-0.0117577891797,-0.999915361404
1520440529421885384,,,0,,1520440529,421015985,"""world""","""Drone_A""",,,0.00833511073142,-0.0182432867587,0.0880992040038,,0.00244463887066,-0.00507000694051,-0.0117623573169,-0.999915063381
1520440529421943360,,,0,,1520440529,421156838,"""world""","""Drone_A""",,,0.0083305388689,-0.018253274262,0.0881148949265,,0.00241976627149,-0.00504960631952,-0.011757758446,-0.9999153018
1520440529421964952,,,0,,1520440529,421325040,"""world""","""Drone_A""",,,0.00832678005099,-0.0182604137808,0.0881219804287,,0.00243934732862,-0.00501506496221,-0.0117483669892,-0.999915540218
1520440529480823061,,,0,,1520440529,480376009,"""world""","""Drone_A""",,,0.00832367874682,-0.0182651095092,0.0881221964955,,0.00244090426713,-0.00498439837247,-0.0117594236508,-0.999915480614
1520440529480838396,,,0,,1520440529,480446318,"""world""","""Drone_A""",,,0.00832593534142,-0.0182557664812,0.0881511345506,,0.00221710256301,-0.00471575791016,-0.0117048583925,-0.999917984009
1520440529510947154,,,0,,1520440529,510620783,"""world""","""Drone_A""",,,0.0083338432014,-0.0182441584766,0.0881043076515,,0.00243906513788,-0.00506185134873,-0.0117555977777,-0.99991518259
1520440529510970491,,,0,,1520440529,510643046,"""world""","""Drone_A""",,,0.00833072699606,-0.0182350538671,0.0881094262004,,0.00244191917591,-0.00509052956477,-0.0117536149919,-0.999915003777
1520440529510981162,,,0,,1520440529,510659507,"""world""","""Drone_A""",,,0.0083277579397,-0.0182443931699,0.0881180912256,,0.00244429544546,-0.0050149615854,-0.0117466067895,-0.999915480614
1520440529510988784,,,0,,1520440529,510674873,"""world""","""Drone_A""",,,0.00832711253315,-0.0182453505695,0.0881349816918,,0.00256177876145,-0.00492913136259,-0.0117754414678,-0.9999153018
1520440529511048379,,,0,,1520440529,510693539,"""world""","""Drone_A""",,,0.00832764804363,-0.0182654038072,0.0881087630987,,0.00247021741234,-0.00497060874477,-0.011747890152,-0.999915599823
1520440529511059315,,,0,,1520440529,510798485,"""world""","""Drone_A""",,,0.00833289977163,-0.0182628426701,0.088104583323,,0.00248374929652,-0.00498703168705,-0.0117503581569,-0.999915480614
1520440529511144629,,,0,,1520440529,510835337,"""world""","""Drone_A""",,,0.00834023673087,-0.018253237009,0.0880964919925,,0.00244538346305,-0.0050293202512,-0.0117556415498,-0.9999153018
1520440529511156514,,,0,,1520440529,510865129,"""world""","""Drone_A""",,,0.00833288393915,-0.0182568989694,0.0881138294935,,0.00245653744787,-0.00500704767182,-0.0117521258071,-0.999915480614
1520440529511164558,,,0,,1520440529,510881637,"""world""","""Drone_A""",,,0.00832974910736,-0.01825401932,0.0881218463182,,0.00247452477925,-0.00499042822048,-0.0117621421814,-0.999915361404
1520440529511171391,,,0,,1520440529,510895549,"""world""","""Drone_A""",,,0.00832119584084,-0.0182571746409,0.0881203338504,,0.00244650733657,-0.00498884450644,-0.0117477215827,-0.999915599823
1520440529511178735,,,0,,1520440529,510909549,"""world""","""Drone_A""",,,0.00832444429398,-0.0182555504143,0.0881160274148,,0.00243141851388,-0.00497920066118,-0.0117348190397,-0.999915897846
1520440529511193060,,,0,,1520440529,510926850,"""world""","""Drone_A""",,,0.00832878798246,-0.0182475224137,0.0881070643663,,0.00247388402931,-0.0050408616662,-0.0117394225672,-0.999915421009
1520440529511367898,,,0,,1520440529,511094385,"""world""","""Drone_A""",,,0.00833360943943,-0.0182521156967,0.08811211586,,0.0024833411444,-0.00506804510951,-0.0117797618732,-0.999914765358
1520440529520764014,,,0,,1520440529,520484227,"""world""","""Drone_A""",,,0.00832733977586,-0.0182504467666,0.0881076082587,,0.0024472028017,-0.00507485540584,-0.0117780715227,-0.999914824963
1520440529520789692,,,0,,1520440529,520544199,"""world""","""Drone_A""",,,0.00832736864686,-0.0182609036565,0.0881238356233,,0.00246151443571,-0.00497674103826,-0.0117488335818,-0.999915599823
1520440529530338705,,,0,,1520440529,529995626,"""world""","""Drone_A""",,,0.00832298584282,-0.0182687602937,0.088123947382,,0.00238748663105,-0.00501163117588,-0.0117496233433,-0.999915599823
1520440529540666378,,,0,,1520440529,540366644,"""world""","""Drone_A""",,,0.0083308974281,-0.0182755030692,0.0881205946207,,0.00253844843246,-0.00494636502117,-0.0117511507124,-0.999915480614
1520440529550297281,,,0,,1520440529,549659319,"""world""","""Drone_A""",,,0.00832592044026,-0.0182645656168,0.088110588491,,0.00244320835918,-0.00507142860442,-0.0117635745555,-0.999915063381
1520440529560679227,,,0,,1520440529,560177286,"""world""","""Drone_A""",,,0.00833193492144,-0.0182514563203,0.0881073698401,,0.00245563662611,-0.00505802687258,-0.0117526724935,-0.99991518259
1520440529571325527,,,0,,1520440529,570820256,"""world""","""Drone_A""",,,0.00832275114954,-0.0182436816394,0.0881168991327,,0.00240105716512,-0.00506149837747,-0.0117904637009,-0.999914884567
1520440529571363328,,,0,,1520440529,570967660,"""world""","""Drone_A""",,,0.00832347199321,-0.0182368569076,0.0881170704961,,0.00236862828024,-0.00503594940528,-0.011755714193,-0.999915421009
1520440529581164233,,,0,,1520440529,580708063,"""world""","""Drone_A""",,,0.00832219980657,-0.0182512868196,0.0881237387657,,0.00242759590037,-0.00495506590232,-0.0117377294227,-0.999915897846
1520440529590471488,,,0,,1520440529,590154049,"""world""","""Drone_A""",,,0.00833189021796,-0.0182624924928,0.0881168097258,,0.00243580807,-0.00499886274338,-0.0117693943903,-0.9999153018
1520440529601004089,,,0,,1520440529,600659300,"""world""","""Drone_A""",,,0.00832599774003,-0.0182655528188,0.0881048217416,,0.00236180331558,-0.00502589670941,-0.0117767984048,-0.9999153018
1520440529610501471,,,0,,1520440529,610110297,"""world""","""Drone_A""",,,0.00832576211542,-0.0182687491179,0.0881060659885,,0.00244756881148,-0.00507593574002,-0.0118159428239,-0.99991440773
1520440529610566035,,,0,,1520440529,610157519,"""world""","""Drone_A""",,,0.00832769833505,-0.0182417854667,0.0881275832653,,0.00249853450805,-0.00504259951413,-0.0117881912738,-0.999914705753
1520440529620921975,,,0,,1520440529,620557567,"""world""","""Drone_A""",,,0.00832930020988,-0.018243830651,0.0881189703941,,0.00244290102273,-0.00497659342363,-0.0117329945788,-0.999915778637
1520440529630267049,,,0,,1520440529,630032059,"""world""","""Drone_A""",,,0.00833127833903,-0.0182442255318,0.0881220325828,,0.00246557360515,-0.00494951987639,-0.0116943502799,-0.999916315079
1520440529641021840,,,0,,1520440529,640570078,"""world""","""Drone_A""",,,0.00832883361727,-0.0182480681688,0.0881289094687,,0.00243946583942,-0.00498797046021,-0.011722208932,-0.999915897846
1520440529650563475,,,0,,1520440529,650116694,"""world""","""Drone_A""",,,0.00832394510508,-0.0182569511235,0.0881065651774,,0.00250836857595,-0.00501153431833,-0.0117490747944,-0.9999153018
1520440529661205845,,,0,,1520440529,660672518,"""world""","""Drone_A""",,,0.00832923687994,-0.0182618591934,0.0881002619863,,0.00246330536902,-0.00506395520642,-0.0117990737781,-0.999914586544
1520440529661250241,,,0,,1520440529,660729043,"""world""","""Drone_A""",,,0.00833455659449,-0.0182624161243,0.0881064236164,,0.00246792426333,-0.00503576174378,-0.0117740724236,-0.999914944172
1520440529670673682,,,0,,1520440529,670152079,"""world""","""Drone_A""",,,0.00832446850836,-0.0182522144169,0.088112398982,,0.00237770355307,-0.00505877006799,-0.0117371762171,-0.999915540218
1520440529681061683,,,0,,1520440529,680617355,"""world""","""Drone_A""",,,0.00832886435091,-0.0182643830776,0.0881187468767,,0.00245071738027,-0.0049763196148,-0.0117435902357,-0.999915719032
1520440529690297480,,,0,,1520440529,690023169,"""world""","""Drone_A""",,,0.00832175929099,-0.0182674154639,0.0881267040968,,0.00248688645661,-0.00499227829278,-0.0117692360654,-0.99991518259
1520440529700714857,,,0,,1520440529,700448299,"""world""","""Drone_A""",,,0.00831978954375,-0.0182542651892,0.0881160795689,,0.00240800227039,-0.00504601048306,-0.0118025261909,-0.999914705753
1520440529820420828,,,0,,1520440529,820183181,"""world""","""Drone_A""",,,0.00833549909294,-0.0182330459356,0.0881061330438,,0.0024312720634,-0.00505466805771,-0.0117846801877,-0.999914824963
1520440529820436110,,,0,,1520440529,820197254,"""world""","""Drone_A""",,,0.00832242611796,-0.0182496085763,0.0881181284785,,0.00249874847941,-0.00500762881711,-0.0117422873154,-0.999915480614
1520440529820443001,,,0,,1520440529,820205762,"""world""","""Drone_A""",,,0.00832065753639,-0.0182585306466,0.0881176963449,,0.00245595537126,-0.00496771838516,-0.0117376185954,-0.999915838242
1520440529820452828,,,0,,1520440529,820286252,"""world""","""Drone_A""",,,0.00831718184054,-0.0182674564421,0.0881145894527,,0.00240829680115,-0.00495838653296,-0.0117293242365,-0.99991607666
1520440529820458555,,,0,,1520440529,820311769,"""world""","""Drone_A""",,,0.00832570716739,-0.0182756949216,0.0881141722202,,0.00246214866638,-0.00501244701445,-0.011759115383,-0.9999153018
1520440529820463308,,,0,,1520440529,820334513,"""world""","""Drone_A""",,,0.00832616724074,-0.0182592254132,0.088105276227,,0.00245040701702,-0.00508040143177,-0.0117852343246,-0.999914646149
1520440529820468987,,,0,,1520440529,820346729,"""world""","""Drone_A""",,,0.0083344951272,-0.0182431079447,0.0881091505289,,0.00240114633925,-0.00509025575593,-0.0117763681337,-0.999914824963
1520440529820501321,,,0,,1520440529,820358460,"""world""","""Drone_A""",,,0.00832943338901,-0.0182370319963,0.0881224349141,,0.00235553598031,-0.0049791475758,-0.0117677226663,-0.999915599823
1520440529899999779,,,0,,1520440529,899727638,"""world""","""Drone_A""",,,0.00832170713693,-0.0182612445205,0.0881116017699,,0.00240056356415,-0.00504718674347,-0.0117487311363,-0.999915361404
1520440529940572165,,,0,,1520440529,940183264,"""world""","""Drone_A""",,,0.00832065101713,-0.0182515233755,0.0881041958928,,0.00236855517142,-0.00512371305376,-0.0117750354111,-0.999914765358
1520440529940600090,,,0,,1520440529,940279129,"""world""","""Drone_A""",,,0.00832473672926,-0.0182539504021,0.0881003960967,,0.00244531780481,-0.00508405081928,-0.0117817744613,-0.999914705753
1520440529940614103,,,0,,1520440529,940308018,"""world""","""Drone_A""",,,0.00832243822515,-0.0182589963078,0.0881131738424,,0.00244411686435,-0.0050263418816,-0.011762120761,-0.999915242195
1520440529940636067,,,0,,1520440529,940324865,"""world""","""Drone_A""",,,0.00831837113947,-0.0182624906301,0.0881191343069,,0.00249711610377,-0.00493607902899,-0.0117399794981,-0.999915778637
1520440529940705082,,,0,,1520440529,940343051,"""world""","""Drone_A""",,,0.00832421891391,-0.0182577036321,0.0881215631962,,0.00241515389644,-0.00499697076157,-0.0117706656456,-0.9999153018
1520440529940716400,,,0,,1520440529,940367542,"""world""","""Drone_A""",,,0.00832867063582,-0.0182539485395,0.0881150811911,,0.00242824619636,-0.00503204669803,-0.011776201427,-0.999915063381
1520440529940771082,,,0,,1520440529,940456751,"""world""","""Drone_A""",,,0.00833242759109,-0.018242476508,0.088111281395,,0.0024021519348,-0.00508943200111,-0.0117497770116,-0.99991518259
1520440529940809654,,,0,,1520440529,940510000,"""world""","""Drone_A""",,,0.00832494627684,-0.0182447433472,0.0881186947227,,0.00241863401607,-0.00506486883387,-0.0117548890412,-0.99991518259
1520440529940818661,,,0,,1520440529,940532019,"""world""","""Drone_A""",,,0.00832160003483,-0.0182530749589,0.0881219059229,,0.00247600628063,-0.00500182947144,-0.0117216696963,-0.999915719032
1520440529950270788,,,0,,1520440529,950018334,"""world""","""Drone_A""",,,0.0083234636113,-0.0182570293546,0.0881163552403,,0.00243519619107,-0.00497108418494,-0.0117386775091,-0.999915838242
1520440529950289482,,,0,,1520440529,950047036,"""world""","""Drone_A""",,,0.00831858813763,-0.0182629451156,0.0881150662899,,0.00240131630562,-0.00499653350562,-0.0117656765506,-0.999915421009
1520440529950297315,,,0,,1520440529,950069717,"""world""","""Drone_A""",,,0.00833077542484,-0.0182671248913,0.0881052091718,,0.00241237459704,-0.00502241495997,-0.011771175079,-0.9999153018
1520440529950304568,,,0,,1520440529,950087923,"""world""","""Drone_A""",,,0.00833111535758,-0.0182642191648,0.0881039723754,,0.00243518431671,-0.00507480185479,-0.011788696982,-0.999914646149
1520440529950311262,,,0,,1520440529,950125716,"""world""","""Drone_A""",,,0.00832182355225,-0.0182473659515,0.0881219059229,,0.0024673496373,-0.00502511439845,-0.0117575554177,-0.999915242195
1520440529950318983,,,0,,1520440529,950144478,"""world""","""Drone_A""",,,0.00831864960492,-0.0182551071048,0.0881316438317,,0.00249913777225,-0.00502698868513,-0.0117854867131,-0.999914824963
1520440529950324675,,,0,,1520440529,950162401,"""world""","""Drone_A""",,,0.00832856725901,-0.0182482171804,0.0881271064281,,0.00249309861101,-0.00493998685852,-0.0117034912109,-0.999916255474
1520440529950331120,,,0,,1520440529,950188378,"""world""","""Drone_A""",,,0.00832849089056,-0.0182460770011,0.0881175100803,,0.00247413665056,-0.0049943216145,-0.0117415376008,-0.999915540218
1520440529950336653,,,0,,1520440529,950224864,"""world""","""Drone_A""",,,0.00832974631339,-0.01824744232,0.0881101414561,,0.00238095945679,-0.00502820452675,-0.0117427408695,-0.999915659428
1520440529960827998,,,0,,1520440529,960613407,"""world""","""Drone_A""",,,0.00832191575319,-0.0182514637709,0.0880999416113,,0.00233579915948,-0.0050787399523,-0.0117750037462,-0.999915063381
1520440529960844465,,,0,,1520440529,960631963,"""world""","""Drone_A""",,,0.0083203939721,-0.0182611513883,0.0881099551916,,0.00242409599014,-0.00504202768207,-0.0117786610499,-0.999915063381
1520440529980904877,,,0,,1520440529,980415041,"""world""","""Drone_A""",,,0.00832864362746,-0.0182660929859,0.088117800653,,0.00252379174344,-0.00496465153992,-0.0117404982448,-0.999915599823
1520440529980940363,,,0,,1520440529,980460146,"""world""","""Drone_A""",,,0.00832487177104,-0.0182496160269,0.0881119593978,,0.00241951923817,-0.00500616338104,-0.0117340972647,-0.999915719032
1520440529990537971,,,0,,1520440529,990018243,"""world""","""Drone_A""",,,0.00833346042782,-0.0182407051325,0.0881299972534,,0.00242228503339,-0.00499914726242,-0.0117823332548,-0.99991518259
1520440530000965206,,,0,,1520440530,550601,"""world""","""Drone_A""",,,0.00833168346435,-0.018250759691,0.088113501668,,0.00247505423613,-0.00503163971007,-0.0117521183565,-0.999915242195
1520440530010428163,,,0,,1520440530,10085098,"""world""","""Drone_A""",,,0.00831647124141,-0.0182566810399,0.0881197750568,,0.0024555188138,-0.00508829113096,-0.0117911035195,-0.999914526939
1520440530020696881,,,0,,1520440530,20426062,"""world""","""Drone_A""",,,0.0083247050643,-0.0182453282177,0.0881134271622,,0.00243510771543,-0.00501230638474,-0.0117455404252,-0.999915480614
1520440530020716201,,,0,,1520440530,20467154,"""world""","""Drone_A""",,,0.00831847451627,-0.0182449929416,0.0881234332919,,0.00238918582909,-0.00499137025326,-0.011766590178,-0.999915480614
1520440530030084430,,,0,,1520440530,29768619,"""world""","""Drone_A""",,,0.00832567643374,-0.0182554684579,0.0881120711565,,0.00250897067599,-0.00495649129152,-0.0117230275646,-0.999915838242
1520440530040422137,,,0,,1520440530,40086739,"""world""","""Drone_A""",,,0.00832894071937,-0.0182655174285,0.0880966037512,,0.00250526797026,-0.00498788617551,-0.0117512866855,-0.999915361404
1520440530050910545,,,0,,1520440530,50522309,"""world""","""Drone_A""",,,0.00832509063184,-0.018259447068,0.0881034806371,,0.0023879124783,-0.00509489374235,-0.0117601407692,-0.999915122986
1520440530060595664,,,0,,1520440530,60081810,"""world""","""Drone_A""",,,0.00832826830447,-0.0182649455965,0.0881050080061,,0.00243374635465,-0.00509281037375,-0.0117864767089,-0.999914586544
1520440530070950935,,,0,,1520440530,70534028,"""world""","""Drone_A""",,,0.00832960754633,-0.0182589367032,0.0881167054176,,0.00248443568125,-0.00500135682523,-0.0117680262774,-0.99991518259
1520440530070976860,,,0,,1520440530,70565319,"""world""","""Drone_A""",,,0.00833348277956,-0.0182395223528,0.0881442427635,,0.00256499135867,-0.00497679505497,-0.0117929363623,-0.999914884567
1520440530080147531,,,0,,1520440530,79873135,"""world""","""Drone_A""",,,0.00832430273294,-0.0182450376451,0.088116645813,,0.00239075091667,-0.00501065468416,-0.0117601556703,-0.999915421009
1520440530090512739,,,0,,1520440530,90248937,"""world""","""Drone_A""",,,0.00832044053823,-0.0182504896075,0.088108509779,,0.0024524400942,-0.00502775795758,-0.0117617258802,-0.99991518259
1520440530099650731,,,0,,1520440530,99482725,"""world""","""Drone_A""",,,0.00832584500313,-0.018255148083,0.0881094709039,,0.00239648902789,-0.00507344538346,-0.0117630055174,-0.999915122986
1520440530110448995,,,0,,1520440530,109971859,"""world""","""Drone_A""",,,0.00832012202591,-0.0182589106262,0.0881035327911,,0.00248384778388,-0.00504733994603,-0.0117881838232,-0.999914765358
1520440530121013194,,,0,,1520440530,120528030,"""world""","""Drone_A""",,,0.00832740403712,-0.0182585343719,0.0881076157093,,0.0024690402206,-0.0050258836709,-0.0117428824306,-0.999915361404
1520440530121054494,,,0,,1520440530,120638036,"""world""","""Drone_A""",,,0.00832304917276,-0.0182636380196,0.0881186053157,,0.00248184148222,-0.00498376367614,-0.0117358667776,-0.999915659428
1520440530130502834,,,0,,1520440530,130143913,"""world""","""Drone_A""",,,0.00832423940301,-0.0182629395276,0.0881225988269,,0.00244920607656,-0.00497756991535,-0.0117792105302,-0.9999153018
1520440530140931173,,,0,,1520440530,140558567,"""world""","""Drone_A""",,,0.00832873955369,-0.0182370375842,0.0881303101778,,0.00248961546458,-0.00500519247726,-0.0118129951879,-0.999914646149
1520440530150355081,,,0,,1520440530,150013549,"""world""","""Drone_A""",,,0.00832504406571,-0.0182546824217,0.0881196781993,,0.002447062172,-0.00509696872905,-0.011793977581,-0.999914467335
1520440530160789103,,,0,,1520440530,160452077,"""world""","""Drone_A""",,,0.00832881033421,-0.0182526707649,0.0881209969521,,0.00244869990274,-0.0050575225614,-0.0117699196562,-0.999915003777
1520440530160819618,,,0,,1520440530,160532476,"""world""","""Drone_A""",,,0.00832959916443,-0.0182471834123,0.0881149619818,,0.00247520860285,-0.00498635647818,-0.0117202792317,-0.999915838242
1520440530170314636,,,0,,1520440530,169982808,"""world""","""Drone_A""",,,0.00831907894462,-0.018252812326,0.0881119444966,,0.00245199212804,-0.00501798233017,-0.0117435790598,-0.999915480614
1520440530180735328,,,0,,1520440530,180442006,"""world""","""Drone_A""",,,0.00831559952348,-0.0182603113353,0.088113643229,,0.00242666574195,-0.00498898280784,-0.0117613971233,-0.999915421009
1520440530190293574,,,0,,1520440530,189918322,"""world""","""Drone_A""",,,0.00832384079695,-0.0182706527412,0.088105879724,,0.00242341635749,-0.00500980019569,-0.0117485728115,-0.999915599823
1520440530200569316,,,0,,1520440530,200271818,"""world""","""Drone_A""",,,0.00832306779921,-0.0182624459267,0.0881061330438,,0.00249107531272,-0.00503647187725,-0.0117768356577,-0.999914944172
1520440530210873267,,,0,,1520440530,210662617,"""world""","""Drone_A""",,,0.00832904502749,-0.0182580053806,0.0881144106388,,0.00247864588164,-0.00506052281708,-0.0117435026914,-0.99991518259
1520440530330028521,,,0,,1520440530,329577898,"""world""","""Drone_A""",,,0.00832542125136,-0.0182463377714,0.0881314277649,,0.00245031435043,-0.0049460013397,-0.0117284096777,-0.999916017056
1520440530330071928,,,0,,1520440530,329609086,"""world""","""Drone_A""",,,0.00832303985953,-0.0182524826378,0.0881250649691,,0.00240473612212,-0.00498685752973,-0.0117579307407,-0.999915540218
1520440530330088110,,,0,,1520440530,329629926,"""world""","""Drone_A""",,,0.00832800660282,-0.0182623136789,0.0881093889475,,0.00246510677971,-0.00504235271364,-0.0117539186031,-0.999915242195
1520440530330171159,,,0,,1520440530,329650733,"""world""","""Drone_A""",,,0.00832962244749,-0.0182443186641,0.0881214514375,,0.00251151551493,-0.00504939910024,-0.0118101323023,-0.99991440773
1520440530370650152,,,0,,1520440530,370236548,"""world""","""Drone_A""",,,0.00831997022033,-0.0182637535036,0.0881216824055,,0.00245163426735,-0.00500981882215,-0.0117339044809,-0.999915659428
1520440530390318305,,,0,,1520440530,390009785,"""world""","""Drone_A""",,,0.00832643825561,-0.0182580891997,0.0881271585822,,0.00247859442607,-0.00500470725819,-0.0117853321135,-0.999914944172
1520440530420321808,,,0,,1520440530,420022818,"""world""","""Drone_A""",,,0.00833231490105,-0.0182462148368,0.088138833642,,0.00255889631808,-0.00498572550714,-0.0118031408638,-0.999914646149
1520440530420340807,,,0,,1520440530,420041609,"""world""","""Drone_A""",,,0.00832420866936,-0.0182541366667,0.0881240069866,,0.0024190202821,-0.0050096809864,-0.0117618963122,-0.999915361404
1520440530420348859,,,0,,1520440530,420052939,"""world""","""Drone_A""",,,0.00832164660096,-0.0182548053563,0.0881214216352,,0.00239998893812,-0.00498809292912,-0.0117191364989,-0.999916017056
1520440530420361491,,,0,,1520440530,420063989,"""world""","""Drone_A""",,,0.00831978488714,-0.0182610712945,0.0881097540259,,0.00244545866735,-0.00502153113484,-0.0117765413597,-0.999915063381
1520440530420387157,,,0,,1520440530,420076169,"""world""","""Drone_A""",,,0.00831521395594,-0.0182570442557,0.0881025642157,,0.00235428614542,-0.00511185452342,-0.0117746535689,-0.999914824963
1520440530420393914,,,0,,1520440530,420161676,"""world""","""Drone_A""",,,0.00832768715918,-0.0182571299374,0.0881050750613,,0.00243404437788,-0.00511585874483,-0.0117911938578,-0.999914526939
1520440530420398946,,,0,,1520440530,420201931,"""world""","""Drone_A""",,,0.00833511725068,-0.0182509161532,0.0881250649691,,0.00245881057344,-0.00503858597949,-0.0117462268099,-0.9999153018
1520440530420429592,,,0,,1520440530,420234868,"""world""","""Drone_A""",,,0.00832643266767,-0.0182519778609,0.0881300866604,,0.00251787574962,-0.00497218500823,-0.0117485625669,-0.999915540218
1520440530420435256,,,0,,1520440530,420264149,"""world""","""Drone_A""",,,0.00832217466086,-0.0182416643947,0.0881528556347,,0.00214040675201,-0.00473427446559,-0.011703944765,-0.999918103218
1520440530420511444,,,0,,1520440530,420284103,"""world""","""Drone_A""",,,0.00832215882838,-0.0182566605508,0.088117621839,,0.00244265655056,-0.00504119275138,-0.0117621337995,-0.99991518259
1520440530420521164,,,0,,1520440530,420382850,"""world""","""Drone_A""",,,0.00832209642977,-0.0182593539357,0.0881099551916,,0.00240454403684,-0.00506752030924,-0.011768463999,-0.999915003777
1520440530420571665,,,0,,1520440530,420407181,"""world""","""Drone_A""",,,0.00832522474229,-0.0182523392141,0.0881027579308,,0.00235339114442,-0.00509471679106,-0.0117638697848,-0.999915122986
1520440530420907878,,,0,,1520440530,420453822,"""world""","""Drone_A""",,,0.00832338631153,-0.0182510111481,0.0881080776453,,0.00242897635326,-0.00506186438724,-0.0117743089795,-0.999914944172
1520440530420925592,,,0,,1520440530,420472846,"""world""","""Drone_A""",,,0.00832753069699,-0.0182544365525,0.0881159305573,,0.00243740947917,-0.00496443267912,-0.0117478240281,-0.999915719032
1520440530420953187,,,0,,1520440530,420490388,"""world""","""Drone_A""",,,0.0083289835602,-0.0182536095381,0.0881243497133,,0.00241079414263,-0.00498270755634,-0.0117516377941,-0.999915659428
1520440530429996744,,,0,,1520440530,429805651,"""world""","""Drone_A""",,,0.00832236371934,-0.0182533562183,0.0881080627441,,0.00251693138853,-0.00500885490328,-0.0117861675099,-0.999914884567
1520440530440343122,,,0,,1520440530,440159132,"""world""","""Drone_A""",,,0.00832028407604,-0.0182547830045,0.0881188064814,,0.00248612789437,-0.00505820196122,-0.0117803830653,-0.999914824963
1520440530450748667,,,0,,1520440530,450484806,"""world""","""Drone_A""",,,0.00832940451801,-0.0182546619326,0.0881185010076,,0.00249554566108,-0.00503985024989,-0.0117616737261,-0.999915063381
1520440530460089662,,,0,,1520440530,459821229,"""world""","""Drone_A""",,,0.00833129137754,-0.0182544756681,0.0881246775389,,0.0025160072837,-0.00504134176299,-0.0117798857391,-0.999914824963
1520440530580299118,,,0,,1520440530,579930017,"""world""","""Drone_A""",,,0.00832352321595,-0.018264843151,0.0881186425686,,0.0024547779467,-0.00497789867222,-0.0117279654369,-0.999915897846
1520440530580327657,,,0,,1520440530,579961593,"""world""","""Drone_A""",,,0.00831733923405,-0.0182650722563,0.0881044268608,,0.00241653923877,-0.00504172733054,-0.0117602972314,-0.999915242195
1520440530580342084,,,0,,1520440530,580009429,"""world""","""Drone_A""",,,0.00832858495414,-0.018253929913,0.0880997106433,,0.00240066135302,-0.00505672441795,-0.0117750968784,-0.999915003777
1520440530580349832,,,0,,1520440530,580033374,"""world""","""Drone_A""",,,0.00832947157323,-0.0182512700558,0.0881000608206,,0.002447091043,-0.00507666589692,-0.0117830056697,-0.999914765358
1520440530580357592,,,0,,1520440530,580053969,"""world""","""Drone_A""",,,0.00832756608725,-0.0182523429394,0.0881180763245,,0.00248490460217,-0.00501660816371,-0.0117676360533,-0.999915122986
1520440530580366206,,,0,,1520440530,580075874,"""world""","""Drone_A""",,,0.00831970572472,-0.018257137388,0.0881326720119,,0.00248113414273,-0.0049811587669,-0.0117558529601,-0.999915421009
1520440530580375083,,,0,,1520440530,580097054,"""world""","""Drone_A""",,,0.00832365825772,-0.0182533711195,0.0881331115961,,0.00247038924135,-0.00498517835513,-0.0117474319413,-0.999915540218
1520440530580382324,,,0,,1520440530,580115852,"""world""","""Drone_A""",,,0.00833082012832,-0.0182589329779,0.0881147682667,,0.00245355837978,-0.00505365245044,-0.0117955114692,-0.999914646149
1520440530580389313,,,0,,1520440530,580162719,"""world""","""Drone_A""",,,0.00833829212934,-0.0182550810277,0.0881243571639,,0.00261919386685,-0.00504357926548,-0.0118241682649,-0.999913990498
1520440530580406610,,,0,,1520440530,580187544,"""world""","""Drone_A""",,,0.00832740776241,-0.0182566158473,0.0881077125669,,0.00243628676981,-0.00507842795923,-0.0117795960978,-0.999914824963
1520440530580427320,,,0,,1520440530,580209929,"""world""","""Drone_A""",,,0.00832610111684,-0.0182547532022,0.0881126075983,,0.00243610749021,-0.00503644393757,-0.0117845330387,-0.999914944172
1520440530761066258,,,0,,1520440530,760531019,"""world""","""Drone_A""",,,0.00831894855946,-0.0182474143803,0.0881121829152,,0.00240197894163,-0.00498220231384,-0.0117388153449,-0.999915778637
1520440530761094954,,,0,,1520440530,760572949,"""world""","""Drone_A""",,,0.00832140166312,-0.0182471424341,0.0881097391248,,0.00243450305425,-0.00499357888475,-0.0117201702669,-0.999915957451
1520440530761110420,,,0,,1520440530,760612676,"""world""","""Drone_A""",,,0.00833080429584,-0.0182538982481,0.0881109833717,,0.00247740792111,-0.00500005017966,-0.0117352418602,-0.999915599823
1520440530761131631,,,0,,1520440530,760680976,"""world""","""Drone_A""",,,0.00832789670676,-0.0182542577386,0.0881101042032,,0.00244043907151,-0.00508853234351,-0.0118234409019,-0.999914228916
1520440530761144146,,,0,,1520440530,760713244,"""world""","""Drone_A""",,,0.00832275673747,-0.0182576179504,0.0881191566586,,0.00248809647746,-0.00508000701666,-0.0118224462494,-0.999914169312
1520440530761157292,,,0,,1520440530,760739597,"""world""","""Drone_A""",,,0.00833462271839,-0.0182414837182,0.0881459191442,,0.00247114384547,-0.00503575569019,-0.0117819597945,-0.999914944172
1520440530761167035,,,0,,1520440530,760770852,"""world""","""Drone_A""",,,0.00833321269602,-0.0182629600167,0.0881261005998,,0.00247036712244,-0.00499017862603,-0.0117793325335,-0.999915122986
1520440530761197246,,,0,,1520440530,760838955,"""world""","""Drone_A""",,,0.00832419656217,-0.018256297335,0.0881118699908,,0.00244734995067,-0.00500740529969,-0.0117233535275,-0.999915778637
1520440530761213168,,,0,,1520440530,760870469,"""world""","""Drone_A""",,,0.00832293462008,-0.0182587020099,0.0881029739976,,0.00237109442241,-0.00504211289808,-0.0117465881631,-0.999915480614
1520440530761222991,,,0,,1520440530,760901576,"""world""","""Drone_A""",,,0.00832710694522,-0.0182552672923,0.0880943834782,,0.00240513170138,-0.00506698759273,-0.0117417629808,-0.999915421009
1520440530761358954,,,0,,1520440530,760968675,"""world""","""Drone_A""",,,0.00832164660096,-0.018251074478,0.0881057009101,,0.00247939210385,-0.00506183085963,-0.0117956586182,-0.999914586544
1520440530761368605,,,0,,1520440530,761000113,"""world""","""Drone_A""",,,0.00832797028124,-0.0182455722243,0.0881209969521,,0.0024146696087,-0.00506078498438,-0.01175516285,-0.999915242195
1520440530761436722,,,0,,1520440530,761027743,"""world""","""Drone_A""",,,0.00832641497254,-0.0182411316782,0.0881362855434,,0.00234339688905,-0.00495003163815,-0.011741313152,-0.999916136265
1520440530761474555,,,0,,1520440530,761054161,"""world""","""Drone_A""",,,0.00833027623594,-0.0182587243617,0.0881302878261,,0.00247673830017,-0.00499952677637,-0.0117655284703,-0.9999153018
1520440530762170525,,,0,,1520440530,761256262,"""world""","""Drone_A""",,,0.00832688063383,-0.0182614549994,0.0881054475904,,0.00252485251985,-0.00505612045527,-0.0117931514978,-0.999914526939
1520440530762182385,,,0,,1520440530,761307570,"""world""","""Drone_A""",,,0.00832443870604,-0.0182640105486,0.088107265532,,0.00247583840974,-0.00506969820708,-0.0117820166051,-0.999914765358
1520440530762190981,,,0,,1520440530,761337877,"""world""","""Drone_A""",,,0.0083245113492,-0.0182670913637,0.0881049185991,,0.00249696266837,-0.00506071234122,-0.011792124249,-0.999914586544
1520440530762215854,,,0,,1520440530,761367413,"""world""","""Drone_A""",,,0.00832207687199,-0.0182512588799,0.0881139412522,,0.00246456242166,-0.00499071460217,-0.0117525048554,-0.999915480614
1520440530762228759,,,0,,1520440530,761396950,"""world""","""Drone_A""",,,0.00832229200751,-0.0182428769767,0.0881177484989,,0.0023560654372,-0.00499206734821,-0.0117774615064,-0.999915421009
1520440530762241403,,,0,,1520440530,761426344,"""world""","""Drone_A""",,,0.00832367502153,-0.0182443484664,0.0881182253361,,0.00242309621535,-0.00501607777551,-0.0117596853524,-0.999915361404
1520440530762254736,,,0,,1520440530,761451912,"""world""","""Drone_A""",,,0.00832221843302,-0.0182525683194,0.0881113409996,,0.00247741676867,-0.00503845699131,-0.0117752375081,-0.999915003777
1520440530762268098,,,0,,1520440530,761478149,"""world""","""Drone_A""",,,0.00832130201161,-0.0182463899255,0.0881182402372,,0.0024855628144,-0.00508111109957,-0.0118008917198,-0.999914348125
1520440530762296065,,,0,,1520440530,761508988,"""world""","""Drone_A""",,,0.00833163689822,-0.0182458758354,0.0881119221449,,0.00249133748002,-0.00508227897808,-0.0118016898632,-0.999914348125
1520440530762344074,,,0,,1520440530,761542321,"""world""","""Drone_A""",,,0.008336388506,-0.0182526707649,0.0881249755621,,0.00247048633173,-0.00502790231258,-0.0117435455322,-0.999915421009
1520440530770267926,,,0,,1520440530,769946990,"""world""","""Drone_A""",,,0.00832479540259,-0.0182665847242,0.0881275311112,,0.00250104488805,-0.00499736191705,-0.0117885926738,-0.999914944172
1520440530890684572,,,0,,1520440530,890216323,"""world""","""Drone_A""",,,0.00831571593881,-0.0182609111071,0.0881069451571,,0.00239560334012,-0.00507933227345,-0.0118038197979,-0.999914646149
1520440530890712206,,,0,,1520440530,890245735,"""world""","""Drone_A""",,,0.00833521317691,-0.0182380806655,0.0881242901087,,0.00243306113407,-0.00506262574345,-0.011818296276,-0.999914467335
1520440530890733674,,,0,,1520440530,890266075,"""world""","""Drone_A""",,,0.00833558570594,-0.0182386245579,0.0881128907204,,0.00247380230576,-0.00503424182534,-0.0117484619841,-0.999915242195
1520440530890747085,,,0,,1520440530,890284875,"""world""","""Drone_A""",,,0.00832528714091,-0.0182338990271,0.0881245285273,,0.00251279538497,-0.00499698147178,-0.011791869998,-0.999914824963
1520440530890761419,,,0,,1520440530,890414071,"""world""","""Drone_A""",,,0.00832663010806,-0.0182455405593,0.0881217345595,,0.00247057480738,-0.00498138088733,-0.0117377750576,-0.999915719032
1520440530890773323,,,0,,1520440530,890477121,"""world""","""Drone_A""",,,0.00831521023065,-0.0182477477938,0.0881145074964,,0.00241955765523,-0.00502962013707,-0.0117633938789,-0.9999153018
1520440530890787867,,,0,,1520440530,890517028,"""world""","""Drone_A""",,,0.00832469575107,-0.0182573217899,0.0881093069911,,0.00240070023574,-0.00508798006922,-0.0117976497859,-0.999914586544
1520440530890806821,,,0,,1520440530,890543170,"""world""","""Drone_A""",,,0.00833345018327,-0.0182673484087,0.0881124585867,,0.0024665701203,-0.00512911146507,-0.011809553951,-0.999914109707
1520440530890817531,,,0,,1520440530,890575170,"""world""","""Drone_A""",,,0.0083312606439,-0.0182635262609,0.0881135091186,,0.00248698587529,-0.00507477391511,-0.0118089457974,-0.999914288521
1520440530891398542,,,0,,1520440530,890630331,"""world""","""Drone_A""",,,0.00833010487258,-0.018248423934,0.0881132483482,,0.00241568987258,-0.0050127627328,-0.0117533672601,-0.999915480614
1520440530891409802,,,0,,1520440530,890666637,"""world""","""Drone_A""",,,0.00831773690879,-0.0182455834001,0.0881092250347,,0.00244524842128,-0.00498661398888,-0.0117451027036,-0.999915659428
1520440530960194775,,,0,,1520440530,959861106,"""world""","""Drone_A""",,,0.00831978488714,-0.0182427689433,0.0881080552936,,0.0023637698032,-0.00505542661995,-0.0117449872196,-0.999915480614
1520440530960214110,,,0,,1520440530,959887060,"""world""","""Drone_A""",,,0.00832584686577,-0.0182570200413,0.0881148725748,,0.00240167416632,-0.00503538828343,-0.0117469439283,-0.999915540218
1520440530960222205,,,0,,1520440530,959904454,"""world""","""Drone_A""",,,0.00833034608513,-0.0182552449405,0.0881124138832,,0.00248816213571,-0.00507320882753,-0.0117656243965,-0.999914824963
1520440530960227633,,,0,,1520440530,959921032,"""world""","""Drone_A""",,,0.00833209045231,-0.0182465463877,0.088112950325,,0.00242877728306,-0.00511546758935,-0.0118126478046,-0.999914228916
1520440530960233541,,,0,,1520440530,959958957,"""world""","""Drone_A""",,,0.00832816306502,-0.0182483009994,0.0881233140826,,0.00239359820262,-0.00505193416029,-0.0117862392217,-0.999915003777
1520440530960246320,,,0,,1520440530,959978712,"""world""","""Drone_A""",,,0.00832416210324,-0.0182616878301,0.0881252586842,,0.00245418539271,-0.00504275923595,-0.0118200397119,-0.999914467335
1520440530960259856,,,0,,1520440530,959996562,"""world""","""Drone_A""",,,0.00832592323422,-0.0182678494602,0.0881203711033,,0.0024045445025,-0.00506116170436,-0.0117947682738,-0.999914824963
1520440530960269021,,,0,,1520440530,960013186,"""world""","""Drone_A""",,,0.00832320842892,-0.0182545855641,0.0881287157536,,0.00240945606492,-0.00505550485104,-0.0118308076635,-0.999914348125
1520440530960274585,,,0,,1520440530,960030099,"""world""","""Drone_A""",,,0.00832806713879,-0.0182550661266,0.0881040170789,,0.00242987065576,-0.00505813350901,-0.0117827933282,-0.999914824963
1520440530960288579,,,0,,1520440530,960063081,"""world""","""Drone_A""",,,0.00833050720394,-0.0182440988719,0.0881019234657,,0.00245247036219,-0.00504893762991,-0.0117794526741,-0.999914944172
1520440530960482912,,,0,,1520440530,960081487,"""world""","""Drone_A""",,,0.00832744129002,-0.0182315260172,0.0881146416068,,0.00235064839944,-0.00503192795441,-0.0117664663121,-0.999915421009
1520440530970864972,,,0,,1520440530,970530334,"""world""","""Drone_A""",,,0.00832948088646,-0.0182473435998,0.0881217196584,,0.00252478453331,-0.00504401978105,-0.0117657678202,-0.999914944172
1520440530970879966,,,0,,1520440530,970550171,"""world""","""Drone_A""",,,0.00832067243755,-0.0182586088777,0.088130928576,,0.00245796865784,-0.0050087403506,-0.011769855395,-0.999915242195
1520440530980438045,,,0,,1520440530,980020887,"""world""","""Drone_A""",,,0.00832852162421,-0.018265619874,0.0881133824587,,0.00239482102916,-0.00506095774472,-0.0117994705215,-0.999914705753
1520440530990692908,,,0,,1520440530,990380382,"""world""","""Drone_A""",,,0.00833116844296,-0.0182709805667,0.0881064534187,,0.00245278421789,-0.00508220912889,-0.0117952600121,-0.999914526939
1520440531000231811,,,0,,1520440530,999797630,"""world""","""Drone_A""",,,0.00833163037896,-0.0182572584599,0.0881042927504,,0.00243964674883,-0.00504293292761,-0.0117820585147,-0.999915003777
1520440531010676003,,,0,,1520440531,10279946,"""world""","""Drone_A""",,,0.00832226593047,-0.0182515084743,0.0881139785051,,0.00241768825799,-0.00503401271999,-0.0117789311334,-0.999915122986
1520440531010711008,,,0,,1520440531,10310412,"""world""","""Drone_A""",,,0.0083267185837,-0.0182576961815,0.0881215557456,,0.00242867786437,-0.00502906506881,-0.0117626497522,-0.999915242195
1520440531020050022,,,0,,1520440531,19721300,"""world""","""Drone_A""",,,0.00832521170378,-0.0182488691062,0.0881129130721,,0.00240434869193,-0.00501017645001,-0.0117470994592,-0.999915599823
1520440531030559732,,,0,,1520440531,30182474,"""world""","""Drone_A""",,,0.00832566525787,-0.0182407163084,0.0881092101336,,0.00244793365709,-0.00507167121395,-0.011801790446,-0.999914526939
1520440531041047093,,,0,,1520440531,40654204,"""world""","""Drone_A""",,,0.00833006110042,-0.0182412266731,0.0881114900112,,0.00243676337413,-0.00507033569738,-0.0117726000026,-0.999914944172
1520440531050618816,,,0,,1520440531,50126400,"""world""","""Drone_A""",,,0.00833304505795,-0.0182494595647,0.0881115347147,,0.00245013856329,-0.00505064241588,-0.0117870960385,-0.999914824963
1520440531060844965,,,0,,1520440531,60499441,"""world""","""Drone_A""",,,0.00832568481565,-0.0182598009706,0.0881193727255,,0.00250342814252,-0.00500626023859,-0.0117630092427,-0.99991518259
1520440531060866619,,,0,,1520440531,60526937,"""world""","""Drone_A""",,,0.00832279305905,-0.0182615630329,0.0881126523018,,0.00235340581276,-0.00504662003368,-0.0117724966258,-0.9999153018
1520440531070160531,,,0,,1520440531,69860789,"""world""","""Drone_A""",,,0.00832268688828,-0.0182701628655,0.088107638061,,0.00246562832035,-0.00503363274038,-0.0117538869381,-0.999915242195
1520440531080480673,,,0,,1520440531,80234125,"""world""","""Drone_A""",,,0.00833346508443,-0.0182474181056,0.0881188958883,,0.00243764393963,-0.00506385415792,-0.0118236932904,-0.999914348125
1520440531089854813,,,0,,1520440531,89573683,"""world""","""Drone_A""",,,0.00832886714488,-0.0182354189456,0.0881188809872,,0.00249324552715,-0.00507379323244,-0.0118153896183,-0.999914288521
1520440531100587937,,,0,,1520440531,100078760,"""world""","""Drone_A""",,,0.00832851417363,-0.0182390324771,0.0881086587906,,0.00233741593547,-0.00507817929611,-0.0117784366012,-0.999915003777
1520440531111148099,,,0,,1520440531,110638947,"""world""","""Drone_A""",,,0.00832059327513,-0.0182338356972,0.0881222188473,,0.00238019996323,-0.0050232601352,-0.0117635000497,-0.999915361404
1520440531111196789,,,0,,1520440531,110680078,"""world""","""Drone_A""",,,0.00832564290613,-0.0182509701699,0.0881279557943,,0.00245792325586,-0.00496831256896,-0.0117654912174,-0.999915480614
1520440531120955840,,,0,,1520440531,120251048,"""world""","""Drone_A""",,,0.00832906272262,-0.0182542335242,0.088113412261,,0.00243232841603,-0.00500162504613,-0.0117505276576,-0.999915480614
1520440531130459458,,,0,,1520440531,129929041,"""world""","""Drone_A""",,,0.00832591205835,-0.0182660929859,0.0881068632007,,0.00251194671728,-0.00507007772103,-0.0117780873552,-0.999914646149
1520440531141016355,,,0,,1520440531,140606016,"""world""","""Drone_A""",,,0.00833026133478,-0.0182646661997,0.0881070569158,,0.00248446688056,-0.00506969448179,-0.0117869600654,-0.999914586544
1520440531150319737,,,0,,1520440531,150045687,"""world""","""Drone_A""",,,0.0083304932341,-0.0182599574327,0.0881106778979,,0.00247815484181,-0.00502567132935,-0.011784366332,-0.999914944172
1520440531160553783,,,0,,1520440531,160384667,"""world""","""Drone_A""",,,0.00833356194198,-0.0182597078383,0.0881196856499,,0.00250570871867,-0.00501568708569,-0.0117583442479,-0.99991518259
1520440531160566843,,,0,,1520440531,160401571,"""world""","""Drone_A""",,,0.00832750927657,-0.0182570666075,0.0881155952811,,0.00250371126458,-0.00498495344073,-0.0117608290166,-0.999915361404
1520440531170563084,,,0,,1520440531,169956565,"""world""","""Drone_A""",,,0.0083304643631,-0.0182497631758,0.0881148725748,,0.00244752084836,-0.00497402995825,-0.0117416353896,-0.999915778637
1520440531180998421,,,0,,1520440531,180536038,"""world""","""Drone_A""",,,0.00833673030138,-0.0182464048266,0.0881071612239,,0.0024447357282,-0.00507347006351,-0.0117667727172,-0.999915003777
1520440531190567961,,,0,,1520440531,190072527,"""world""","""Drone_A""",,,0.0083322506398,-0.0182439535856,0.0881118327379,,0.0024326578714,-0.00508840149269,-0.0117801260203,-0.999914765358
1520440531201050915,,,0,,1520440531,200578051,"""world""","""Drone_A""",,,0.00833576917648,-0.0182502157986,0.0881148427725,,0.00247152941301,-0.00498873135075,-0.0117613207549,-0.999915361404
1520440531210433464,,,0,,1520440531,210115127,"""world""","""Drone_A""",,,0.00832096673548,-0.0182470157743,0.0881382524967,,0.00252216961235,-0.00500933686271,-0.0118052819744,-0.999914586544
1520440531210459883,,,0,,1520440531,210138477,"""world""","""Drone_A""",,,0.0083285132423,-0.0182682815939,0.0881113484502,,0.00244413176551,-0.00500879436731,-0.011767196469,-0.999915242195
1520440531220969952,,,0,,1520440531,220619164,"""world""","""Drone_A""",,,0.00832898262888,-0.018270354718,0.0881063491106,,0.00241700327024,-0.00507252942771,-0.0117993578315,-0.999914646149
1520440531230471372,,,0,,1520440531,230111168,"""world""","""Drone_A""",,,0.00833455566317,-0.0182582139969,0.0881092995405,,0.00241392618045,-0.00511134136468,-0.0117879835889,-0.999914586544
1520440531240798542,,,0,,1520440531,240506256,"""world""","""Drone_A""",,,0.00833671260625,-0.0182444285601,0.0881142318249,,0.00241777696647,-0.00505326362327,-0.0117708323523,-0.999915122986
1520440531250324441,,,0,,1520440531,249982172,"""world""","""Drone_A""",,,0.00833170022815,-0.0182398408651,0.0881215408444,,0.00245384918526,-0.00506179127842,-0.0117684490979,-0.999915003777
1520440531260640506,,,0,,1520440531,260349220,"""world""","""Drone_A""",,,0.00832531228662,-0.0182348061353,0.0881355628371,,0.00251459144056,-0.00498413667083,-0.0117984265089,-0.999914824963
1520440531270017442,,,0,,1520440531,269658922,"""world""","""Drone_A""",,,0.00832547154278,-0.0182485692203,0.0881078764796,,0.00245372788049,-0.00500047858804,-0.0117335924879,-0.999915659428
1520440531270036519,,,0,,1520440531,269681337,"""world""","""Drone_A""",,,0.00832397397608,-0.0182427950203,0.0881031826138,,0.00235473224893,-0.00507290894166,-0.0117700528353,-0.999915122986
1520440531280428284,,,0,,1520440531,280129265,"""world""","""Drone_A""",,,0.00833536684513,-0.0182517617941,0.0881061702967,,0.00246705929749,-0.00506302108988,-0.0117513202131,-0.999915122986
1520440531290885051,,,0,,1520440531,290472162,"""world""","""Drone_A""",,,0.00833778642118,-0.0182578004897,0.0881168022752,,0.00245970534161,-0.00502689788118,-0.0117708006874,-0.999915063381
1520440531300282012,,,0,,1520440531,299891260,"""world""","""Drone_A""",,,0.00832647830248,-0.018260166049,0.0881177335978,,0.00240690517239,-0.00503486348316,-0.0117597682402,-0.999915361404
1520440531310543521,,,0,,1520440531,310226547,"""world""","""Drone_A""",,,0.00831919535995,-0.0182700417936,0.088120803237,,0.00249864486977,-0.00498765148222,-0.0117653897032,-0.999915242195
1520440531320888128,,,0,,1520440531,320559946,"""world""","""Drone_A""",,,0.00832714606076,-0.0182594228536,0.0881026908755,,0.00247489917092,-0.00503698876128,-0.0118013005704,-0.999914646149
1520440531330280367,,,0,,1520440531,329931231,"""world""","""Drone_A""",,,0.00833567697555,-0.0182401351631,0.088103748858,,0.00244070473127,-0.00505529111251,-0.0117639545351,-0.999915063381
1520440531330300406,,,0,,1520440531,329955551,"""world""","""Drone_A""",,,0.00832772068679,-0.0182379409671,0.0881118178368,,0.00244617438875,-0.0050736553967,-0.0117611819878,-0.999915063381
1520440531340676185,,,0,,1520440531,340365850,"""world""","""Drone_A""",,,0.00832438468933,-0.0182353444397,0.088119328022,,0.00233348086476,-0.00506704533473,-0.0117474701256,-0.999915421009
1520440531349942049,,,0,,1520440531,349598171,"""world""","""Drone_A""",,,0.0083230342716,-0.0182490088046,0.0881202071905,,0.00240641273558,-0.004996673204,-0.0117636267096,-0.999915421009
1520440531470160500,,,0,,1520440531,469907018,"""world""","""Drone_A""",,,0.00833973288536,-0.0182644799352,0.0881017744541,,0.00248469575308,-0.00499261310324,-0.011756349355,-0.999915361404
1520440531470180015,,,0,,1520440531,469943729,"""world""","""Drone_A""",,,0.00833649374545,-0.0182529427111,0.0880981981754,,0.00241452106275,-0.00506214238703,-0.0117711964995,-0.999915003777
1520440531470196958,,,0,,1520440531,469961782,"""world""","""Drone_A""",,,0.00833446718752,-0.0182621143758,0.0881027430296,,0.00245627760887,-0.00507632503286,-0.0117595857009,-0.999914944172
1520440531511054926,,,0,,1520440531,510537296,"""world""","""Drone_A""",,,0.00832383520901,-0.0182430185378,0.088124781847,,0.00243016821332,-0.00501922611147,-0.0117658628151,-0.9999153018
1520440531511091020,,,0,,1520440531,510594115,"""world""","""Drone_A""",,,0.00832363124937,-0.0182426776737,0.0881218016148,,0.00244537601247,-0.00504359882325,-0.0117689017206,-0.999915063381
1520440531511249913,,,0,,1520440531,510663567,"""world""","""Drone_A""",,,0.00832584407181,-0.0182399135083,0.0881092846394,,0.00244795554318,-0.00505590159446,-0.0117751453072,-0.999914944172
1520440531511270879,,,0,,1520440531,510707301,"""world""","""Drone_A""",,,0.00833540409803,-0.0182521902025,0.0881041288376,,0.00244025001302,-0.00503814872354,-0.0117624085397,-0.99991518259
1520440531511289179,,,0,,1520440531,510749862,"""world""","""Drone_A""",,,0.00832859426737,-0.0182624794543,0.0881079286337,,0.00241244304925,-0.00508856633678,-0.0117905847728,-0.999914646149
1520440531511321832,,,0,,1520440531,510793493,"""world""","""Drone_A""",,,0.00833033304662,-0.018264696002,0.0881150662899,,0.0024313677568,-0.00504404772073,-0.0117705566809,-0.999915063381
1520440531511451110,,,0,,1520440531,510839122,"""world""","""Drone_A""",,,0.00833410397172,-0.0182613842189,0.0881189107895,,0.00250946381129,-0.00502419564873,-0.011746821925,-0.9999153018
1520440531590652882,,,0,,1520440531,590031746,"""world""","""Drone_A""",,,0.00833159778267,-0.018252145499,0.0881125107408,,0.00246197730303,-0.00502967974171,-0.0117533300072,-0.9999153018
1520440531590691502,,,0,,1520440531,590075923,"""world""","""Drone_A""",,,0.00833018776029,-0.0182471387088,0.0881047919393,,0.00239782873541,-0.0050122118555,-0.0117367375642,-0.999915719032
1520440531591050786,,,0,,1520440531,590243687,"""world""","""Drone_A""",,,0.00832906551659,-0.0182445608079,0.0881054252386,,0.00235559116118,-0.00512814894319,-0.011815354228,-0.999914348125
1520440531591070265,,,0,,1520440531,590305265,"""world""","""Drone_A""",,,0.00833180546761,-0.0182343125343,0.0881018415093,,0.00236631184816,-0.00508038280532,-0.0117694092914,-0.999915063381
1520440531591088733,,,0,,1520440531,590335371,"""world""","""Drone_A""",,,0.00833424553275,-0.0182425957173,0.0881096795201,,0.00250582885928,-0.00504945591092,-0.0117780007422,-0.999914765358
1520440531591105064,,,0,,1520440531,590360354,"""world""","""Drone_A""",,,0.00832960568368,-0.0182473491877,0.088117800653,,0.00245438353159,-0.00500871008262,-0.0117457024753,-0.999915480614
1520440531591125906,,,0,,1520440531,590560161,"""world""","""Drone_A""",,,0.00832714885473,-0.01826152578,0.0881156474352,,0.00243195611984,-0.00502175325528,-0.0117621384561,-0.999915361404
1520440531592208611,,,0,,1520440531,590818312,"""world""","""Drone_A""",,,0.0083248000592,-0.0182695370167,0.0881047472358,,0.0024254526943,-0.00508098397404,-0.0117814512923,-0.999914765358
1520440531592252572,,,0,,1520440531,590894550,"""world""","""Drone_A""",,,0.00833620037884,-0.0182698834687,0.0881037712097,,0.00250248331577,-0.00503465021029,-0.0117881698534,-0.999914765358
1520440531592279344,,,0,,1520440531,590944866,"""world""","""Drone_A""",,,0.00833156425506,-0.0182538703084,0.0881131663918,,0.00243486347608,-0.00506777316332,-0.0117841549218,-0.999914824963
1520440531592311441,,,0,,1520440531,590989402,"""world""","""Drone_A""",,,0.00833650957793,-0.0182436835021,0.0881146341562,,0.00246548629366,-0.00502265803516,-0.0117555744946,-0.999915242195
1520440531592331369,,,0,,1520440531,591032233,"""world""","""Drone_A""",,,0.00832716096193,-0.0182431787252,0.0881190747023,,0.00241364841349,-0.00502668041736,-0.0117579773068,-0.999915361404
1520440531592345117,,,0,,1520440531,591075289,"""world""","""Drone_A""",,,0.00832374021411,-0.0182489976287,0.0881093069911,,0.0024046159815,-0.00499866576865,-0.0117233684286,-0.999915897846
1520440531592360337,,,0,,1520440531,591120825,"""world""","""Drone_A""",,,0.00832493882626,-0.0182468667626,0.088110178709,,0.002340053441,-0.0050673019141,-0.0117724649608,-0.999915122986
1520440531592377628,,,0,,1520440531,591167085,"""world""","""Drone_A""",,,0.00833098310977,-0.0182466097176,0.0881027728319,,0.00237035169266,-0.00510458182544,-0.0118131227791,-0.999914467335
1520440531592481634,,,0,,1520440531,591208038,"""world""","""Drone_A""",,,0.00832705292851,-0.0182564351708,0.0881090760231,,0.00243804580532,-0.00507786497474,-0.0117835821584,-0.999914765358
1520440531592509210,,,0,,1520440531,591251734,"""world""","""Drone_A""",,,0.0083328243345,-0.0182605162263,0.0881125628948,,0.00251335534267,-0.00504069076851,-0.0118020772934,-0.999914586544
1520440531600551766,,,0,,1520440531,599994046,"""world""","""Drone_A""",,,0.00832928251475,-0.0182629041374,0.0881304219365,,0.00242084590718,-0.00499660614878,-0.0117657966912,-0.999915361404
1520440531730689624,,,0,,1520440531,730345694,"""world""","""Drone_A""",,,0.00833298545331,-0.0182419382036,0.0881028473377,,0.00243677850813,-0.00505762826651,-0.0117852687836,-0.999914765358
1520440531730715801,,,0,,1520440531,730368785,"""world""","""Drone_A""",,,0.00832861755043,-0.0182387493551,0.0881042480469,,0.00237433682196,-0.00506977643818,-0.0117935193703,-0.999914824963
1520440531750565929,,,0,,1520440531,750199331,"""world""","""Drone_A""",,,0.00832647737116,-0.0182586088777,0.0881150513887,,0.00246632983908,-0.0050114300102,-0.0117946183309,-0.999914944172
1520440531780394544,,,0,,1520440531,780123919,"""world""","""Drone_A""",,,0.00833616033196,-0.018264900893,0.0881131067872,,0.00253388332203,-0.00504034617916,-0.0118009252474,-0.999914526939
1520440531780411446,,,0,,1520440531,780224423,"""world""","""Drone_A""",,,0.00833403132856,-0.0182583332062,0.0881119221449,,0.00253762444481,-0.0050446242094,-0.0118100177497,-0.999914348125
1520440531780418215,,,0,,1520440531,780245097,"""world""","""Drone_A""",,,0.00832436978817,-0.0182541757822,0.0881124064326,,0.00243390258402,-0.00507597578689,-0.011807677336,-0.999914467335
1520440531780424307,,,0,,1520440531,780258941,"""world""","""Drone_A""",,,0.00832878332585,-0.0182501655072,0.088113091886,,0.00243892916478,-0.00498246168718,-0.0117354253307,-0.999915778637
1520440531780448772,,,0,,1520440531,780273720,"""world""","""Drone_A""",,,0.00833385437727,-0.0182512253523,0.088105969131,,0.00240618060343,-0.00497014634311,-0.0117367608473,-0.999915897846
1520440531800513575,,,0,,1520440531,800148010,"""world""","""Drone_A""",,,0.00833209976554,-0.018251830712,0.0881012231112,,0.00242715096101,-0.00504576647654,-0.0117777353153,-0.999915063381
1520440531800538281,,,0,,1520440531,800171225,"""world""","""Drone_A""",,,0.00833344180137,-0.0182558260858,0.0881080925465,,0.00247320067137,-0.00508555071428,-0.011789990589,-0.999914526939
1520440531810752361,,,0,,1520440531,810473651,"""world""","""Drone_A""",,,0.00832764990628,-0.0182537026703,0.0881135165691,,0.00242593814619,-0.00507751014084,-0.0118083814159,-0.999914526939
1520440531810768660,,,0,,1520440531,810496489,"""world""","""Drone_A""",,,0.00833931472152,-0.0182665139437,0.0881192013621,,0.00246818433516,-0.00500596640632,-0.0117842126638,-0.999915003777
1520440531810774561,,,0,,1520440531,810510653,"""world""","""Drone_A""",,,0.00833335425705,-0.0182558149099,0.0881249979138,,0.0023686431814,-0.00501637719572,-0.0117718614638,-0.999915361404
1520440531810781277,,,0,,1520440531,810524948,"""world""","""Drone_A""",,,0.00833490956575,-0.0182678513229,0.0881187841296,,0.00247534480877,-0.00497900415212,-0.0117657491937,-0.9999153018
1520440531810789052,,,0,,1520440531,810539783,"""world""","""Drone_A""",,,0.00832903943956,-0.0182686969638,0.0881093665957,,0.00241488660686,-0.00502652069554,-0.0117988875136,-0.999914884567
1520440531811111896,,,0,,1520440531,810654119,"""world""","""Drone_A""",,,0.00832538865507,-0.0182481743395,0.088097974658,,0.0023845534306,-0.0051255938597,-0.011791084893,-0.999914526939
1520440531811125168,,,0,,1520440531,810703069,"""world""","""Drone_A""",,,0.00833492446691,-0.0182428993285,0.0881062671542,,0.00240652589127,-0.00510143442079,-0.0117557970807,-0.999915003777
1520440531811142230,,,0,,1520440531,810847868,"""world""","""Drone_A""",,,0.00833557453007,-0.0182441286743,0.0881159901619,,0.00245041283779,-0.00503564020619,-0.0117419976741,-0.999915361404
1520440531811149419,,,0,,1520440531,810938841,"""world""","""Drone_A""",,,0.0083351964131,-0.0182496458292,0.0881209671497,,0.00248253485188,-0.00502053648233,-0.0117440149188,-0.999915421009
