rosbagTimestamp,header,seq,stamp,secs,nsecs,frame_id,voltage,current,charge,capacity,design_capacity,percentage,power_supply_status,power_supply_health,power_supply_technology,present,cell_voltage,location,serial_number
1520440529267315681,,66,,1520440529,266783666,'',23.2059993744,-0.0,nan,nan,nan,1.0,2,0,3,True,"[5.808000087738037, 5.808000087738037, 5.808000087738037, 5.808000087738037]","""id0""",''
1520440529479486642,,67,,1520440529,479256866,'',23.2000007629,-0.0,nan,nan,nan,1.0,2,0,3,True,"[5.785999774932861, 5.785999774932861, 5.785999774932861, 5.785999774932861]","""id0""",''
1520440529663470250,,68,,1520440529,662818984,'',23.2019996643,-0.0,nan,nan,nan,1.0,2,0,3,True,"[5.804999828338623, 5.804999828338623, 5.804999828338623, 5.804999828338623]","""id0""",''
1520440529877745211,,69,,1520440529,876162266,'',23.202999115,-0.0,nan,nan,nan,1.0,2,0,3,True,"[5.804999828338623, 5.804999828338623, 5.804999828338623, 5.804999828338623]","""id0""",''
1520440530063730852,,70,,1520440530,63405204,'',23.2019996643,-0.0,nan,nan,nan,1.0,2,0,3,True,"[5.78000020980835, 5.78000020980835, 5.78000020980835, 5.78000020980835]","""id0""",''
1520440530267954947,,71,,1520440530,267429289,'',23.2019996643,-0.0,nan,nan,nan,1.0,2,0,3,True,"[5.804999828338623, 5.804999828338623, 5.804999828338623, 5.804999828338623]","""id0""",''
1520440530477775567,,72,,1520440530,477099855,'',23.2010002136,-0.0,nan,nan,nan,1.0,2,0,3,True,"[5.798999786376953, 5.798999786376953, 5.798999786376953, 5.798999786376953]","""id0""",''
1520440530676286370,,73,,1520440530,675543020,'',23.2000007629,-0.0,nan,nan,nan,1.0,2,0,3,True,"[5.802000045776367, 5.802000045776367, 5.802000045776367, 5.802000045776367]","""id0""",''
1520440530878916388,,74,,1520440530,877312904,'',23.1959991455,-0.0,nan,nan,nan,1.0,2,0,3,True,"[5.794000148773193, 5.794000148773193, 5.794000148773193, 5.794000148773193]","""id0""",''
1520440531065765904,,75,,1520440531,65398562,'',23.1970005035,-0.0,nan,nan,nan,1.0,2,0,3,True,"[5.798999786376953, 5.798999786376953, 5.798999786376953, 5.798999786376953]","""id0""",''
1520440531263037954,,76,,1520440531,262346546,'',23.1970005035,-0.0,nan,nan,nan,1.0,2,0,3,True,"[5.796999931335449, 5.796999931335449, 5.796999931335449, 5.796999931335449]","""id0""",''
1520440531472306867,,77,,1520440531,471737938,'',23.1989994049,-0.0,nan,nan,nan,1.0,2,0,3,True,"[5.808000087738037, 5.808000087738037, 5.808000087738037, 5.808000087738037]","""id0""",''
1520440531701199575,,78,,1520440531,700173885,'',23.2010002136,-0.0,nan,nan,nan,1.0,2,0,3,True,"[5.802000045776367, 5.802000045776367, 5.802000045776367, 5.802000045776367]","""id0""",''
1520440531875047125,,79,,1520440531,874462665,'',23.2019996643,-0.0,nan,nan,nan,1.0,2,0,3,True,"[5.802000045776367, 5.802000045776367, 5.802000045776367, 5.802000045776367]","""id0""",''
1520440532072481244,,80,,1520440532,72078562,'',23.2010002136,-0.0,nan,nan,nan,1.0,2,0,3,True,"[5.802000045776367, 5.802000045776367, 5.802000045776367, 5.802000045776367]","""id0""",''
1520440532267493244,,81,,1520440532,267147197,'',23.2059993744,-0.0,nan,nan,nan,1.0,2,0,3,True,"[5.813000202178955, 5.813000202178955, 5.813000202178955, 5.813000202178955]","""id0""",''
1520440532477060944,,82,,1520440532,476475454,'',23.2099990845,-0.0,nan,nan,nan,1.0,2,0,3,True,"[5.809999942779541, 5.809999942779541, 5.809999942779541, 5.809999942779541]","""id0""",''
1520440532694212301,,83,,1520440532,693628621,'',23.2070007324,-0.0,nan,nan,nan,1.0,2,0,3,True,"[5.790999889373779, 5.790999889373779, 5.790999889373779, 5.790999889373779]","""id0""",''
1520440532861693575,,84,,1520440532,861314613,'',23.2049999237,-0.0,nan,nan,nan,1.0,2,0,3,True,"[5.804999828338623, 5.804999828338623, 5.804999828338623, 5.804999828338623]","""id0""",''
1520440533091370312,,85,,1520440533,90540665,'',23.202999115,-0.0,nan,nan,nan,1.0,2,0,3,True,"[5.804999828338623, 5.804999828338623, 5.804999828338623, 5.804999828338623]","""id0""",''
1520440533267855887,,86,,1520440533,266700131,'',23.2010002136,-0.0,nan,nan,nan,1.0,2,0,3,True,"[5.798999786376953, 5.798999786376953, 5.798999786376953, 5.798999786376953]","""id0""",''
1520440533477103035,,87,,1520440533,476224868,'',23.2019996643,-0.0,nan,nan,nan,1.0,2,0,3,True,"[5.802000045776367, 5.802000045776367, 5.802000045776367, 5.802000045776367]","""id0""",''
1520440533677054344,,88,,1520440533,676503814,'',23.2059993744,-0.0,nan,nan,nan,1.0,2,0,3,True,"[5.798999786376953, 5.798999786376953, 5.798999786376953, 5.798999786376953]","""id0""",''
1520440533877148104,,89,,1520440533,876407287,'',23.204000473,-0.0,nan,nan,nan,1.0,2,0,3,True,"[5.785999774932861, 5.785999774932861, 5.785999774932861, 5.785999774932861]","""id0""",''
1520440534077567420,,90,,1520440534,76425250,'',23.1970005035,-0.0,nan,nan,nan,1.0,2,0,3,True,"[5.796999931335449, 5.796999931335449, 5.796999931335449, 5.796999931335449]","""id0""",''
1520440534267855374,,91,,1520440534,266960560,'',23.1959991455,-0.0,nan,nan,nan,1.0,2,0,3,True,"[5.785999774932861, 5.785999774932861, 5.785999774932861, 5.785999774932861]","""id0""",''
1520440534461448081,,92,,1520440534,461184181,'',23.1959991455,-0.0,nan,nan,nan,1.0,2,0,3,True,"[5.802000045776367, 5.802000045776367, 5.802000045776367, 5.802000045776367]","""id0""",''
1520440534662581201,,93,,1520440534,662213005,'',23.1970005035,-0.0,nan,nan,nan,1.0,2,0,3,True,"[5.796999931335449, 5.796999931335449, 5.796999931335449, 5.796999931335449]","""id0""",''
1520440534877649728,,94,,1520440534,876980411,'',23.1979999542,-0.0,nan,nan,nan,1.0,2,0,3,True,"[5.790999889373779, 5.790999889373779, 5.790999889373779, 5.790999889373779]","""id0""",''
1520440535076779676,,95,,1520440535,76053723,'',23.1989994049,-0.0,nan,nan,nan,1.0,2,0,3,True,"[5.802000045776367, 5.802000045776367, 5.802000045776367, 5.802000045776367]","""id0""",''
1520440535267473646,,96,,1520440535,266966886,'',23.2010002136,-0.0,nan,nan,nan,1.0,2,0,3,True,"[5.802000045776367, 5.802000045776367, 5.802000045776367, 5.802000045776367]","""id0""",''
1520440535497824683,,97,,1520440535,494512801,'',23.202999115,-0.0,nan,nan,nan,1.0,2,0,3,True,"[5.794000148773193, 5.794000148773193, 5.794000148773193, 5.794000148773193]","""id0""",''
1520440535662102276,,98,,1520440535,661707897,'',23.2000007629,-0.0,nan,nan,nan,1.0,2,0,3,True,"[5.796999931335449, 5.796999931335449, 5.796999931335449, 5.796999931335449]","""id0""",''
1520440535877003468,,99,,1520440535,876422175,'',23.1970005035,-0.0,nan,nan,nan,1.0,2,0,3,True,"[5.802000045776367, 5.802000045776367, 5.802000045776367, 5.802000045776367]","""id0""",''
1520440536073558698,,100,,1520440536,73152249,'',23.1979999542,-0.0,nan,nan,nan,1.0,2,0,3,True,"[5.794000148773193, 5.794000148773193, 5.794000148773193, 5.794000148773193]","""id0""",''
1520440536267815774,,101,,1520440536,267298763,'',23.1979999542,-0.0,nan,nan,nan,1.0,2,0,3,True,"[5.802000045776367, 5.802000045776367, 5.802000045776367, 5.802000045776367]","""id0""",''
1520440536472470172,,102,,1520440536,472024061,'',23.1949996948,-0.0,nan,nan,nan,1.0,2,0,3,True,"[5.798999786376953, 5.798999786376953, 5.798999786376953, 5.798999786376953]","""id0""",''
1520440536672533172,,103,,1520440536,672119494,'',23.1979999542,-0.0,nan,nan,nan,1.0,2,0,3,True,"[5.802000045776367, 5.802000045776367, 5.802000045776367, 5.802000045776367]","""id0""",''
1520440536871478066,,104,,1520440536,871149663,'',23.1989994049,-0.0,nan,nan,nan,1.0,2,0,3,True,"[5.808000087738037, 5.808000087738037, 5.808000087738037, 5.808000087738037]","""id0""",''
1520440537077171351,,105,,1520440537,76375571,'',23.1959991455,-0.0,nan,nan,nan,1.0,2,0,3,True,"[5.802000045776367, 5.802000045776367, 5.802000045776367, 5.802000045776367]","""id0""",''
1520440537267612764,,106,,1520440537,267157970,'',23.2010002136,-0.0,nan,nan,nan,1.0,2,0,3,True,"[5.798999786376953, 5.798999786376953, 5.798999786376953, 5.798999786376953]","""id0""",''
1520440537462066271,,107,,1520440537,461678548,'',23.2010002136,-0.0,nan,nan,nan,1.0,2,0,3,True,"[5.802000045776367, 5.802000045776367, 5.802000045776367, 5.802000045776367]","""id0""",''
1520440537677364909,,108,,1520440537,676927147,'',23.2000007629,-0.0,nan,nan,nan,1.0,2,0,3,True,"[5.802000045776367, 5.802000045776367, 5.802000045776367, 5.802000045776367]","""id0""",''
1520440537874098909,,109,,1520440537,873465667,'',23.202999115,-0.0,nan,nan,nan,1.0,2,0,3,True,"[5.808000087738037, 5.808000087738037, 5.808000087738037, 5.808000087738037]","""id0""",''
1520440538072086275,,110,,1520440538,71420920,'',23.1989994049,-0.0,nan,nan,nan,1.0,2,0,3,True,"[5.788000106811523, 5.788000106811523, 5.788000106811523, 5.788000106811523]","""id0""",''
1520440538267510078,,111,,1520440538,267106564,'',23.2010002136,-0.0,nan,nan,nan,1.0,2,0,3,True,"[5.788000106811523, 5.788000106811523, 5.788000106811523, 5.788000106811523]","""id0""",''
1520440538472102235,,112,,1520440538,471625813,'',23.1970005035,-0.0,nan,nan,nan,1.0,2,0,3,True,"[5.796999931335449, 5.796999931335449, 5.796999931335449, 5.796999931335449]","""id0""",''
1520440538662141058,,113,,1520440538,661693607,'',23.202999115,-0.0,nan,nan,nan,1.0,2,0,3,True,"[5.808000087738037, 5.808000087738037, 5.808000087738037, 5.808000087738037]","""id0""",''
1520440538874623658,,114,,1520440538,873821716,'',23.1979999542,-0.0,nan,nan,nan,1.0,2,0,3,True,"[5.790999889373779, 5.790999889373779, 5.790999889373779, 5.790999889373779]","""id0""",''
1520440539080082958,,115,,1520440539,79509041,'',23.1919994354,-0.0,nan,nan,nan,1.0,2,0,3,True,"[5.785999774932861, 5.785999774932861, 5.785999774932861, 5.785999774932861]","""id0""",''
1520440539267859480,,116,,1520440539,266996422,'',23.1940002441,-0.0,nan,nan,nan,1.0,2,0,3,True,"[5.808000087738037, 5.808000087738037, 5.808000087738037, 5.808000087738037]","""id0""",''
1520440539497131902,,117,,1520440539,496841032,'',23.1970005035,-0.0,nan,nan,nan,1.0,2,0,3,True,"[5.802000045776367, 5.802000045776367, 5.802000045776367, 5.802000045776367]","""id0""",''
1520440539672549852,,118,,1520440539,671802086,'',23.1989994049,-0.0,nan,nan,nan,1.0,2,0,3,True,"[5.798999786376953, 5.798999786376953, 5.798999786376953, 5.798999786376953]","""id0""",''
1520440539862983364,,119,,1520440539,862640880,'',23.2000007629,-0.0,nan,nan,nan,1.0,2,0,3,True,"[5.798999786376953, 5.798999786376953, 5.798999786376953, 5.798999786376953]","""id0""",''
1520440540073782064,,120,,1520440540,73233400,'',23.1989994049,-0.0,nan,nan,nan,1.0,2,0,3,True,"[5.794000148773193, 5.794000148773193, 5.794000148773193, 5.794000148773193]","""id0""",''
1520440540268870427,,121,,1520440540,267890208,'',23.1979999542,-0.0,nan,nan,nan,1.0,2,0,3,True,"[5.788000106811523, 5.788000106811523, 5.788000106811523, 5.788000106811523]","""id0""",''
1520440540464134146,,122,,1520440540,463270167,'',23.1959991455,-0.0,nan,nan,nan,1.0,2,0,3,True,"[5.804999828338623, 5.804999828338623, 5.804999828338623, 5.804999828338623]","""id0""",''
1520440540678122795,,123,,1520440540,676665959,'',23.1970005035,-0.0,nan,nan,nan,1.0,2,0,3,True,"[5.790999889373779, 5.790999889373779, 5.790999889373779, 5.790999889373779]","""id0""",''
1520440540863048694,,124,,1520440540,862608885,'',23.1940002441,-0.0,nan,nan,nan,1.0,2,0,3,True,"[5.790999889373779, 5.790999889373779, 5.790999889373779, 5.790999889373779]","""id0""",''
1520440541062658647,,125,,1520440541,62096235,'',23.1900005341,-0.0,nan,nan,nan,1.0,2,0,3,True,"[5.798999786376953, 5.798999786376953, 5.798999786376953, 5.798999786376953]","""id0""",''
1520440541271752554,,126,,1520440541,271303625,'',23.1930007935,-0.0,nan,nan,nan,1.0,2,0,3,True,"[5.802000045776367, 5.802000045776367, 5.802000045776367, 5.802000045776367]","""id0""",''
1520440541492076650,,127,,1520440541,491316308,'',23.1949996948,-0.0,nan,nan,nan,1.0,2,0,3,True,"[5.804999828338623, 5.804999828338623, 5.804999828338623, 5.804999828338623]","""id0""",''
1520440541672191523,,128,,1520440541,671718835,'',23.1959991455,-0.0,nan,nan,nan,1.0,2,0,3,True,"[5.804999828338623, 5.804999828338623, 5.804999828338623, 5.804999828338623]","""id0""",''
1520440541876494841,,129,,1520440541,875494330,'',23.1989994049,-0.0,nan,nan,nan,1.0,2,0,3,True,"[5.802000045776367, 5.802000045776367, 5.802000045776367, 5.802000045776367]","""id0""",''
1520440542077343680,,130,,1520440542,76440240,'',23.2010002136,-0.0,nan,nan,nan,1.0,2,0,3,True,"[5.802000045776367, 5.802000045776367, 5.802000045776367, 5.802000045776367]","""id0""",''
1520440542296131323,,131,,1520440542,295489128,'',23.1970005035,-0.0,nan,nan,nan,1.0,2,0,3,True,"[5.796999931335449, 5.796999931335449, 5.796999931335449, 5.796999931335449]","""id0""",''
1520440542476397475,,132,,1520440542,475629818,'',23.1970005035,-0.0,nan,nan,nan,1.0,2,0,3,True,"[5.790999889373779, 5.790999889373779, 5.790999889373779, 5.790999889373779]","""id0""",''
1520440542676220211,,133,,1520440542,675548592,'',23.1919994354,-0.0,nan,nan,nan,1.0,2,0,3,True,"[5.790999889373779, 5.790999889373779, 5.790999889373779, 5.790999889373779]","""id0""",''
1520440542892675019,,134,,1520440542,891954375,'',23.186000824,-0.0,nan,nan,nan,1.0,2,0,3,True,"[5.798999786376953, 5.798999786376953, 5.798999786376953, 5.798999786376953]","""id0""",''
1520440543076306342,,135,,1520440543,76019499,'',23.1870002747,-0.0,nan,nan,nan,1.0,2,0,3,True,"[5.794000148773193, 5.794000148773193, 5.794000148773193, 5.794000148773193]","""id0""",''
1520440543278322711,,136,,1520440543,277926351,'',23.1830005646,-0.0,nan,nan,nan,1.0,2,0,3,True,"[5.790999889373779, 5.790999889373779, 5.790999889373779, 5.790999889373779]","""id0""",''
1520440543474677555,,137,,1520440543,474238460,'',23.1749992371,-0.0,nan,nan,nan,1.0,2,0,3,True,"[5.7829999923706055, 5.7829999923706055, 5.7829999923706055, 5.7829999923706055]","""id0""",''
1520440543672631772,,138,,1520440543,672343128,'',23.1749992371,-0.0,nan,nan,nan,1.0,2,0,3,True,"[5.796999931335449, 5.796999931335449, 5.796999931335449, 5.796999931335449]","""id0""",''
1520440543871045948,,139,,1520440543,870835473,'',23.172000885,-0.0,nan,nan,nan,1.0,2,0,3,True,"[5.796999931335449, 5.796999931335449, 5.796999931335449, 5.796999931335449]","""id0""",''
1520440544072808936,,140,,1520440544,72315671,'',23.1639995575,-0.0,nan,nan,nan,1.0,2,0,3,True,"[5.769000053405762, 5.769000053405762, 5.769000053405762, 5.769000053405762]","""id0""",''
1520440544268982387,,141,,1520440544,267526700,'',23.1350002289,-0.0,nan,nan,nan,1.0,2,0,3,True,"[5.670000076293945, 5.670000076293945, 5.670000076293945, 5.670000076293945]","""id0""",''
1520440544478056316,,142,,1520440544,476764444,'',23.0849990845,-0.0,nan,nan,nan,1.0,2,0,3,True,"[5.709000110626221, 5.709000110626221, 5.709000110626221, 5.709000110626221]","""id0""",''
1520440544754219089,,143,,1520440544,753636177,'',23.0489997864,-0.0,nan,nan,nan,1.0,2,0,3,True,"[5.699999809265137, 5.699999809265137, 5.699999809265137, 5.699999809265137]","""id0""",''
1520440544900292069,,144,,1520440544,899990317,'',23.0170001984,-0.0,nan,nan,nan,1.0,2,0,3,True,"[5.714000225067139, 5.714000225067139, 5.714000225067139, 5.714000225067139]","""id0""",''
1520440545072663405,,145,,1520440545,72314927,'',22.9890003204,-0.0,nan,nan,nan,1.0,2,0,3,True,"[5.691999912261963, 5.691999912261963, 5.691999912261963, 5.691999912261963]","""id0""",''
1520440545277611001,,146,,1520440545,276994177,'',22.9510002136,-0.0,nan,nan,nan,1.0,2,0,3,True,"[5.681000232696533, 5.681000232696533, 5.681000232696533, 5.681000232696533]","""id0""",''
1520440545495736815,,147,,1520440545,495371598,'',22.9249992371,-0.0,nan,nan,nan,1.0,2,0,3,True,"[5.697999954223633, 5.697999954223633, 5.697999954223633, 5.697999954223633]","""id0""",''
1520440545677927581,,148,,1520440545,676651053,'',22.9029998779,-0.0,nan,nan,nan,1.0,2,0,3,True,"[5.695000171661377, 5.695000171661377, 5.695000171661377, 5.695000171661377]","""id0""",''
1520440545878406679,,149,,1520440545,877406257,'',22.8829994202,-0.0,nan,nan,nan,1.0,2,0,3,True,"[5.684000015258789, 5.684000015258789, 5.684000015258789, 5.684000015258789]","""id0""",''
1520440546090975041,,150,,1520440546,90258130,'',22.8649997711,-0.0,nan,nan,nan,1.0,2,0,3,True,"[5.689000129699707, 5.689000129699707, 5.689000129699707, 5.689000129699707]","""id0""",''
1520440546276850214,,151,,1520440546,276248386,'',22.8479995728,-0.0,nan,nan,nan,1.0,2,0,3,True,"[5.672999858856201, 5.672999858856201, 5.672999858856201, 5.672999858856201]","""id0""",''
1520440546487193149,,152,,1520440546,486628835,'',22.8239994049,-0.0,nan,nan,nan,1.0,2,0,3,True,"[5.672999858856201, 5.672999858856201, 5.672999858856201, 5.672999858856201]","""id0""",''
1520440546695069595,,153,,1520440546,694409444,'',22.8040008545,-0.0,nan,nan,nan,1.0,2,0,3,True,"[5.681000232696533, 5.681000232696533, 5.681000232696533, 5.681000232696533]","""id0""",''
1520440546882552269,,154,,1520440546,881974517,'',22.7940006256,-0.0,nan,nan,nan,1.0,2,0,3,True,"[5.686999797821045, 5.686999797821045, 5.686999797821045, 5.686999797821045]","""id0""",''
1520440547076502871,,155,,1520440547,76191990,'',22.7810001373,-0.0,nan,nan,nan,1.0,2,0,3,True,"[5.664999961853027, 5.664999961853027, 5.664999961853027, 5.664999961853027]","""id0""",''
1520440547281770733,,156,,1520440547,281351301,'',22.7630004883,-0.0,nan,nan,nan,1.0,2,0,3,True,"[5.689000129699707, 5.689000129699707, 5.689000129699707, 5.689000129699707]","""id0""",''
1520440547479379459,,157,,1520440547,478601742,'',22.7590007782,-0.0,nan,nan,nan,1.0,2,0,3,True,"[5.681000232696533, 5.681000232696533, 5.681000232696533, 5.681000232696533]","""id0""",''
1520440547681182407,,158,,1520440547,680915502,'',22.7520008087,-0.0,nan,nan,nan,1.0,2,0,3,True,"[5.666999816894531, 5.666999816894531, 5.666999816894531, 5.666999816894531]","""id0""",''
1520440547899278396,,159,,1520440547,899044784,'',22.736000061,-0.0,nan,nan,nan,1.0,2,0,3,True,"[5.664999961853027, 5.664999961853027, 5.664999961853027, 5.664999961853027]","""id0""",''
1520440548078871801,,160,,1520440548,78564510,'',22.7250003815,-0.0,nan,nan,nan,1.0,2,0,3,True,"[5.670000076293945, 5.670000076293945, 5.670000076293945, 5.670000076293945]","""id0""",''
1520440548290165454,,161,,1520440548,288992790,'',22.7129993439,-0.0,nan,nan,nan,1.0,2,0,3,True,"[5.658999919891357, 5.658999919891357, 5.658999919891357, 5.658999919891357]","""id0""",''
1520440548492961346,,162,,1520440548,492254694,'',22.7010002136,-0.0,nan,nan,nan,1.0,2,0,3,True,"[5.6620001792907715, 5.6620001792907715, 5.6620001792907715, 5.6620001792907715]","""id0""",''
1520440548692821611,,163,,1520440548,692259142,'',22.6940002441,-0.0,nan,nan,nan,1.0,2,0,3,True,"[5.6620001792907715, 5.6620001792907715, 5.6620001792907715, 5.6620001792907715]","""id0""",''
1520440548900445820,,164,,1520440548,900030608,'',22.6959991455,-0.0,nan,nan,nan,1.0,2,0,3,True,"[5.6620001792907715, 5.6620001792907715, 5.6620001792907715, 5.6620001792907715]","""id0""",''
1520440549092522251,,165,,1520440549,92169706,'',22.6849994659,-0.0,nan,nan,nan,1.0,2,0,3,True,"[5.63700008392334, 5.63700008392334, 5.63700008392334, 5.63700008392334]","""id0""",''
1520440549301495290,,166,,1520440549,300966329,'',22.6700000763,-0.0,nan,nan,nan,1.0,2,0,3,True,"[5.666999816894531, 5.666999816894531, 5.666999816894531, 5.666999816894531]","""id0""",''
1520440549502096572,,167,,1520440549,501250959,'',22.6700000763,-0.0,nan,nan,nan,1.0,2,0,3,True,"[5.6539998054504395, 5.6539998054504395, 5.6539998054504395, 5.6539998054504395]","""id0""",''
1520440549692836863,,168,,1520440549,692334965,'',22.6599998474,-0.0,nan,nan,nan,1.0,2,0,3,True,"[5.656000137329102, 5.656000137329102, 5.656000137329102, 5.656000137329102]","""id0""",''
1520440549900796490,,169,,1520440549,900522940,'',22.6509990692,-0.0,nan,nan,nan,1.0,2,0,3,True,"[5.670000076293945, 5.670000076293945, 5.670000076293945, 5.670000076293945]","""id0""",''
1520440550100118958,,170,,1520440550,99824185,'',22.6459999084,-0.0,nan,nan,nan,1.0,2,0,3,True,"[5.64300012588501, 5.64300012588501, 5.64300012588501, 5.64300012588501]","""id0""",''
1520440550300517943,,171,,1520440550,300220325,'',22.638999939,-0.0,nan,nan,nan,1.0,2,0,3,True,"[5.656000137329102, 5.656000137329102, 5.656000137329102, 5.656000137329102]","""id0""",''
1520440550500402091,,172,,1520440550,500126146,'',22.6319999695,-0.0,nan,nan,nan,1.0,2,0,3,True,"[5.639999866485596, 5.639999866485596, 5.639999866485596, 5.639999866485596]","""id0""",''
1520440550912492708,,173,,1520440550,912304330,'',22.6180000305,-0.0,nan,nan,nan,1.0,2,0,3,True,"[5.644999980926514, 5.644999980926514, 5.644999980926514, 5.644999980926514]","""id0""",''
1520440551102725715,,174,,1520440551,102435355,'',22.6100006104,-0.0,nan,nan,nan,1.0,2,0,3,True,"[5.6479997634887695, 5.6479997634887695, 5.6479997634887695, 5.6479997634887695]","""id0""",''
1520440551302630791,,175,,1520440551,302331649,'',22.6079998016,-0.0,nan,nan,nan,1.0,2,0,3,True,"[5.651000022888184, 5.651000022888184, 5.651000022888184, 5.651000022888184]","""id0""",''
1520440551548291311,,176,,1520440551,546972633,'',22.6089992523,-0.0,nan,nan,nan,1.0,2,0,3,True,"[5.6479997634887695, 5.6479997634887695, 5.6479997634887695, 5.6479997634887695]","""id0""",''
1520440551701851776,,177,,1520440551,700976762,'',22.6060009003,-0.0,nan,nan,nan,1.0,2,0,3,True,"[5.6479997634887695, 5.6479997634887695, 5.6479997634887695, 5.6479997634887695]","""id0""",''
1520440551903421180,,178,,1520440551,903077496,'',22.6030006409,-0.0,nan,nan,nan,1.0,2,0,3,True,"[5.651000022888184, 5.651000022888184, 5.651000022888184, 5.651000022888184]","""id0""",''
1520440552102122222,,179,,1520440552,101309694,'',22.6049995422,-0.0,nan,nan,nan,1.0,2,0,3,True,"[5.651000022888184, 5.651000022888184, 5.651000022888184, 5.651000022888184]","""id0""",''
1520440552301427971,,180,,1520440552,300519361,'',22.6019992828,-0.0,nan,nan,nan,1.0,2,0,3,True,"[5.6479997634887695, 5.6479997634887695, 5.6479997634887695, 5.6479997634887695]","""id0""",''
1520440552500600986,,181,,1520440552,500323348,'',22.5960006714,-0.0,nan,nan,nan,1.0,2,0,3,True,"[5.651000022888184, 5.651000022888184, 5.651000022888184, 5.651000022888184]","""id0""",''
1520440552704795460,,182,,1520440552,703936590,'',22.5949993134,-0.0,nan,nan,nan,1.0,2,0,3,True,"[5.64300012588501, 5.64300012588501, 5.64300012588501, 5.64300012588501]","""id0""",''
1520440552903771565,,183,,1520440552,903369207,'',22.5960006714,-0.0,nan,nan,nan,1.0,2,0,3,True,"[5.6539998054504395, 5.6539998054504395, 5.6539998054504395, 5.6539998054504395]","""id0""",''
1520440553144318354,,184,,1520440553,142968504,'',22.5909996033,-0.0,nan,nan,nan,1.0,2,0,3,True,"[5.651000022888184, 5.651000022888184, 5.651000022888184, 5.651000022888184]","""id0""",''
1520440553320431584,,185,,1520440553,318391833,'',22.579000473,-0.0,nan,nan,nan,1.0,2,0,3,True,"[5.631999969482422, 5.631999969482422, 5.631999969482422, 5.631999969482422]","""id0""",''
1520440553500473067,,186,,1520440553,500099700,'',22.5720005035,-0.0,nan,nan,nan,1.0,2,0,3,True,"[5.63700008392334, 5.63700008392334, 5.63700008392334, 5.63700008392334]","""id0""",''
1520440553700386487,,187,,1520440553,699947531,'',22.5699996948,-0.0,nan,nan,nan,1.0,2,0,3,True,"[5.629000186920166, 5.629000186920166, 5.629000186920166, 5.629000186920166]","""id0""",''
1520440553907308622,,188,,1520440553,907055556,'',22.5690002441,-0.0,nan,nan,nan,1.0,2,0,3,True,"[5.64300012588501, 5.64300012588501, 5.64300012588501, 5.64300012588501]","""id0""",''
1520440554139166511,,189,,1520440554,137985270,'',22.5690002441,-0.0,nan,nan,nan,1.0,2,0,3,True,"[5.633999824523926, 5.633999824523926, 5.633999824523926, 5.633999824523926]","""id0""",''
1520440554316797074,,190,,1520440554,316421708,'',22.561000824,-0.0,nan,nan,nan,1.0,2,0,3,True,"[5.631999969482422, 5.631999969482422, 5.631999969482422, 5.631999969482422]","""id0""",''
1520440554523444204,,191,,1520440554,522639329,'',22.5559997559,-0.0,nan,nan,nan,1.0,2,0,3,True,"[5.633999824523926, 5.633999824523926, 5.633999824523926, 5.633999824523926]","""id0""",''
1520440554732205888,,192,,1520440554,731907436,'',22.5499992371,-0.0,nan,nan,nan,1.0,2,0,3,True,"[5.623000144958496, 5.623000144958496, 5.623000144958496, 5.623000144958496]","""id0""",''
1520440554932463944,,193,,1520440554,932016756,'',22.5440006256,-0.0,nan,nan,nan,1.0,2,0,3,True,"[5.625999927520752, 5.625999927520752, 5.625999927520752, 5.625999927520752]","""id0""",''
1520440555133694073,,194,,1520440555,132481061,'',22.5370006561,-0.0,nan,nan,nan,1.0,2,0,3,True,"[5.629000186920166, 5.629000186920166, 5.629000186920166, 5.629000186920166]","""id0""",''
1520440555332119909,,195,,1520440555,331842526,'',22.5359992981,-0.0,nan,nan,nan,1.0,2,0,3,True,"[5.63700008392334, 5.63700008392334, 5.63700008392334, 5.63700008392334]","""id0""",''
1520440555546274380,,196,,1520440555,544822365,'',22.5359992981,-0.0,nan,nan,nan,1.0,2,0,3,True,"[5.639999866485596, 5.639999866485596, 5.639999866485596, 5.639999866485596]","""id0""",''
1520440555742274041,,197,,1520440555,741863751,'',22.5340003967,-0.0,nan,nan,nan,1.0,2,0,3,True,"[5.639999866485596, 5.639999866485596, 5.639999866485596, 5.639999866485596]","""id0""",''
1520440555934789565,,198,,1520440555,934150629,'',22.5389995575,-0.0,nan,nan,nan,1.0,2,0,3,True,"[5.633999824523926, 5.633999824523926, 5.633999824523926, 5.633999824523926]","""id0""",''
1520440556132234949,,199,,1520440556,131791225,'',22.5340003967,-0.0,nan,nan,nan,1.0,2,0,3,True,"[5.623000144958496, 5.623000144958496, 5.623000144958496, 5.623000144958496]","""id0""",''
1520440556351411862,,200,,1520440556,350348139,'',22.5249996185,-0.0,nan,nan,nan,1.0,2,0,3,True,"[5.625999927520752, 5.625999927520752, 5.625999927520752, 5.625999927520752]","""id0""",''
1520440556544197549,,201,,1520440556,543261448,'',22.5270004272,-0.0,nan,nan,nan,1.0,2,0,3,True,"[5.633999824523926, 5.633999824523926, 5.633999824523926, 5.633999824523926]","""id0""",''
1520440556743662360,,202,,1520440556,742596417,'',22.5189990997,-0.0,nan,nan,nan,1.0,2,0,3,True,"[5.623000144958496, 5.623000144958496, 5.623000144958496, 5.623000144958496]","""id0""",''
1520440556944393231,,203,,1520440556,943642563,'',22.5119991302,-0.0,nan,nan,nan,1.0,2,0,3,True,"[5.620999813079834, 5.620999813079834, 5.620999813079834, 5.620999813079834]","""id0""",''
1520440557152856102,,204,,1520440557,150583007,'',22.5090007782,-0.0,nan,nan,nan,1.0,2,0,3,True,"[5.625999927520752, 5.625999927520752, 5.625999927520752, 5.625999927520752]","""id0""",''
1520440557370592092,,205,,1520440557,369354213,'',22.4960002899,-0.0,nan,nan,nan,1.0,2,0,3,True,"[5.60699987411499, 5.60699987411499, 5.60699987411499, 5.60699987411499]","""id0""",''
1520440557541930664,,206,,1520440557,541335768,'',22.4950008392,-0.0,nan,nan,nan,1.0,2,0,3,True,"[5.625999927520752, 5.625999927520752, 5.625999927520752, 5.625999927520752]","""id0""",''
1520440557758388938,,207,,1520440557,757519229,'',22.4909992218,-0.0,nan,nan,nan,1.0,2,0,3,True,"[5.620999813079834, 5.620999813079834, 5.620999813079834, 5.620999813079834]","""id0""",''
1520440557947576972,,208,,1520440557,946981014,'',22.4880008698,-0.0,nan,nan,nan,1.0,2,0,3,True,"[5.620999813079834, 5.620999813079834, 5.620999813079834, 5.620999813079834]","""id0""",''
1520440558142598611,,209,,1520440558,142119140,'',22.4850006104,-0.0,nan,nan,nan,1.0,2,0,3,True,"[5.614999771118164, 5.614999771118164, 5.614999771118164, 5.614999771118164]","""id0""",''
1520440558351482008,,210,,1520440558,350933935,'',22.4740009308,-0.0,nan,nan,nan,1.0,2,0,3,True,"[5.60099983215332, 5.60099983215332, 5.60099983215332, 5.60099983215332]","""id0""",''
1520440558545075142,,211,,1520440558,543987993,'',22.4810009003,-0.0,nan,nan,nan,1.0,2,0,3,True,"[5.664999961853027, 5.664999961853027, 5.664999961853027, 5.664999961853027]","""id0""",''
1520440558742456889,,212,,1520440558,742168011,'',22.4880008698,-0.0,nan,nan,nan,1.0,2,0,3,True,"[5.625999927520752, 5.625999927520752, 5.625999927520752, 5.625999927520752]","""id0""",''
1520440558950968048,,213,,1520440558,950294627,'',22.4869995117,-0.0,nan,nan,nan,1.0,2,0,3,True,"[5.60699987411499, 5.60699987411499, 5.60699987411499, 5.60699987411499]","""id0""",''
1520440559144677108,,214,,1520440559,143918191,'',22.4790000916,-0.0,nan,nan,nan,1.0,2,0,3,True,"[5.614999771118164, 5.614999771118164, 5.614999771118164, 5.614999771118164]","""id0""",''
1520440559357631832,,215,,1520440559,355463237,'',22.4780006409,-0.0,nan,nan,nan,1.0,2,0,3,True,"[5.614999771118164, 5.614999771118164, 5.614999771118164, 5.614999771118164]","""id0""",''
1520440559541751850,,216,,1520440559,541293337,'',22.4769992828,-0.0,nan,nan,nan,1.0,2,0,3,True,"[5.610000133514404, 5.610000133514404, 5.610000133514404, 5.610000133514404]","""id0""",''
1520440559752283008,,217,,1520440559,751618999,'',22.4720001221,-0.0,nan,nan,nan,1.0,2,0,3,True,"[5.614999771118164, 5.614999771118164, 5.614999771118164, 5.614999771118164]","""id0""",''
1520440559942246878,,218,,1520440559,941990652,'',22.4619998932,-0.0,nan,nan,nan,1.0,2,0,3,True,"[5.604000091552734, 5.604000091552734, 5.604000091552734, 5.604000091552734]","""id0""",''
1520440560141998755,,219,,1520440560,141747867,'',22.4519996643,-0.0,nan,nan,nan,1.0,2,0,3,True,"[5.585000038146973, 5.585000038146973, 5.585000038146973, 5.585000038146973]","""id0""",''
1520440560352186311,,220,,1520440560,351130199,'',22.4430007935,-0.0,nan,nan,nan,1.0,2,0,3,True,"[5.610000133514404, 5.610000133514404, 5.610000133514404, 5.610000133514404]","""id0""",''
1520440560551758432,,221,,1520440560,550641129,'',22.4430007935,-0.0,nan,nan,nan,1.0,2,0,3,True,"[5.614999771118164, 5.614999771118164, 5.614999771118164, 5.614999771118164]","""id0""",''
1520440560951251383,,222,,1520440560,950872215,'',22.4349994659,-0.0,nan,nan,nan,1.0,2,0,3,True,"[5.60099983215332, 5.60099983215332, 5.60099983215332, 5.60099983215332]","""id0""",''
1520440561152604176,,223,,1520440561,151695876,'',22.4349994659,-0.0,nan,nan,nan,1.0,2,0,3,True,"[5.611999988555908, 5.611999988555908, 5.611999988555908, 5.611999988555908]","""id0""",''
1520440561351365680,,224,,1520440561,350371728,'',22.4330005646,-0.0,nan,nan,nan,1.0,2,0,3,True,"[5.5929999351501465, 5.5929999351501465, 5.5929999351501465, 5.5929999351501465]","""id0""",''
1520440561550533426,,225,,1520440561,550212356,'',22.4319992065,-0.0,nan,nan,nan,1.0,2,0,3,True,"[5.610000133514404, 5.610000133514404, 5.610000133514404, 5.610000133514404]","""id0""",''
1520440561754896524,,226,,1520440561,754548218,'',22.4330005646,-0.0,nan,nan,nan,1.0,2,0,3,True,"[5.598999977111816, 5.598999977111816, 5.598999977111816, 5.598999977111816]","""id0""",''
1520440561953358277,,227,,1520440561,953006372,'',22.4309997559,-0.0,nan,nan,nan,1.0,2,0,3,True,"[5.5929999351501465, 5.5929999351501465, 5.5929999351501465, 5.5929999351501465]","""id0""",''
1520440562146246830,,228,,1520440562,145223174,'',22.4300003052,-0.0,nan,nan,nan,1.0,2,0,3,True,"[5.60699987411499, 5.60699987411499, 5.60699987411499, 5.60699987411499]","""id0""",''
1520440562356244374,,229,,1520440562,355412344,'',22.4290008545,-0.0,nan,nan,nan,1.0,2,0,3,True,"[5.5929999351501465, 5.5929999351501465, 5.5929999351501465, 5.5929999351501465]","""id0""",''
1520440562550117647,,230,,1520440562,549752463,'',22.420999527,-0.0,nan,nan,nan,1.0,2,0,3,True,"[5.590000152587891, 5.590000152587891, 5.590000152587891, 5.590000152587891]","""id0""",''
1520440562750445011,,231,,1520440562,750025500,'',22.4190006256,-0.0,nan,nan,nan,1.0,2,0,3,True,"[5.611999988555908, 5.611999988555908, 5.611999988555908, 5.611999988555908]","""id0""",''
1520440562952617124,,232,,1520440562,951904298,'',22.4300003052,-0.0,nan,nan,nan,1.0,2,0,3,True,"[5.611999988555908, 5.611999988555908, 5.611999988555908, 5.611999988555908]","""id0""",''
1520440563153957505,,233,,1520440563,153536265,'',22.4279994965,-0.0,nan,nan,nan,1.0,2,0,3,True,"[5.598999977111816, 5.598999977111816, 5.598999977111816, 5.598999977111816]","""id0""",''
1520440563354840265,,234,,1520440563,354272816,'',22.4260005951,-0.0,nan,nan,nan,1.0,2,0,3,True,"[5.60699987411499, 5.60699987411499, 5.60699987411499, 5.60699987411499]","""id0""",''
1520440563552751857,,235,,1520440563,552199188,'',22.4249992371,-0.0,nan,nan,nan,1.0,2,0,3,True,"[5.5929999351501465, 5.5929999351501465, 5.5929999351501465, 5.5929999351501465]","""id0""",''
1520440563752142410,,236,,1520440563,751680386,'',22.4230003357,-0.0,nan,nan,nan,1.0,2,0,3,True,"[5.598999977111816, 5.598999977111816, 5.598999977111816, 5.598999977111816]","""id0""",''
1520440563953110953,,237,,1520440563,952604169,'',22.4239997864,-0.0,nan,nan,nan,1.0,2,0,3,True,"[5.610000133514404, 5.610000133514404, 5.610000133514404, 5.610000133514404]","""id0""",''
1520440564166377155,,238,,1520440564,165454510,'',22.4230003357,-0.0,nan,nan,nan,1.0,2,0,3,True,"[5.590000152587891, 5.590000152587891, 5.590000152587891, 5.590000152587891]","""id0""",''
1520440564350431376,,239,,1520440564,350151455,'',22.4169998169,-0.0,nan,nan,nan,1.0,2,0,3,True,"[5.598999977111816, 5.598999977111816, 5.598999977111816, 5.598999977111816]","""id0""",''
1520440564588933977,,240,,1520440564,587628527,'',22.4179992676,-0.0,nan,nan,nan,1.0,2,0,3,True,"[5.611999988555908, 5.611999988555908, 5.611999988555908, 5.611999988555908]","""id0""",''
1520440564756759111,,241,,1520440564,756479202,'',22.4200000763,-0.0,nan,nan,nan,1.0,2,0,3,True,"[5.604000091552734, 5.604000091552734, 5.604000091552734, 5.604000091552734]","""id0""",''
1520440564970938655,,242,,1520440564,970273637,'',22.4120006561,-0.0,nan,nan,nan,1.0,2,0,3,True,"[5.5879998207092285, 5.5879998207092285, 5.5879998207092285, 5.5879998207092285]","""id0""",''
1520440565151001814,,243,,1520440565,150646178,'',22.4099998474,-0.0,nan,nan,nan,1.0,2,0,3,True,"[5.604000091552734, 5.604000091552734, 5.604000091552734, 5.604000091552734]","""id0""",''
1520440565362677657,,244,,1520440565,361927754,'',22.4130001068,-0.0,nan,nan,nan,1.0,2,0,3,True,"[5.610000133514404, 5.610000133514404, 5.610000133514404, 5.610000133514404]","""id0""",''
1520440565551430784,,245,,1520440565,550996142,'',22.4139995575,-0.0,nan,nan,nan,1.0,2,0,3,True,"[5.5879998207092285, 5.5879998207092285, 5.5879998207092285, 5.5879998207092285]","""id0""",''
1520440565751097689,,246,,1520440565,750186328,'',22.4109992981,-0.0,nan,nan,nan,1.0,2,0,3,True,"[5.620999813079834, 5.620999813079834, 5.620999813079834, 5.620999813079834]","""id0""",''
1520440565977379769,,247,,1520440565,976857027,'',22.4139995575,-0.0,nan,nan,nan,1.0,2,0,3,True,"[5.590000152587891, 5.590000152587891, 5.590000152587891, 5.590000152587891]","""id0""",''
1520440566191130751,,248,,1520440566,190309565,'',22.4090003967,-0.0,nan,nan,nan,1.0,2,0,3,True,"[5.5929999351501465, 5.5929999351501465, 5.5929999351501465, 5.5929999351501465]","""id0""",''
1520440566365601221,,249,,1520440566,365061922,'',22.4050006866,-0.0,nan,nan,nan,1.0,2,0,3,True,"[5.5929999351501465, 5.5929999351501465, 5.5929999351501465, 5.5929999351501465]","""id0""",''
1520440566577483770,,250,,1520440566,576403460,'',22.4029998779,-0.0,nan,nan,nan,1.0,2,0,3,True,"[5.598999977111816, 5.598999977111816, 5.598999977111816, 5.598999977111816]","""id0""",''
1520440566752580758,,251,,1520440566,752234934,'',22.4029998779,-0.0,nan,nan,nan,1.0,2,0,3,True,"[5.598999977111816, 5.598999977111816, 5.598999977111816, 5.598999977111816]","""id0""",''
1520440566962231310,,252,,1520440566,961769229,'',22.3999996185,-0.0,nan,nan,nan,1.0,2,0,3,True,"[5.598999977111816, 5.598999977111816, 5.598999977111816, 5.598999977111816]","""id0""",''
1520440567163455296,,253,,1520440567,162973706,'',22.4020004272,-0.0,nan,nan,nan,1.0,2,0,3,True,"[5.5929999351501465, 5.5929999351501465, 5.5929999351501465, 5.5929999351501465]","""id0""",''
1520440567395200146,,254,,1520440567,394531339,'',22.3990001678,-0.0,nan,nan,nan,1.0,2,0,3,True,"[5.581999778747559, 5.581999778747559, 5.581999778747559, 5.581999778747559]","""id0""",''
1520440567577229631,,255,,1520440567,576698347,'',22.3920001984,-0.0,nan,nan,nan,1.0,2,0,3,True,"[5.5929999351501465, 5.5929999351501465, 5.5929999351501465, 5.5929999351501465]","""id0""",''
1520440567776986935,,256,,1520440567,775538802,'',22.388999939,-0.0,nan,nan,nan,1.0,2,0,3,True,"[5.5960001945495605, 5.5960001945495605, 5.5960001945495605, 5.5960001945495605]","""id0""",''
1520440567991763839,,257,,1520440567,989477367,'',22.3869991302,-0.0,nan,nan,nan,1.0,2,0,3,True,"[5.5929999351501465, 5.5929999351501465, 5.5929999351501465, 5.5929999351501465]","""id0""",''
1520440568163407853,,258,,1520440568,162536953,'',22.3819999695,-0.0,nan,nan,nan,1.0,2,0,3,True,"[5.585000038146973, 5.585000038146973, 5.585000038146973, 5.585000038146973]","""id0""",''
1520440568358733520,,259,,1520440568,358494902,'',22.3819999695,-0.0,nan,nan,nan,1.0,2,0,3,True,"[5.590000152587891, 5.590000152587891, 5.590000152587891, 5.590000152587891]","""id0""",''
1520440568588221275,,260,,1520440568,587593661,'',22.3840007782,-0.0,nan,nan,nan,1.0,2,0,3,True,"[5.5929999351501465, 5.5929999351501465, 5.5929999351501465, 5.5929999351501465]","""id0""",''
1520440568775463035,,261,,1520440568,774833265,'',22.3819999695,-0.0,nan,nan,nan,1.0,2,0,3,True,"[5.5929999351501465, 5.5929999351501465, 5.5929999351501465, 5.5929999351501465]","""id0""",''
1520440568978945433,,262,,1520440568,978572006,'',22.3840007782,-0.0,nan,nan,nan,1.0,2,0,3,True,"[5.604000091552734, 5.604000091552734, 5.604000091552734, 5.604000091552734]","""id0""",''
1520440569197883482,,263,,1520440569,197006098,'',22.3770008087,-0.0,nan,nan,nan,1.0,2,0,3,True,"[5.573999881744385, 5.573999881744385, 5.573999881744385, 5.573999881744385]","""id0""",''
1520440569372374775,,264,,1520440569,372030686,'',22.3740005493,-0.0,nan,nan,nan,1.0,2,0,3,True,"[5.585000038146973, 5.585000038146973, 5.585000038146973, 5.585000038146973]","""id0""",''
1520440569562353734,,265,,1520440569,561554329,'',22.3700008392,-0.0,nan,nan,nan,1.0,2,0,3,True,"[5.5929999351501465, 5.5929999351501465, 5.5929999351501465, 5.5929999351501465]","""id0""",''
1520440569793057044,,266,,1520440569,792373340,'',22.3759994507,-0.0,nan,nan,nan,1.0,2,0,3,True,"[5.604000091552734, 5.604000091552734, 5.604000091552734, 5.604000091552734]","""id0""",''
1520440569977733384,,267,,1520440569,977079432,'',22.3770008087,-0.0,nan,nan,nan,1.0,2,0,3,True,"[5.5929999351501465, 5.5929999351501465, 5.5929999351501465, 5.5929999351501465]","""id0""",''
1520440570191696819,,268,,1520440570,191137735,'',22.3740005493,-0.0,nan,nan,nan,1.0,2,0,3,True,"[5.5929999351501465, 5.5929999351501465, 5.5929999351501465, 5.5929999351501465]","""id0""",''
1520440570358145594,,269,,1520440570,357785509,'',22.3740005493,-0.0,nan,nan,nan,1.0,2,0,3,True,"[5.5929999351501465, 5.5929999351501465, 5.5929999351501465, 5.5929999351501465]","""id0""",''
1520440570577879999,,270,,1520440570,576265830,'',22.3710002899,-0.0,nan,nan,nan,1.0,2,0,3,True,"[5.5879998207092285, 5.5879998207092285, 5.5879998207092285, 5.5879998207092285]","""id0""",''
1520440570762435429,,271,,1520440570,761819990,'',22.3640003204,-0.0,nan,nan,nan,1.0,2,0,3,True,"[5.585000038146973, 5.585000038146973, 5.585000038146973, 5.585000038146973]","""id0""",''
1520440570973301784,,272,,1520440570,972298359,'',22.3649997711,-0.0,nan,nan,nan,1.0,2,0,3,True,"[5.5929999351501465, 5.5929999351501465, 5.5929999351501465, 5.5929999351501465]","""id0""",''
1520440571162506552,,273,,1520440571,161840445,'',22.3630008698,-0.0,nan,nan,nan,1.0,2,0,3,True,"[5.5929999351501465, 5.5929999351501465, 5.5929999351501465, 5.5929999351501465]","""id0""",''
1520440571365492294,,274,,1520440571,365049730,'',22.3600006104,-0.0,nan,nan,nan,1.0,2,0,3,True,"[5.5879998207092285, 5.5879998207092285, 5.5879998207092285, 5.5879998207092285]","""id0""",''
1520440571592571116,,275,,1520440571,591496859,'',22.361000061,-0.0,nan,nan,nan,1.0,2,0,3,True,"[5.577000141143799, 5.577000141143799, 5.577000141143799, 5.577000141143799]","""id0""",''
1520440571762477372,,276,,1520440571,761990939,'',22.3549995422,-0.0,nan,nan,nan,1.0,2,0,3,True,"[5.5929999351501465, 5.5929999351501465, 5.5929999351501465, 5.5929999351501465]","""id0""",''
1520440571957823363,,277,,1520440571,956965855,'',22.3530006409,-0.0,nan,nan,nan,1.0,2,0,3,True,"[5.5879998207092285, 5.5879998207092285, 5.5879998207092285, 5.5879998207092285]","""id0""",''
1520440572157503627,,278,,1520440572,156678164,'',22.3549995422,-0.0,nan,nan,nan,1.0,2,0,3,True,"[5.5929999351501465, 5.5929999351501465, 5.5929999351501465, 5.5929999351501465]","""id0""",''
1520440572361801740,,279,,1520440572,361289013,'',22.3500003815,-0.0,nan,nan,nan,1.0,2,0,3,True,"[5.581999778747559, 5.581999778747559, 5.581999778747559, 5.581999778747559]","""id0""",''
1520440572558209699,,280,,1520440572,557499758,'',22.3470001221,-0.0,nan,nan,nan,1.0,2,0,3,True,"[5.5879998207092285, 5.5879998207092285, 5.5879998207092285, 5.5879998207092285]","""id0""",''
1520440572787352186,,281,,1520440572,786208620,'',22.3490009308,-0.0,nan,nan,nan,1.0,2,0,3,True,"[5.598999977111816, 5.598999977111816, 5.598999977111816, 5.598999977111816]","""id0""",''
1520440572953783129,,282,,1520440572,953423174,'',22.3560009003,-0.0,nan,nan,nan,1.0,2,0,3,True,"[5.598999977111816, 5.598999977111816, 5.598999977111816, 5.598999977111816]","""id0""",''
1520440573177509364,,283,,1520440573,177167363,'',22.3560009003,-0.0,nan,nan,nan,1.0,2,0,3,True,"[5.598999977111816, 5.598999977111816, 5.598999977111816, 5.598999977111816]","""id0""",''
1520440573393902091,,284,,1520440573,393403975,'',22.3579998016,-0.0,nan,nan,nan,1.0,2,0,3,True,"[5.585000038146973, 5.585000038146973, 5.585000038146973, 5.585000038146973]","""id0""",''
1520440573580446082,,285,,1520440573,579916126,'',22.361000061,-0.0,nan,nan,nan,1.0,2,0,3,True,"[5.5929999351501465, 5.5929999351501465, 5.5929999351501465, 5.5929999351501465]","""id0""",''
1520440573759700483,,286,,1520440573,759277935,'',22.3500003815,-0.0,nan,nan,nan,1.0,2,0,3,True,"[5.565999984741211, 5.565999984741211, 5.565999984741211, 5.565999984741211]","""id0""",''
1520440573961450269,,287,,1520440573,961259614,'',22.3449993134,-0.0,nan,nan,nan,1.0,2,0,3,True,"[5.581999778747559, 5.581999778747559, 5.581999778747559, 5.581999778747559]","""id0""",''
1520440574162302350,,288,,1520440574,161988410,'',22.3490009308,-0.0,nan,nan,nan,1.0,2,0,3,True,"[5.620999813079834, 5.620999813079834, 5.620999813079834, 5.620999813079834]","""id0""",''
1520440574371945885,,289,,1520440574,371555864,'',22.3479995728,-0.0,nan,nan,nan,1.0,2,0,3,True,"[5.577000141143799, 5.577000141143799, 5.577000141143799, 5.577000141143799]","""id0""",''
1520440574573613943,,290,,1520440574,572414683,'',22.3479995728,-0.0,nan,nan,nan,1.0,2,0,3,True,"[5.581999778747559, 5.581999778747559, 5.581999778747559, 5.581999778747559]","""id0""",''
1520440574774479207,,291,,1520440574,773940512,'',22.3470001221,-0.0,nan,nan,nan,1.0,2,0,3,True,"[5.585000038146973, 5.585000038146973, 5.585000038146973, 5.585000038146973]","""id0""",''
1520440574962596035,,292,,1520440574,962318169,'',22.3439998627,-0.0,nan,nan,nan,1.0,2,0,3,True,"[5.571000099182129, 5.571000099182129, 5.571000099182129, 5.571000099182129]","""id0""",''
1520440575194154643,,293,,1520440575,193216416,'',22.3439998627,-0.0,nan,nan,nan,1.0,2,0,3,True,"[5.598999977111816, 5.598999977111816, 5.598999977111816, 5.598999977111816]","""id0""",''
1520440575371993967,,294,,1520440575,371561372,'',22.3460006714,-0.0,nan,nan,nan,1.0,2,0,3,True,"[5.5879998207092285, 5.5879998207092285, 5.5879998207092285, 5.5879998207092285]","""id0""",''
1520440575572200492,,295,,1520440575,571835395,'',22.3400001526,-0.0,nan,nan,nan,1.0,2,0,3,True,"[5.565999984741211, 5.565999984741211, 5.565999984741211, 5.565999984741211]","""id0""",''
1520440575795010089,,296,,1520440575,794075335,'',22.3360004425,-0.0,nan,nan,nan,1.0,2,0,3,True,"[5.581999778747559, 5.581999778747559, 5.581999778747559, 5.581999778747559]","""id0""",''
1520440575971926606,,297,,1520440575,971269784,'',22.3390007019,-0.0,nan,nan,nan,1.0,2,0,3,True,"[5.581999778747559, 5.581999778747559, 5.581999778747559, 5.581999778747559]","""id0""",''
1520440576172738414,,298,,1520440576,172056133,'',22.3379993439,-0.0,nan,nan,nan,1.0,2,0,3,True,"[5.573999881744385, 5.573999881744385, 5.573999881744385, 5.573999881744385]","""id0""",''
1520440576372672524,,299,,1520440576,372258414,'',22.3309993744,-0.0,nan,nan,nan,1.0,2,0,3,True,"[5.5879998207092285, 5.5879998207092285, 5.5879998207092285, 5.5879998207092285]","""id0""",''
1520440576563230150,,300,,1520440576,562754229,'',22.3330001831,-0.0,nan,nan,nan,1.0,2,0,3,True,"[5.578999996185303, 5.578999996185303, 5.578999996185303, 5.578999996185303]","""id0""",''
1520440576767680521,,301,,1520440576,766690543,'',22.3309993744,-0.0,nan,nan,nan,1.0,2,0,3,True,"[5.559999942779541, 5.559999942779541, 5.559999942779541, 5.559999942779541]","""id0""",''
1520440576962716446,,302,,1520440576,962362194,'',22.3250007629,-0.0,nan,nan,nan,1.0,2,0,3,True,"[5.581999778747559, 5.581999778747559, 5.581999778747559, 5.581999778747559]","""id0""",''
1520440577177246011,,303,,1520440577,176651106,'',22.3239994049,-0.0,nan,nan,nan,1.0,2,0,3,True,"[5.573999881744385, 5.573999881744385, 5.573999881744385, 5.573999881744385]","""id0""",''
1520440577381393969,,304,,1520440577,380670468,'',22.3209991455,-0.0,nan,nan,nan,1.0,2,0,3,True,"[5.577000141143799, 5.577000141143799, 5.577000141143799, 5.577000141143799]","""id0""",''
1520440577572895844,,305,,1520440577,572328125,'',22.3150005341,-0.0,nan,nan,nan,1.0,2,0,3,True,"[5.577000141143799, 5.577000141143799, 5.577000141143799, 5.577000141143799]","""id0""",''
1520440577776857257,,306,,1520440577,776144944,'',22.3180007935,-0.0,nan,nan,nan,1.0,2,0,3,True,"[5.567999839782715, 5.567999839782715, 5.567999839782715, 5.567999839782715]","""id0""",''
1520440577968512106,,307,,1520440577,968016132,'',22.3180007935,-0.0,nan,nan,nan,1.0,2,0,3,True,"[5.581999778747559, 5.581999778747559, 5.581999778747559, 5.581999778747559]","""id0""",''
1520440578171146209,,308,,1520440578,170878509,'',22.3180007935,-0.0,nan,nan,nan,1.0,2,0,3,True,"[5.581999778747559, 5.581999778747559, 5.581999778747559, 5.581999778747559]","""id0""",''
1520440578378296933,,309,,1520440578,377229552,'',22.3180007935,-0.0,nan,nan,nan,1.0,2,0,3,True,"[5.585000038146973, 5.585000038146973, 5.585000038146973, 5.585000038146973]","""id0""",''
1520440578574428504,,310,,1520440578,573977889,'',22.3190002441,-0.0,nan,nan,nan,1.0,2,0,3,True,"[5.585000038146973, 5.585000038146973, 5.585000038146973, 5.585000038146973]","""id0""",''
1520440578787799246,,311,,1520440578,787307862,'',22.3129997253,-0.0,nan,nan,nan,1.0,2,0,3,True,"[5.577000141143799, 5.577000141143799, 5.577000141143799, 5.577000141143799]","""id0""",''
1520440578981089623,,312,,1520440578,980179916,'',22.3150005341,-0.0,nan,nan,nan,1.0,2,0,3,True,"[5.60099983215332, 5.60099983215332, 5.60099983215332, 5.60099983215332]","""id0""",''
1520440579176770828,,313,,1520440579,176115745,'',22.3299999237,-0.0,nan,nan,nan,1.0,2,0,3,True,"[5.5929999351501465, 5.5929999351501465, 5.5929999351501465, 5.5929999351501465]","""id0""",''
1520440579373640261,,314,,1520440579,373111274,'',22.327999115,-0.0,nan,nan,nan,1.0,2,0,3,True,"[5.571000099182129, 5.571000099182129, 5.571000099182129, 5.571000099182129]","""id0""",''
1520440579583850634,,315,,1520440579,582954006,'',22.3250007629,-0.0,nan,nan,nan,1.0,2,0,3,True,"[5.581999778747559, 5.581999778747559, 5.581999778747559, 5.581999778747559]","""id0""",''
1520440579777115591,,316,,1520440579,776127890,'',22.3409996033,-0.0,nan,nan,nan,1.0,2,0,3,True,"[5.60699987411499, 5.60699987411499, 5.60699987411499, 5.60699987411499]","""id0""",''
1520440579972496324,,317,,1520440579,972170712,'',22.3460006714,-0.0,nan,nan,nan,1.0,2,0,3,True,"[5.590000152587891, 5.590000152587891, 5.590000152587891, 5.590000152587891]","""id0""",''
1520440580182367604,,318,,1520440580,181776221,'',22.3630008698,-0.0,nan,nan,nan,1.0,2,0,3,True,"[5.631999969482422, 5.631999969482422, 5.631999969482422, 5.631999969482422]","""id0""",''
1520440580372168543,,319,,1520440580,371871060,'',22.3770008087,-0.0,nan,nan,nan,1.0,2,0,3,True,"[5.60699987411499, 5.60699987411499, 5.60699987411499, 5.60699987411499]","""id0""",''
1520440580576829542,,320,,1520440580,576426566,'',22.388999939,-0.0,nan,nan,nan,1.0,2,0,3,True,"[5.620999813079834, 5.620999813079834, 5.620999813079834, 5.620999813079834]","""id0""",''
1520440580780399306,,321,,1520440580,779897946,'',22.3980007172,-0.0,nan,nan,nan,1.0,2,0,3,True,"[5.60699987411499, 5.60699987411499, 5.60699987411499, 5.60699987411499]","""id0""",''
1520440580976397008,,322,,1520440580,976076481,'',22.4090003967,-0.0,nan,nan,nan,1.0,2,0,3,True,"[5.618000030517578, 5.618000030517578, 5.618000030517578, 5.618000030517578]","""id0""",''
1520440581177125380,,323,,1520440581,176604113,'',22.4139995575,-0.0,nan,nan,nan,1.0,2,0,3,True,"[5.614999771118164, 5.614999771118164, 5.614999771118164, 5.614999771118164]","""id0""",''
1520440581373459834,,324,,1520440581,372755383,'',22.4200000763,-0.0,nan,nan,nan,1.0,2,0,3,True,"[5.625999927520752, 5.625999927520752, 5.625999927520752, 5.625999927520752]","""id0""",''
1520440581575531704,,325,,1520440581,575076782,'',22.4330005646,-0.0,nan,nan,nan,1.0,2,0,3,True,"[5.625999927520752, 5.625999927520752, 5.625999927520752, 5.625999927520752]","""id0""",''
1520440581773655967,,326,,1520440581,773176524,'',22.4419994354,-0.0,nan,nan,nan,1.0,2,0,3,True,"[5.625999927520752, 5.625999927520752, 5.625999927520752, 5.625999927520752]","""id0""",''
1520440581977022987,,327,,1520440581,976527156,'',22.4500007629,-0.0,nan,nan,nan,1.0,2,0,3,True,"[5.625999927520752, 5.625999927520752, 5.625999927520752, 5.625999927520752]","""id0""",''
1520440582174789267,,328,,1520440582,174338278,'',22.4489994049,-0.0,nan,nan,nan,1.0,2,0,3,True,"[5.60699987411499, 5.60699987411499, 5.60699987411499, 5.60699987411499]","""id0""",''
1520440582376506578,,329,,1520440582,376141576,'',22.4500007629,-0.0,nan,nan,nan,1.0,2,0,3,True,"[5.618000030517578, 5.618000030517578, 5.618000030517578, 5.618000030517578]","""id0""",''
1520440582575351325,,330,,1520440582,574430998,'',22.4769992828,-0.0,nan,nan,nan,1.0,2,0,3,True,"[5.6620001792907715, 5.6620001792907715, 5.6620001792907715, 5.6620001792907715]","""id0""",''
1520440582773224785,,331,,1520440582,772894750,'',22.5090007782,-0.0,nan,nan,nan,1.0,2,0,3,True,"[5.670000076293945, 5.670000076293945, 5.670000076293945, 5.670000076293945]","""id0""",''
1520440582971924637,,332,,1520440582,971646323,'',22.5380001068,-0.0,nan,nan,nan,1.0,2,0,3,True,"[5.672999858856201, 5.672999858856201, 5.672999858856201, 5.672999858856201]","""id0""",''
1520440583195775537,,333,,1520440583,193336497,'',22.5599994659,-0.0,nan,nan,nan,1.0,2,0,3,True,"[5.664999961853027, 5.664999961853027, 5.664999961853027, 5.664999961853027]","""id0""",''
1520440583381868869,,334,,1520440583,381415247,'',22.5809993744,-0.0,nan,nan,nan,1.0,2,0,3,True,"[5.676000118255615, 5.676000118255615, 5.676000118255615, 5.676000118255615]","""id0""",''
1520440583577275652,,335,,1520440583,576547748,'',22.6000003815,-0.0,nan,nan,nan,1.0,2,0,3,True,"[5.670000076293945, 5.670000076293945, 5.670000076293945, 5.670000076293945]","""id0""",''
1520440583769771623,,336,,1520440583,769394908,'',22.6130008698,-0.0,nan,nan,nan,1.0,2,0,3,True,"[5.672999858856201, 5.672999858856201, 5.672999858856201, 5.672999858856201]","""id0""",''
1520440583975914733,,337,,1520440583,975453369,'',22.6270008087,-0.0,nan,nan,nan,1.0,2,0,3,True,"[5.681000232696533, 5.681000232696533, 5.681000232696533, 5.681000232696533]","""id0""",''
1520440584175798401,,338,,1520440584,175234934,'',22.6420001984,-0.0,nan,nan,nan,1.0,2,0,3,True,"[5.681000232696533, 5.681000232696533, 5.681000232696533, 5.681000232696533]","""id0""",''
1520440584375874550,,339,,1520440584,375287257,'',22.6529998779,-0.0,nan,nan,nan,1.0,2,0,3,True,"[5.681000232696533, 5.681000232696533, 5.681000232696533, 5.681000232696533]","""id0""",''
1520440584575327558,,340,,1520440584,574113678,'',22.6609992981,-0.0,nan,nan,nan,1.0,2,0,3,True,"[5.681000232696533, 5.681000232696533, 5.681000232696533, 5.681000232696533]","""id0""",''
1520440584774202066,,341,,1520440584,773804502,'',22.670999527,-0.0,nan,nan,nan,1.0,2,0,3,True,"[5.676000118255615, 5.676000118255615, 5.676000118255615, 5.676000118255615]","""id0""",''
1520440584972277841,,342,,1520440584,971977821,'',22.6790008545,-0.0,nan,nan,nan,1.0,2,0,3,True,"[5.684000015258789, 5.684000015258789, 5.684000015258789, 5.684000015258789]","""id0""",''
1520440585222734869,,343,,1520440585,220687872,'',22.6909999847,-0.0,nan,nan,nan,1.0,2,0,3,True,"[5.691999912261963, 5.691999912261963, 5.691999912261963, 5.691999912261963]","""id0""",''
1520440585379238816,,344,,1520440585,378709614,'',22.7049999237,-0.0,nan,nan,nan,1.0,2,0,3,True,"[5.697999954223633, 5.697999954223633, 5.697999954223633, 5.697999954223633]","""id0""",''
1520440585576404860,,345,,1520440585,575384900,'',22.7119998932,-0.0,nan,nan,nan,1.0,2,0,3,True,"[5.676000118255615, 5.676000118255615, 5.676000118255615, 5.676000118255615]","""id0""",''
1520440585776978072,,346,,1520440585,776333575,'',22.7189998627,-0.0,nan,nan,nan,1.0,2,0,3,True,"[5.691999912261963, 5.691999912261963, 5.691999912261963, 5.691999912261963]","""id0""",''
1520440585978051621,,347,,1520440585,977564295,'',22.7290000916,-0.0,nan,nan,nan,1.0,2,0,3,True,"[5.691999912261963, 5.691999912261963, 5.691999912261963, 5.691999912261963]","""id0""",''
1520440586173800195,,348,,1520440586,173570690,'',22.7369995117,-0.0,nan,nan,nan,1.0,2,0,3,True,"[5.691999912261963, 5.691999912261963, 5.691999912261963, 5.691999912261963]","""id0""",''
1520440586374315028,,349,,1520440586,373583822,'',22.7469997406,-0.0,nan,nan,nan,1.0,2,0,3,True,"[5.705999851226807, 5.705999851226807, 5.705999851226807, 5.705999851226807]","""id0""",''
1520440586573364748,,350,,1520440586,572944127,'',22.7590007782,-0.0,nan,nan,nan,1.0,2,0,3,True,"[5.709000110626221, 5.709000110626221, 5.709000110626221, 5.709000110626221]","""id0""",''
1520440586785870182,,351,,1520440586,784802497,'',22.767999649,-0.0,nan,nan,nan,1.0,2,0,3,True,"[5.695000171661377, 5.695000171661377, 5.695000171661377, 5.695000171661377]","""id0""",''
1520440586974479319,,352,,1520440586,974250607,'',22.7789993286,-0.0,nan,nan,nan,1.0,2,0,3,True,"[5.714000225067139, 5.714000225067139, 5.714000225067139, 5.714000225067139]","""id0""",''
1520440587171827401,,353,,1520440587,171535192,'',22.7889995575,-0.0,nan,nan,nan,1.0,2,0,3,True,"[5.710999965667725, 5.710999965667725, 5.710999965667725, 5.710999965667725]","""id0""",''
